[
  {
    "name": "Liberty Tax",
    "category": "Tax preparation",
    "phone": "+1 780-666-7365",
    "website": "https://www.libertytaxcanada.ca/70840",
    "address": "5006 50 Ave, Cold Lake, AB T9M 1P4",
    "city": "Cold Lake",
    "state": "Alberta",
    "state_code": "",
    "postal_code": "T9M 1P4",
    "latitude": 54.4134679,
    "longitude": -110.2057247,
    "rating": 3.1,
    "reviews": 28,
    "place_id": "ChIJg2x3tbrLp1MRHKXRhjp5Ofw"
  },
  {
    "name": "H&R Block",
    "category": "Tax preparation service",
    "phone": "+1 780-594-3747",
    "website": "https://www.hrblock.ca/stores/5011-50-ave/",
    "address": "5011 50 Ave, Cold Lake, AB T9M 1P4",
    "city": "Cold Lake",
    "state": "Alberta",
    "state_code": "",
    "postal_code": "T9M 1P4",
    "latitude": 54.413157,
    "longitude": -110.20683,
    "rating": 3.8,
    "reviews": 17,
    "place_id": "ChIJNdnJkiHKp1MRXfefL0fnlCw"
  },
  {
    "name": "Liberty Tax",
    "category": "Tax preparation",
    "phone": "+1 587-507-8074",
    "website": "https://www.libertytaxcanada.ca/70873",
    "address": "4425 Heritage Way Suite 4, Lacombe, AB T4L 2P4",
    "city": "Lacombe",
    "state": "Alberta",
    "state_code": "",
    "postal_code": "T4L 2P4",
    "latitude": 52.469743,
    "longitude": -113.7227942,
    "rating": 4.6,
    "reviews": 34,
    "place_id": "ChIJS2l_jUEFdVMR1gSne33eQLM"
  },
  {
    "name": "H&R Block",
    "category": "Tax preparation service",
    "phone": "+1 403-782-2000",
    "website": "https://www.hrblock.ca/stores/5013-50-st/",
    "address": "5013 50 St, Lacombe, AB T4L 1W8",
    "city": "Lacombe",
    "state": "Alberta",
    "state_code": "",
    "postal_code": "T4L 1W8",
    "latitude": 52.4636486,
    "longitude": -113.7303201,
    "rating": 3.6,
    "reviews": 35,
    "place_id": "ChIJP_IazAgEdVMRoAYc5fMZBHY"
  },
  {
    "name": "Anchor95 Tax and Consulting Services",
    "category": "Tax preparation",
    "phone": "+1 587-580-9025",
    "website": "",
    "address": "Sandpiper Blvd, Chestermere, AB T1X 0V4",
    "city": "Chestermere",
    "state": "Alberta",
    "state_code": "",
    "postal_code": "T1X 0V4",
    "latitude": 51.0177115,
    "longitude": -113.8142975,
    "rating": 5.0,
    "reviews": 126,
    "place_id": null
  },
  {
    "name": "Synscape Solutions Inc",
    "category": "Tax preparation service",
    "phone": "+1 403-399-9588",
    "website": "https://www.synscape.ca/",
    "address": "101 Hawkmere Pl, Chestermere, AB T1X 0C6",
    "city": "Chestermere",
    "state": "Alberta",
    "state_code": "",
    "postal_code": "T1X 0C6",
    "latitude": 51.0504176,
    "longitude": -113.8401555,
    "rating": 5.0,
    "reviews": 53,
    "place_id": "ChIJ94EwW0HbOUURk00mDUW1HlU"
  },
  {
    "name": "Liberty Tax",
    "category": "Tax preparation",
    "phone": "+1 587-317-3284",
    "website": "https://www.libertytaxcanada.ca/70774",
    "address": "140 E Chestermere Dr #32, Chestermere, AB T1X 1M1",
    "city": "Chestermere",
    "state": "Alberta",
    "state_code": "",
    "postal_code": "T1X 1M1",
    "latitude": 51.0511114,
    "longitude": -113.8146685,
    "rating": 3.6,
    "reviews": 17,
    "place_id": "ChIJ4QPa8Q59cVMRxx7tzb3fNMQ"
  },
  {
    "name": "TaxAssist Accountants",
    "category": "Tax preparation service",
    "phone": "+1 587-882-9909",
    "website": "https://www.taxassist.ca/accountants/camrose",
    "address": "5030 50 St, Camrose, AB T4V 1R2",
    "city": "Camrose",
    "state": "Alberta",
    "state_code": "",
    "postal_code": "T4V 1R2",
    "latitude": 53.022854,
    "longitude": -112.825167,
    "rating": 4.8,
    "reviews": 6,
    "place_id": "ChIJsbD_hua7ClMR6JdMB_aXIlU"
  },
  {
    "name": "Cam-Alta Accounting & Tax Services",
    "category": "Tax preparation service",
    "phone": "+1 780-672-5824",
    "website": "",
    "address": "5001 49 St, Camrose, AB T4V 1N5",
    "city": "Camrose",
    "state": "Alberta",
    "state_code": "",
    "postal_code": "T4V 1N5",
    "latitude": 53.0222087,
    "longitude": -112.8230276,
    "rating": 3.7,
    "reviews": 6,
    "place_id": "ChIJx2swfsS7ClMRZznS6fmTvtA"
  },
  {
    "name": "H&R Block",
    "category": "Tax preparation service",
    "phone": "+1 780-672-0155",
    "website": "https://www.hrblock.ca/stores/5022-49-st/",
    "address": "5022 49 St, Camrose, AB T4V 1N6",
    "city": "Camrose",
    "state": "Alberta",
    "state_code": "",
    "postal_code": "T4V 1N6",
    "latitude": 53.0229657,
    "longitude": -112.8233883,
    "rating": 4.6,
    "reviews": 80,
    "place_id": "ChIJX4kylsO7ClMRVG2oTrcBbjA"
  },
  {
    "name": "Mainstream Accounting",
    "category": "Tax preparation service",
    "phone": "+1 780-608-8700",
    "website": "",
    "address": "4704E 49 Ave, Camrose, AB T4V 3K9",
    "city": "Camrose",
    "state": "Alberta",
    "state_code": "",
    "postal_code": "T4V 3K9",
    "latitude": 53.020515,
    "longitude": -112.820978,
    "rating": 4.0,
    "reviews": 4,
    "place_id": "ChIJg0YIS8O7ClMRCnjaCUcFnOI"
  },
  {
    "name": "Time For Taxes",
    "category": "Tax preparation",
    "phone": "+1 780-589-3800",
    "website": "http://www.timefortaxes.ca/",
    "address": "10404 99 Ave #148, Fort Saskatchewan, AB T8L 3W2",
    "city": "Fort Saskatchewan",
    "state": "Alberta",
    "state_code": "",
    "postal_code": "T8L 3W2",
    "latitude": 53.7125768,
    "longitude": -113.2082467,
    "rating": 4.1,
    "reviews": 18,
    "place_id": null
  },
  {
    "name": "Alberta Tax Service",
    "category": "Tax preparation service",
    "phone": "+1 780-998-2992",
    "website": "http://www.altatax.com/",
    "address": "9809 101 St, Fort Saskatchewan, AB T8L 1V5",
    "city": "Fort Saskatchewan",
    "state": "Alberta",
    "state_code": "",
    "postal_code": "T8L 1V5",
    "latitude": 53.70932939999999,
    "longitude": -113.2121243,
    "rating": 4.2,
    "reviews": 5,
    "place_id": "ChIJ10B7V71HoFMRowj3XupJOZc"
  },
  {
    "name": "Liberty Tax",
    "category": "Tax preparation",
    "phone": "+1 587-410-4273",
    "website": "https://www.libertytaxcanada.ca/70300",
    "address": "10109 99 Ave, Fort Saskatchewan, AB T8L 1X7",
    "city": "Fort Saskatchewan",
    "state": "Alberta",
    "state_code": "",
    "postal_code": "T8L 1X7",
    "latitude": 53.7103614,
    "longitude": -113.212059,
    "rating": 4.0,
    "reviews": 37,
    "place_id": "ChIJL5gq1K5HoFMRrp0kLYupExs"
  },
  {
    "name": "Lightle Tax and Accounting Services Ltd",
    "category": "Tax preparation service",
    "phone": "+1 780-721-1281",
    "website": "https://www.lightletax.com/",
    "address": "2004 Sherwood Dr Suite # 14, Sherwood Park, AB T8A 0Z1",
    "city": "Sherwood Park",
    "state": "Alberta",
    "state_code": "",
    "postal_code": "T8A 0Z1",
    "latitude": 53.5249639,
    "longitude": -113.2953283,
    "rating": 4.8,
    "reviews": 19,
    "place_id": "ChIJ_aA48LUXoFMRYMjsM-G80bY"
  },
  {
    "name": "Tom Corsmeier Tax Services",
    "category": "Tax preparation",
    "phone": "+1 780-464-7550",
    "website": "http://www.tomcorsmeier.com/",
    "address": "2100 Premier Way, Sherwood Park, AB T8H 2G4",
    "city": "Sherwood Park",
    "state": "Alberta",
    "state_code": "",
    "postal_code": "T8H 2G4",
    "latitude": 53.560278,
    "longitude": -113.3144166,
    "rating": 5.0,
    "reviews": 39,
    "place_id": "ChIJ97A_MkYhoFMRdOL6gRQDcek"
  },
  {
    "name": "Bomcas - Accountant in Sherwood Park",
    "category": "Tax preparation service",
    "phone": "+1 780-667-5250",
    "website": "https://www.bomcas.ca/",
    "address": "181 Meadowview Bay, Sherwood Park, AB T8H 1P7",
    "city": "Sherwood Park",
    "state": "Alberta",
    "state_code": "",
    "postal_code": "T8H 1P7",
    "latitude": 53.5452617,
    "longitude": -113.2532733,
    "rating": 4.6,
    "reviews": 11,
    "place_id": "ChIJqfGvRngXoFMRA5FSmbam1V8"
  },
  {
    "name": "H&R Block",
    "category": "Tax preparation service",
    "phone": "+1 780-464-6124",
    "website": "https://www.hrblock.ca/stores/8005-emerald-dr-550/",
    "address": "8005 Emerald Dr #550, Sherwood Park, AB T8H 0P1",
    "city": "Sherwood Park",
    "state": "Alberta",
    "state_code": "",
    "postal_code": "T8H 0P1",
    "latitude": 53.5653347,
    "longitude": -113.2718224,
    "rating": 4.8,
    "reviews": 347,
    "place_id": "ChIJq5zYc-U9oFMR0-0a7vKSMR4"
  },
  {
    "name": "Smarttax Inc",
    "category": "Tax preparation service",
    "phone": "+1 780-464-7007",
    "website": "http://www.smarttax.ca/",
    "address": "2016 Sherwood Drive, Sherwood Park, AB T8A 3X3",
    "city": "Sherwood Park",
    "state": "Alberta",
    "state_code": "",
    "postal_code": "T8A 3X3",
    "latitude": 53.527379,
    "longitude": -113.294019,
    "rating": 4.7,
    "reviews": 13,
    "place_id": "ChIJebaC0rcXoFMRBbc0DDBTS1A"
  },
  {
    "name": "H&R Block",
    "category": "Tax preparation service",
    "phone": "+1 780-449-1350",
    "website": "https://www.hrblock.ca/stores/1020-sherwood-dr-165/",
    "address": "1020 Sherwood Dr #165, Sherwood Park, AB T8A 2G4",
    "city": "Sherwood Park",
    "state": "Alberta",
    "state_code": "",
    "postal_code": "T8A 2G4",
    "latitude": 53.5126144,
    "longitude": -113.3186206,
    "rating": 3.2,
    "reviews": 39,
    "place_id": "ChIJiXoojbwXoFMRMKFeTlwDqpg"
  },
  {
    "name": "Murtajil Inc.",
    "category": "Tax consultant",
    "phone": "+1 587-319-0252",
    "website": "http://www.murtajil.ca/",
    "address": "937 Fir St #116b, Sherwood Park, AB T5X 2R3",
    "city": "Sherwood Park",
    "state": "Alberta",
    "state_code": "",
    "postal_code": "T5X 2R3",
    "latitude": 53.5125532,
    "longitude": -113.332117,
    "rating": 5.0,
    "reviews": 8,
    "place_id": "ChIJTyHDPagXoFMRIbSs5fLEGHw"
  },
  {
    "name": "Terrace Heights Tax Services",
    "category": "Tax preparation service",
    "phone": "+1 587-498-9528",
    "website": "",
    "address": "7248 101 Ave NW, Edmonton, AB T6A 0J1",
    "city": "Edmonton",
    "state": "Alberta",
    "state_code": "",
    "postal_code": "T6A 0J1",
    "latitude": 53.5414974,
    "longitude": -113.4393444,
    "rating": 5.0,
    "reviews": 12,
    "place_id": "ChIJ78K4F5MioFMR_PV4LLZrrqg"
  },
  {
    "name": "Liberty Tax",
    "category": "Tax preparation",
    "phone": "+1 587-400-1577",
    "website": "https://www.libertytaxcanada.ca/70914",
    "address": "4433 118 Ave NW #2, Edmonton, AB T5W 1A8",
    "city": "Edmonton",
    "state": "Alberta",
    "state_code": "",
    "postal_code": "T5W 1A8",
    "latitude": 53.5701082,
    "longitude": -113.4111097,
    "rating": 4.8,
    "reviews": 102,
    "place_id": "ChIJ2RsdRo89oFMRJxadUEKbrk4"
  },
  {
    "name": "Stylistic Accounting & Tax Practice Inc.",
    "category": "Tax preparation",
    "phone": "+1 825-256-5125",
    "website": "http://www.satps.ca/",
    "address": "9245 50 St NW #201, Edmonton, AB T6B 3B6",
    "city": "Edmonton",
    "state": "Alberta",
    "state_code": "",
    "postal_code": "T6B 3B6",
    "latitude": 53.5284494,
    "longitude": -113.4175659,
    "rating": 5.0,
    "reviews": 30,
    "place_id": "ChIJJa5E-dEYoFMRxQYBQgBibTo"
  },
  {
    "name": "MelG Tax Services",
    "category": "Tax preparation service",
    "phone": "+1 587-501-3198",
    "website": "http://www.melgtaxservice.com/",
    "address": "10407 164 Ave NW, Edmonton, AB T5X 2J2",
    "city": "Edmonton",
    "state": "Alberta",
    "state_code": "",
    "postal_code": "T5X 2J2",
    "latitude": 53.62513999999999,
    "longitude": -113.5036,
    "rating": 5.0,
    "reviews": 6,
    "place_id": "ChIJ8wicPWgloFMRJW9aBYB9eHc"
  },
  {
    "name": "Jaberson & Associates, Tax Accountants",
    "category": "Tax preparation",
    "phone": "+1 780-643-6661",
    "website": "http://www.jaberson.com/",
    "address": "5430 136 Ave NW, Edmonton, AB T5A 0E4",
    "city": "Edmonton",
    "state": "Alberta",
    "state_code": "",
    "postal_code": "T5A 0E4",
    "latitude": 53.5971221,
    "longitude": -113.4205834,
    "rating": 4.4,
    "reviews": 42,
    "place_id": "ChIJJU-KvVkhoFMR7PeFqwbCQM0"
  },
  {
    "name": "Canadian Tax Financials",
    "category": "Tax preparation service",
    "phone": "+1 780-968-8955",
    "website": "http://www.canadiantaxfinancials.ca/",
    "address": "4707 49 Ave, Stony Plain, AB T7Z 2L6",
    "city": "Stony Plain",
    "state": "Alberta",
    "state_code": "",
    "postal_code": "T7Z 2L6",
    "latitude": 53.5319381,
    "longitude": -114.0011913,
    "rating": 4.9,
    "reviews": 56,
    "place_id": "ChIJ0cQfp9GRn1MR8ZxY4D7jLF8"
  },
  {
    "name": "Complete Accounting & Income Tax Services Inc.",
    "category": "Tax preparation service",
    "phone": "+1 780-963-5252",
    "website": "",
    "address": "26 Boulder Blvd, Stony Plain, AB T7Z 1V7",
    "city": "Stony Plain",
    "state": "Alberta",
    "state_code": "",
    "postal_code": "T7Z 1V7",
    "latitude": 53.5426471,
    "longitude": -113.994502,
    "rating": 4.7,
    "reviews": 13,
    "place_id": "ChIJtwYBFdWPn1MRcJ4SI8uSLGo"
  },
  {
    "name": "H&R Block",
    "category": "Tax preparation service",
    "phone": "+1 780-963-3066",
    "website": "https://www.hrblock.ca/stores/5112-50-st/",
    "address": "5112 50 St, Stony Plain, AB T7Z 1T4",
    "city": "Stony Plain",
    "state": "Alberta",
    "state_code": "",
    "postal_code": "T7Z 1T4",
    "latitude": 53.52804,
    "longitude": -114.0074231,
    "rating": 4.3,
    "reviews": 53,
    "place_id": "ChIJRzRQrs-Rn1MRPA2z41Nzuis"
  },
  {
    "name": "Liberty Tax",
    "category": "Tax preparation",
    "phone": "+1 587-410-7222",
    "website": "https://www.libertytaxcanada.ca/70402",
    "address": "317 First Ave, Spruce Grove, AB T7X 3X2",
    "city": "Spruce Grove",
    "state": "Alberta",
    "state_code": "",
    "postal_code": "T7X 3X2",
    "latitude": 53.54177019999999,
    "longitude": -113.9010039,
    "rating": 5.0,
    "reviews": 565,
    "place_id": "ChIJ3aGRQumPn1MRg3bJustvFfw"
  },
  {
    "name": "CVS Tax Service",
    "category": "Tax preparation service",
    "phone": "+1 780-962-7424",
    "website": "",
    "address": "93 McLeod Ave #107, Spruce Grove, AB T7X 2Z9",
    "city": "Spruce Grove",
    "state": "Alberta",
    "state_code": "",
    "postal_code": "T7X 2Z9",
    "latitude": 53.5430273,
    "longitude": -113.9119998,
    "rating": 5.0,
    "reviews": 24,
    "place_id": "ChIJTdcbtPeOn1MRgyuQtZ-dqVM"
  },
  {
    "name": "Above The Bar Accounting Services",
    "category": "Tax preparation",
    "phone": "+1 780-913-2596",
    "website": "http://atbtax.com/",
    "address": "210 McLeod Ave Unit 90, Spruce Grove, AB T7X 4K6",
    "city": "Spruce Grove",
    "state": "Alberta",
    "state_code": "",
    "postal_code": "T7X 4K6",
    "latitude": 53.54202799999999,
    "longitude": -113.9045502,
    "rating": 5.0,
    "reviews": 240,
    "place_id": "ChIJWaN2-u2On1MR4VT5bIcTX8c"
  },
  {
    "name": "Shirley's Income Tax",
    "category": "Tax preparation",
    "phone": "+1 780-909-7261",
    "website": "",
    "address": "400 Calahoo Rd #401, Spruce Grove, AB T7X 2K7",
    "city": "Spruce Grove",
    "state": "Alberta",
    "state_code": "",
    "postal_code": "T7X 2K7",
    "latitude": 53.54461999999999,
    "longitude": -113.9089399,
    "rating": 4.2,
    "reviews": 10,
    "place_id": "ChIJF4DWRNSPn1MRCPVUMXlcq68"
  },
  {
    "name": "Alberta Tax Service Ltd.",
    "category": "Tax preparation service",
    "phone": "+1 780-929-5152",
    "website": "http://www.altatax.com/",
    "address": "5013 50 St, Beaumont, AB T4X 1J9",
    "city": "Beaumont",
    "state": "Alberta",
    "state_code": "",
    "postal_code": "T4X 1J9",
    "latitude": 53.353899,
    "longitude": -113.4150651,
    "rating": 4.9,
    "reviews": 10,
    "place_id": "ChIJfUJYGcYcoFMRfsvfWgWId2Y"
  },
  {
    "name": "Lin Small Business and Tax Solutions",
    "category": "Tax preparation service",
    "phone": "+1 780-902-8257",
    "website": "",
    "address": "103 Rideau Pl, Beaumont, AB T4X 1Z6",
    "city": "Beaumont",
    "state": "Alberta",
    "state_code": "",
    "postal_code": "T4X 1Z6",
    "latitude": 53.3658758,
    "longitude": -113.3920986,
    "rating": 3.8,
    "reviews": 13,
    "place_id": "ChIJjzqvqKMcoFMRy5BNMF1I6oc"
  },
  {
    "name": "Gani Tax World",
    "category": "Tax consultant",
    "phone": "+1 437-973-0047",
    "website": "",
    "address": "5816 Peltier Cl, Beaumont, AB T4X 2Y1",
    "city": "Beaumont",
    "state": "Alberta",
    "state_code": "",
    "postal_code": "T4X 2Y1",
    "latitude": 53.3419234,
    "longitude": -113.4258363,
    "rating": 5.0,
    "reviews": 12,
    "place_id": "ChIJb9Q9CFsdoFMRPvdkPcAIsmY"
  },
  {
    "name": "Kaushal Accounting & Tax Services",
    "category": "Tax consultant",
    "phone": "+1 780-737-1600",
    "website": "",
    "address": "3703 41 Ave, Beaumont, AB T4X 3B4",
    "city": "Beaumont",
    "state": "Alberta",
    "state_code": "",
    "postal_code": "T4X 3B4",
    "latitude": 53.3448179,
    "longitude": -113.3951042,
    "rating": 5.0,
    "reviews": 8,
    "place_id": "ChIJqVW0g6DMpU0RePeS4lEYIQQ"
  },
  {
    "name": "J-Tax Services",
    "category": "Tax preparation service",
    "phone": "+1 403-342-7878",
    "website": "http://jtaxhelp.com/",
    "address": "4702 50 St #3, Red Deer, AB T4N 1X2",
    "city": "Red Deer",
    "state": "Alberta",
    "state_code": "",
    "postal_code": "T4N 1X2",
    "latitude": 52.26944959999999,
    "longitude": -113.8053312,
    "rating": 4.1,
    "reviews": 18,
    "place_id": "ChIJc6OQhi5UdFMRz6X3us_YXdM"
  },
  {
    "name": "Liberty Tax",
    "category": "Tax preparation",
    "phone": "+1 587-802-0999",
    "website": "https://www.libertytaxcanada.ca/70593",
    "address": "2965 Bremner Ave Suite 100, Red Deer, AB T4R 1S2",
    "city": "Red Deer",
    "state": "Alberta",
    "state_code": "",
    "postal_code": "T4R 1S2",
    "latitude": 52.2478018,
    "longitude": -113.8095299,
    "rating": 4.7,
    "reviews": 122,
    "place_id": "ChIJK7hr4EVXdFMR1_5Ev3kiq8c"
  },
  {
    "name": "Venture Tax Services",
    "category": "Tax preparation service",
    "phone": "+1 403-343-8829",
    "website": "https://www.venturetaxservices.ca/",
    "address": "4732 50 St, Red Deer, AB T4N 1X2",
    "city": "Red Deer",
    "state": "Alberta",
    "state_code": "",
    "postal_code": "T4N 1X2",
    "latitude": 52.2691688,
    "longitude": -113.807312,
    "rating": 4.3,
    "reviews": 40,
    "place_id": "ChIJ4cBmhi9UdFMRcJUpuSrtZ-E"
  },
  {
    "name": "D's Bookkeeping and Taxes",
    "category": "Tax preparation service",
    "phone": "+1 403-392-0889",
    "website": "",
    "address": "Cowan Close, Red Deer, AB T4P 2X2",
    "city": "Red Deer",
    "state": "Alberta",
    "state_code": "",
    "postal_code": "T4P 2X2",
    "latitude": 52.2734283,
    "longitude": -113.7708621,
    "rating": 5.0,
    "reviews": 41,
    "place_id": "ChIJe4uYzR5zGkkRxbhjxWtyR8k"
  },
  {
    "name": "Time Advantage Accounting Solutions",
    "category": "Tax preparation service",
    "phone": "+1 403-350-5077",
    "website": "http://wedotaxes.ca/",
    "address": "5913 50 Ave, Red Deer, AB T4N 4C4",
    "city": "Red Deer",
    "state": "Alberta",
    "state_code": "",
    "postal_code": "T4N 4C4",
    "latitude": 52.2789965,
    "longitude": -113.8134018,
    "rating": 4.7,
    "reviews": 18,
    "place_id": "ChIJd_8TKDRUdFMR_h5ZOdQsT8Q"
  },
  {
    "name": "Personal Tax Services",
    "category": "Tax preparation service",
    "phone": "+1 403-347-2221",
    "website": "",
    "address": "4610 49 Ave #108, Red Deer, AB T4N 6M5",
    "city": "Red Deer",
    "state": "Alberta",
    "state_code": "",
    "postal_code": "T4N 6M5",
    "latitude": 52.2653659,
    "longitude": -113.8118055,
    "rating": 3.7,
    "reviews": 3,
    "place_id": "ChIJjY1ZGC9UdFMRHMhpo2eua1o"
  },
  {
    "name": "H&R Block",
    "category": "Tax preparation service",
    "phone": "+1 403-341-6198",
    "website": "https://www.hrblock.ca/stores/4711-51-ave-107/",
    "address": "4711 51 Ave #107, Red Deer, AB T4N 6H8",
    "city": "Red Deer",
    "state": "Alberta",
    "state_code": "",
    "postal_code": "T4N 6H8",
    "latitude": 52.2666167,
    "longitude": -113.8156741,
    "rating": 4.1,
    "reviews": 163,
    "place_id": "ChIJcaRNNCRUdFMRWwGVnTKfRMw"
  },
  {
    "name": "H&R Block",
    "category": "Tax preparation service",
    "phone": "+1 403-341-0124",
    "website": "https://www.hrblock.ca/stores/6320-50-ave-16/",
    "address": "6320 50 Ave #16, Red Deer, AB T4N 4C6",
    "city": "Red Deer",
    "state": "Alberta",
    "state_code": "",
    "postal_code": "T4N 4C6",
    "latitude": 52.28564069999999,
    "longitude": -113.8163022,
    "rating": 3.8,
    "reviews": 57,
    "place_id": "ChIJizB7Z0pUdFMRdMa-1yF2g70"
  },
  {
    "name": "BalancedPAS",
    "category": "Tax preparation service",
    "phone": "+1 403-588-8181",
    "website": "",
    "address": "100 Vincent Close, Red Deer, AB T4R 0H8",
    "city": "Red Deer",
    "state": "Alberta",
    "state_code": "",
    "postal_code": "T4R 0H8",
    "latitude": 52.23664249999999,
    "longitude": -113.7547799,
    "rating": 5.0,
    "reviews": 1,
    "place_id": "ChIJf3wvaJ9XdFMRZzqBq2KZVmo"
  },
  {
    "name": "H&R Block",
    "category": "Tax preparation service",
    "phone": "+1 403-406-0595",
    "website": "https://www.hrblock.ca/stores/27-clearview-market-way-130/",
    "address": "27 Clearview Market Way #130, Red Deer, AB T4P 0M9",
    "city": "Red Deer",
    "state": "Alberta",
    "state_code": "",
    "postal_code": "T4P 0M9",
    "latitude": 52.2862768,
    "longitude": -113.7693404,
    "rating": 4.3,
    "reviews": 16,
    "place_id": "ChIJ6e6s0-tVdFMRdtarrRH-GHw"
  },
  {
    "name": "H&R Block",
    "category": "Tax preparation service",
    "phone": "+1 587-457-1520",
    "website": "https://www.hrblock.ca/stores/2004--50-ave-173/",
    "address": "2004 50 Ave #173, Red Deer, AB T4R 3A2",
    "city": "Red Deer",
    "state": "Alberta",
    "state_code": "",
    "postal_code": "T4R 3A2",
    "latitude": 52.2340234,
    "longitude": -113.8166927,
    "rating": 3.7,
    "reviews": 15,
    "place_id": "ChIJF_esjVRXdFMRXMbM5EoVsB0"
  },
  {
    "name": "MSF Bookkeeping & Taxes",
    "category": "Tax preparation service",
    "phone": "+1 403-307-5819",
    "website": "https://msfbooktax.com/",
    "address": "5913 50 Ave, Red Deer, AB T4N 4C4",
    "city": "Red Deer",
    "state": "Alberta",
    "state_code": "",
    "postal_code": "T4N 4C4",
    "latitude": 52.2789965,
    "longitude": -113.8134018,
    "rating": 5.0,
    "reviews": 13,
    "place_id": "ChIJ-xCjdqpVdFMRBx6JPsOLEsA"
  },
  {
    "name": "H&R Block",
    "category": "Tax preparation service",
    "phone": "+1 587-876-4337",
    "website": "https://www.hrblock.ca/office-locator/results/%3Faddress%3DT4N4C6",
    "address": "6380 50 Ave, Red Deer, AB T4N 4C6",
    "city": "Red Deer",
    "state": "Alberta",
    "state_code": "",
    "postal_code": "T4N 4C6",
    "latitude": 52.28574829999999,
    "longitude": -113.8164815,
    "rating": 3.2,
    "reviews": 10,
    "place_id": "ChIJZf1ChExUdFMR0Zb4hF4Kc5c"
  },
  {
    "name": "Lethbridge Choice Tax",
    "category": "Tax preparation service",
    "phone": "+1 403-795-8184",
    "website": "https://calgaryschoicetaxservices.com/lethbridge-choice-tax/",
    "address": "643 Keystone Chase W, Lethbridge, AB T1J 5G2",
    "city": "Lethbridge",
    "state": "Alberta",
    "state_code": "",
    "postal_code": "T1J 5G2",
    "latitude": 49.6684774,
    "longitude": -112.9141506,
    "rating": 4.9,
    "reviews": 18,
    "place_id": "ChIJp6pXX6-JblMR8ImZXnrBkYI"
  },
  {
    "name": "Liberty Tax",
    "category": "Tax preparation",
    "phone": "+1 587-800-3543",
    "website": "https://www.libertytaxcanada.ca/70066",
    "address": "1205 3 Ave S, Lethbridge, AB T1J 0J7",
    "city": "Lethbridge",
    "state": "Alberta",
    "state_code": "",
    "postal_code": "T1J 0J7",
    "latitude": 49.6965198,
    "longitude": -112.8288049,
    "rating": 3.5,
    "reviews": 28,
    "place_id": "ChIJD3IgMVOHblMRt9PRyC2LWI0"
  },
  {
    "name": "H&R Block",
    "category": "Tax preparation service",
    "phone": "+1 403-320-8564",
    "website": "https://www.hrblock.ca/stores/223-12-st-n/",
    "address": "223 12 St N, Lethbridge, AB T1H 7E1",
    "city": "Lethbridge",
    "state": "Alberta",
    "state_code": "",
    "postal_code": "T1H 7E1",
    "latitude": 49.70219179999999,
    "longitude": -112.8295721,
    "rating": 4.8,
    "reviews": 85,
    "place_id": "ChIJK4yVireHblMR2zdpgFou6ck"
  },
  {
    "name": "H&R Block",
    "category": "Tax preparation service",
    "phone": "+1 403-329-3632",
    "website": "https://www.hrblock.ca/stores/1224-3-ave-s/",
    "address": "1224 3 Ave S, Lethbridge, AB T1J 0J9",
    "city": "Lethbridge",
    "state": "Alberta",
    "state_code": "",
    "postal_code": "T1J 0J9",
    "latitude": 49.6961828,
    "longitude": -112.8278164,
    "rating": 3.9,
    "reviews": 111,
    "place_id": "ChIJl3M1BMqHblMRXaFeMKjseFI"
  },
  {
    "name": "H&R Block",
    "category": "Tax preparation service",
    "phone": "+1 403-320-2000",
    "website": "https://www.hrblock.ca/stores/1308-mayor-magrath-dr-s/",
    "address": "1308 Mayor Magrath Dr S, Lethbridge, AB T1K 2R2",
    "city": "Lethbridge",
    "state": "Alberta",
    "state_code": "",
    "postal_code": "T1K 2R2",
    "latitude": 49.67871239999999,
    "longitude": -112.803859,
    "rating": 3.4,
    "reviews": 32,
    "place_id": "ChIJG5Fu20OGblMRtOMF8cmyQCI"
  },
  {
    "name": "H&R Block",
    "category": "Tax preparation service",
    "phone": "+1 403-380-3178",
    "website": "https://www.hrblock.ca/stores/550-university-dr-w-137/",
    "address": "550 University Dr W #137, Lethbridge, AB T1J 4T3",
    "city": "Lethbridge",
    "state": "Alberta",
    "state_code": "",
    "postal_code": "T1J 4T3",
    "latitude": 49.692587,
    "longitude": -112.8921082,
    "rating": 4.5,
    "reviews": 29,
    "place_id": "ChIJqX0o2mmIblMRDEMZkxCyrbg"
  },
  {
    "name": "H&R Block",
    "category": "Tax preparation service",
    "phone": "+1 403-330-8730",
    "website": "https://www.hrblock.ca/stores/501-1-ave-s-a19/",
    "address": "501 1 Ave S A19, Lethbridge, AB T1J 4L9",
    "city": "Lethbridge",
    "state": "Alberta",
    "state_code": "",
    "postal_code": "T1J 4L9",
    "latitude": 49.6987304,
    "longitude": -112.8405995,
    "rating": 3.7,
    "reviews": 10,
    "place_id": "ChIJa1XmEs-HblMRG8HSxKD_JSQ"
  },
  {
    "name": "Liberty Tax",
    "category": "Tax preparation",
    "phone": "+1 587-803-1607",
    "website": "https://www.libertytaxcanada.ca/70135",
    "address": "10822 100 St Unit 101, Grande Prairie, AB T8V 1N9",
    "city": "Grande Prairie",
    "state": "Alberta",
    "state_code": "",
    "postal_code": "T8V 1N9",
    "latitude": 55.179196,
    "longitude": -118.7954,
    "rating": 4.3,
    "reviews": 76,
    "place_id": "ChIJneWPJZyRkFMRNwEGZzsYWas"
  },
  {
    "name": "IMW Tax Prep",
    "category": "Tax preparation service",
    "phone": "+1 780-539-7730",
    "website": "https://imwtax.ca/",
    "address": "9840 97 Ave #103, Grande Prairie, AB T8V 7K2",
    "city": "Grande Prairie",
    "state": "Alberta",
    "state_code": "",
    "postal_code": "T8V 7K2",
    "latitude": 55.1682968,
    "longitude": -118.7902145,
    "rating": 5.0,
    "reviews": 16,
    "place_id": "ChIJNV7yHEuRkFMR_jLNqQCwhng"
  },
  {
    "name": "Just Tax",
    "category": "Tax preparation service",
    "phone": "+1 780-933-0123",
    "website": "",
    "address": "9804 100 Ave. Suite 100, Grande Prairie, AB T8V 0M9",
    "city": "Grande Prairie",
    "state": "Alberta",
    "state_code": "",
    "postal_code": "T8V 0M9",
    "latitude": 55.1709492,
    "longitude": -118.7888477,
    "rating": 5.0,
    "reviews": 7,
    "place_id": "ChIJKXP0H46RkFMRldbh4N3hDpA"
  },
  {
    "name": "FBC Farm and Small Business Tax Consultants",
    "category": "Tax preparation service",
    "phone": "+1 780-539-0590",
    "website": "https://fbc.ca/",
    "address": "10027 101 Ave #201, Grande Prairie, AB T8V 0X9",
    "city": "Grande Prairie",
    "state": "Alberta",
    "state_code": "",
    "postal_code": "T8V 0X9",
    "latitude": 55.1714412,
    "longitude": -118.7965372,
    "rating": 4.6,
    "reviews": 41,
    "place_id": "ChIJX5tqAEyRkFMRlYwaMnl39No"
  },
  {
    "name": "H&R Block",
    "category": "Tax preparation service",
    "phone": "+1 780-539-5191",
    "website": "https://www.hrblock.ca/stores/9405a-100-st/",
    "address": "9405A 100 St, Grande Prairie, AB T8V 4M9",
    "city": "Grande Prairie",
    "state": "Alberta",
    "state_code": "",
    "postal_code": "T8V 4M9",
    "latitude": 55.1656105,
    "longitude": -118.7940124,
    "rating": 3.3,
    "reviews": 60,
    "place_id": "ChIJZfg6LTaRkFMRrQIxQ4otqTw"
  },
  {
    "name": "Thomson Group",
    "category": "Tax consultant",
    "phone": "+1 780-532-3372",
    "website": "http://www.tgtax.ca/",
    "address": "9906 106 St #301, Grande Prairie, AB T8V 8G1",
    "city": "Grande Prairie",
    "state": "Alberta",
    "state_code": "",
    "postal_code": "T8V 8G1",
    "latitude": 55.1699968,
    "longitude": -118.8146049,
    "rating": 5.0,
    "reviews": 5,
    "place_id": "ChIJuc1P80SRkFMRglgTChQ9pfM"
  },
  {
    "name": "Karen's Tax Service",
    "category": "Tax preparation service",
    "phone": "",
    "website": "",
    "address": "10028 88 Ave, Grande Prairie, AB T8V 0C4",
    "city": "Grande Prairie",
    "state": "Alberta",
    "state_code": "",
    "postal_code": "T8V 0C4",
    "latitude": 55.1600739,
    "longitude": -118.797106,
    "rating": 3.5,
    "reviews": 4,
    "place_id": "ChIJGXmYkjmRkFMRb2biwo6IzZY"
  },
  {
    "name": "H&R Block",
    "category": "Tax preparation service",
    "phone": "+1 780-532-5152",
    "website": "https://www.hrblock.ca/stores/11302a-100-st-2/",
    "address": "11302A 100 St #2, Grande Prairie, AB T8V 2N2",
    "city": "Grande Prairie",
    "state": "Alberta",
    "state_code": "",
    "postal_code": "T8V 2N2",
    "latitude": 55.1825796,
    "longitude": -118.7957772,
    "rating": 3.0,
    "reviews": 23,
    "place_id": "ChIJEas7LTaRkFMRJLpNSJLjfKA"
  },
  {
    "name": "Corporate & Personal Tax Services",
    "category": "Tax preparation service",
    "phone": "+1 647-607-5680",
    "website": "https://www.facebook.com/profile.php%3Fid%3D100083420945040",
    "address": "191 Edwards Way SW #202, Airdrie, AB T4B 3E2",
    "city": "Airdrie",
    "state": "Alberta",
    "state_code": "",
    "postal_code": "T4B 3E2",
    "latitude": 51.2921394,
    "longitude": -114.0193825,
    "rating": 5.0,
    "reviews": 9,
    "place_id": "ChIJs2WX1U9fcVMRKfoCGFUKfvU"
  },
  {
    "name": "Liberty Tax",
    "category": "Tax preparation",
    "phone": "+1 587-600-4980",
    "website": "https://www.libertytaxcanada.ca/70739",
    "address": "132 1 Ave NW Unit 109, Airdrie, AB T4B 3H4",
    "city": "Airdrie",
    "state": "Alberta",
    "state_code": "",
    "postal_code": "T4B 3H4",
    "latitude": 51.2929695,
    "longitude": -114.0154591,
    "rating": 3.0,
    "reviews": 29,
    "place_id": "ChIJi33g3rlfcVMRP1glsFazZ3w"
  },
  {
    "name": "H&R Block",
    "category": "Tax preparation service",
    "phone": "+1 403-948-4053",
    "website": "https://www.hrblock.ca/stores/35-mackenzie-way-sw-4102/",
    "address": "35 MacKenzie Way SW #4102, Airdrie, AB T4B 0V7",
    "city": "Airdrie",
    "state": "Alberta",
    "state_code": "",
    "postal_code": "T4B 0V7",
    "latitude": 51.2920214,
    "longitude": -114.0246253,
    "rating": 3.3,
    "reviews": 62,
    "place_id": "ChIJsW6832xfcVMRy21C-WsYUXQ"
  },
  {
    "name": "TaxAdVise",
    "category": "Tax preparation",
    "phone": "+1 403-980-7386",
    "website": "http://www.facebook.com/home.php%23!/pages/Airdrie-AB/TaxadVise/148000471898044",
    "address": "726 Woodside Bay NW, Airdrie, AB T4B 2W2",
    "city": "Airdrie",
    "state": "Alberta",
    "state_code": "",
    "postal_code": "T4B 2W2",
    "latitude": 51.2995211,
    "longitude": -114.041926,
    "rating": 3.0,
    "reviews": 6,
    "place_id": "ChIJZdJrQzlfcVMRcVhqmOHdyi8"
  },
  {
    "name": "H&R Block",
    "category": "Tax preparation service",
    "phone": "+1 403-948-1374",
    "website": "https://www.hrblock.ca/stores/1800-market-st-se-107/",
    "address": "1800 Market St #107, Airdrie, AB T4A 0K9",
    "city": "Airdrie",
    "state": "Alberta",
    "state_code": "",
    "postal_code": "T4A 0K9",
    "latitude": 51.2693763,
    "longitude": -113.9923109,
    "rating": 3.1,
    "reviews": 37,
    "place_id": "ChIJZztqwL1fcVMReA9xfmjnEtE"
  },
  {
    "name": "H&R Block",
    "category": "Tax preparation service",
    "phone": "+1 780-352-5253",
    "website": "https://www.hrblock.ca/stores/4720-50-ave-b/",
    "address": "4720 50 Ave B, Wetaskiwin, AB T9A 0R7",
    "city": "Wetaskiwin",
    "state": "Alberta",
    "state_code": "",
    "postal_code": "T9A 0R7",
    "latitude": 52.969323,
    "longitude": -113.368736,
    "rating": 4.0,
    "reviews": 24,
    "place_id": "ChIJ27urtD5OdVMR6-RtGfAMsUg"
  },
  {
    "name": "Liberty Tax",
    "category": "Tax preparation",
    "phone": "+1 403-793-2674",
    "website": "https://www.libertytaxcanada.ca/70098",
    "address": "215 3 St W, Brooks, AB T1R 0S3",
    "city": "Brooks",
    "state": "Alberta",
    "state_code": "",
    "postal_code": "T1R 0S3",
    "latitude": 50.5668896,
    "longitude": -111.9004977,
    "rating": 4.4,
    "reviews": 7,
    "place_id": "ChIJF02Ub_tjbVMR-A449wil73U"
  },
  {
    "name": "H&R Block",
    "category": "Tax preparation service",
    "phone": "+1 403-362-4582",
    "website": "https://www.hrblock.ca/stores/120-1-st-w/",
    "address": "120 1 St W, Brooks, AB T1R 1C1",
    "city": "Brooks",
    "state": "Alberta",
    "state_code": "",
    "postal_code": "T1R 1C1",
    "latitude": 50.5649452,
    "longitude": -111.8979045,
    "rating": 4.3,
    "reviews": 16,
    "place_id": "ChIJLxoRxqljbVMRcr839aNq2e4"
  },
  {
    "name": "Liberty Tax",
    "category": "Tax preparation",
    "phone": "+1 587-805-4691",
    "website": "https://www.libertytaxcanada.ca/70879",
    "address": "212 Main St NW, Slave Lake, AB T0G 0B9",
    "city": "Slave Lake",
    "state": "Alberta",
    "state_code": "",
    "postal_code": "T0G 0B9",
    "latitude": 55.2832346,
    "longitude": -114.77206,
    "rating": 4.8,
    "reviews": 32,
    "place_id": "ChIJ-6pndqeTolMREneAe2iTPqI"
  },
  {
    "name": "Rebryna Dana LLP",
    "category": "Tax preparation service",
    "phone": "+1 780-849-4949",
    "website": "http://rdllp.ca/",
    "address": "405 6 Ave SW, Slave Lake, AB T0G 2A4",
    "city": "Slave Lake",
    "state": "Alberta",
    "state_code": "",
    "postal_code": "T0G 2A4",
    "latitude": 55.2792888,
    "longitude": -114.7776648,
    "rating": 5.0,
    "reviews": 3,
    "place_id": "ChIJ4TAgF32NolMRKfJtgXOkjGc"
  },
  {
    "name": "H&R Block",
    "category": "Tax preparation service",
    "phone": "+1 780-849-6618",
    "website": "https://www.hrblock.ca/stores/229-3rd-avenue-nw-101/",
    "address": "229 3 Ave NW Suite 101, Slave Lake, AB T0G 2A1",
    "city": "Slave Lake",
    "state": "Alberta",
    "state_code": "",
    "postal_code": "T0G 2A1",
    "latitude": 55.2837572,
    "longitude": -114.7746553,
    "rating": 3.4,
    "reviews": 5,
    "place_id": "ChIJF2kCXWKNolMRTWekKakxd-0"
  },
  {
    "name": "H&R Block",
    "category": "Tax preparation service",
    "phone": "+1 403-678-3160",
    "website": "https://www.hrblock.ca/stores/300-old-canmore-rd-209/",
    "address": "300 Old Canmore Rd #209, Canmore, AB T1W 0L5",
    "city": "Canmore",
    "state": "Alberta",
    "state_code": "",
    "postal_code": "T1W 0L5",
    "latitude": 51.08797,
    "longitude": -115.34679,
    "rating": 3.4,
    "reviews": 32,
    "place_id": "ChIJIxQpBOvFcFMRPJkYVmfbLgY"
  },
  {
    "name": "Tax Calgary",
    "category": "Tax preparation service",
    "phone": "+1 587-391-9550",
    "website": "https://www.taxcalgary.com/",
    "address": "715 5 Ave SW Suite 1920, Calgary, AB T2P 2L8",
    "city": "Calgary",
    "state": "Alberta",
    "state_code": "",
    "postal_code": "T2P 2L8",
    "latitude": 51.0484971,
    "longitude": -114.0772742,
    "rating": 4.9,
    "reviews": 447,
    "place_id": "ChIJrWJljEF0cVMR65ubFuCrhrw"
  },
  {
    "name": "Calgary's Choice Tax Services",
    "category": "Tax preparation service",
    "phone": "+1 403-710-6603",
    "website": "https://calgaryschoicetaxservices.com/",
    "address": "638 11 Ave SW Suite V69 - #200, Calgary, AB T2R 0G2",
    "city": "Calgary",
    "state": "Alberta",
    "state_code": "",
    "postal_code": "T2R 0G2",
    "latitude": 51.0429453,
    "longitude": -114.0760424,
    "rating": 4.4,
    "reviews": 13,
    "place_id": "ChIJP48gLiBwcVMRR1Ilu5D7K2A"
  },
  {
    "name": "SAMA Accounting & Tax Services Ltd.",
    "category": "Tax preparation service",
    "phone": "+1 403-604-9229",
    "website": "",
    "address": "107 Weston Manor SW, Calgary, AB T3H 5N8",
    "city": "Calgary",
    "state": "Alberta",
    "state_code": "",
    "postal_code": "T3H 5N8",
    "latitude": 51.0663012,
    "longitude": -114.1953942,
    "rating": 5.0,
    "reviews": 285,
    "place_id": "ChIJQQ7vXI9ucVMRzemAABbLQgY"
  },
  {
    "name": "Calgary Tax Filing Services",
    "category": "Tax preparation",
    "phone": "+1 403-402-1135",
    "website": "https://calgarytaxfiling.ca/",
    "address": "262 Sherwood Bay NW, Calgary, AB T3R 3R8",
    "city": "Calgary",
    "state": "Alberta",
    "state_code": "",
    "postal_code": "T3R 3R8",
    "latitude": 51.1645631,
    "longitude": -114.1486359,
    "rating": 5.0,
    "reviews": 23,
    "place_id": "ChIJQcuwhpZncVMRQ4cXl9G8lP0"
  },
  {
    "name": "JAD TAX - Business Tax Calgary, Personal Tax Calgary, Self Employed tax Calgary, GST, Corporate Tax Calgary",
    "category": "Tax preparation service",
    "phone": "+1 403-973-0863",
    "website": "https://jadtax.com/",
    "address": "3740F 11a St NE UNIT#101, Calgary, AB T2E 6M6",
    "city": "Calgary",
    "state": "Alberta",
    "state_code": "",
    "postal_code": "T2E 6M6",
    "latitude": 51.0858652,
    "longitude": -114.0348672,
    "rating": 4.9,
    "reviews": 73,
    "place_id": "ChIJAQAQqulkcVMR-QQAW8gKVdk"
  },
  {
    "name": "PRO TAX BLOCK",
    "category": "Tax preparation service",
    "phone": "+1 403-351-5959",
    "website": "https://ptbcanada.ca/",
    "address": "4774 Westwinds Dr NE, Calgary, AB T3J 3Z4",
    "city": "Calgary",
    "state": "Alberta",
    "state_code": "",
    "postal_code": "T3J 3Z4",
    "latitude": 51.10194809999999,
    "longitude": -113.9664633,
    "rating": 4.9,
    "reviews": 1706,
    "place_id": "ChIJrThGsYNkcVMRUafa3z-EYG0"
  },
  {
    "name": "Insta Tax Services",
    "category": "Tax preparation service",
    "phone": "+1 403-475-8600",
    "website": "https://instataxservices.com/",
    "address": "61 Hampstead Gardens NW, Calgary, AB T3A 5Y5",
    "city": "Calgary",
    "state": "Alberta",
    "state_code": "",
    "postal_code": "T3A 5Y5",
    "latitude": 51.1437833,
    "longitude": -114.1287149,
    "rating": 4.9,
    "reviews": 139,
    "place_id": "ChIJ-cdBJINkcVMRfMgE5poV9HQ"
  },
  {
    "name": "Affordable Accounting Solutions",
    "category": "Tax preparation service",
    "phone": "+1 403-561-3697",
    "website": "http://gettaxes.ca/",
    "address": "10325 Bonaventure Dr S E #420, Calgary, AB T2J 7E4",
    "city": "Calgary",
    "state": "Alberta",
    "state_code": "",
    "postal_code": "T2J 7E4",
    "latitude": 50.9603878,
    "longitude": -114.069087,
    "rating": 4.8,
    "reviews": 44,
    "place_id": "ChIJQeC2VUB0cVMR9Hh49BzBw14"
  },
  {
    "name": "Liberty Tax",
    "category": "Tax preparation",
    "phone": "+1 403-277-2677",
    "website": "https://www.libertytaxcanada.ca/70417",
    "address": "408 16 Ave NE, Calgary, AB T2E 1K2",
    "city": "Calgary",
    "state": "Alberta",
    "state_code": "",
    "postal_code": "T2E 1K2",
    "latitude": 51.0671688,
    "longitude": -114.0556888,
    "rating": 4.4,
    "reviews": 69,
    "place_id": "ChIJpd4CT4hlcVMRpmmqV1NX9G8"
  },
  {
    "name": "A+ Tax and Bookkeeping Services",
    "category": "Tax preparation service",
    "phone": "+1 403-909-9910",
    "website": "https://a-plus-taxes.com/",
    "address": "6815 8 St NE Suite 290, Calgary, AB T2E 7H7",
    "city": "Calgary",
    "state": "Alberta",
    "state_code": "",
    "postal_code": "T2E 7H7",
    "latitude": 51.1140546,
    "longitude": -114.0454428,
    "rating": 4.9,
    "reviews": 81,
    "place_id": "ChIJafislQ5xcVMRigQR-IKT3Qs"
  },
  {
    "name": "Xpress Tax Solutions",
    "category": "Tax preparation service",
    "phone": "+1 403-999-5999",
    "website": "http://www.mytaxclinic.ca/",
    "address": "1830 52 St. SE #203, Calgary, AB T2B 1N1",
    "city": "Calgary",
    "state": "Alberta",
    "state_code": "",
    "postal_code": "T2B 1N1",
    "latitude": 51.0360726,
    "longitude": -113.9578112,
    "rating": 4.8,
    "reviews": 159,
    "place_id": "ChIJA0jmJNJ9cVMRZcuTLsIubZg"
  },
  {
    "name": "Optimum Tax",
    "category": "Tax preparation",
    "phone": "+1 587-284-7060",
    "website": "http://www.optimum-tax.com/",
    "address": "23 Kingsland Pl SW, Calgary, AB T2V 2K1",
    "city": "Calgary",
    "state": "Alberta",
    "state_code": "",
    "postal_code": "T2V 2K1",
    "latitude": 50.9850467,
    "longitude": -114.0789433,
    "rating": 5.0,
    "reviews": 57,
    "place_id": "ChIJXz_kcVtxcVMRh7Qz9MwFls8"
  },
  {
    "name": "MHU Financial Services Inc.",
    "category": "Tax preparation service",
    "phone": "+1 403-293-0599",
    "website": "http://www.mhufinancial.com/",
    "address": "3770 Westwinds Dr NE Unit# 102, Calgary, AB T3J 5H3",
    "city": "Calgary",
    "state": "Alberta",
    "state_code": "",
    "postal_code": "T3J 5H3",
    "latitude": 51.107133,
    "longitude": -113.974655,
    "rating": 4.8,
    "reviews": 436,
    "place_id": "ChIJzeb0CwpjcVMRAD3eFoK7rIs"
  },
  {
    "name": "Anytime Accounting",
    "category": "Tax preparation service",
    "phone": "+1 368-999-8588",
    "website": "https://anytime-accounting.ca/",
    "address": "1000 7 Ave SW Office 30, Calgary, AB T2P 5L5",
    "city": "Calgary",
    "state": "Alberta",
    "state_code": "",
    "postal_code": "T2P 5L5",
    "latitude": 51.0473612,
    "longitude": -114.0846058,
    "rating": 4.9,
    "reviews": 234,
    "place_id": "ChIJqYB00L9xcVMRAs4hhD6IuhU"
  },
  {
    "name": "Calgary Tax Consulting Inc.",
    "category": "Tax preparation",
    "phone": "+1 403-265-2011",
    "website": "http://www.calgarytaxconsulting.com/",
    "address": "50 Nolanridge Ct NW Unit 225, Calgary, AB T3R 2A8",
    "city": "Calgary",
    "state": "Alberta",
    "state_code": "",
    "postal_code": "T3R 2A8",
    "latitude": 51.17074,
    "longitude": -114.1683028,
    "rating": 4.7,
    "reviews": 27,
    "place_id": "ChIJV_pNXiBpcVMRRO_w_6GV7rs"
  },
  {
    "name": "Ahmad Tax Services",
    "category": "Tax preparation service",
    "phone": "+1 403-909-5754",
    "website": "http://www.ahmadtaxservices.ca/",
    "address": "55 Lewiston Vw NE, Calgary, AB T3P 0T7",
    "city": "Calgary",
    "state": "Alberta",
    "state_code": "",
    "postal_code": "T3P 0T7",
    "latitude": 51.1868975,
    "longitude": -114.0421614,
    "rating": 5.0,
    "reviews": 37,
    "place_id": null
  },
  {
    "name": "Liberty Tax",
    "category": "Tax preparation",
    "phone": "+1 587-319-2326",
    "website": "https://www.libertytaxcanada.ca/70843",
    "address": "8330 Macleod Trl SE D3, Calgary, AB T2H 2V2",
    "city": "Calgary",
    "state": "Alberta",
    "state_code": "",
    "postal_code": "T2H 2V2",
    "latitude": 50.97829429999999,
    "longitude": -114.0698512,
    "rating": 4.8,
    "reviews": 132,
    "place_id": "ChIJV7b4s4BxcVMR5JYhuXZZBrg"
  },
  {
    "name": "Gold Coin Tax and Accounting Solution",
    "category": "Tax preparation service",
    "phone": "+1 587-969-0194",
    "website": "http://www.goldcointax.com/",
    "address": "194 Evanspark Cir NW, Calgary, AB T3P 0A5",
    "city": "Calgary",
    "state": "Alberta",
    "state_code": "",
    "postal_code": "T3P 0A5",
    "latitude": 51.1709471,
    "longitude": -114.1173871,
    "rating": 5.0,
    "reviews": 56,
    "place_id": "ChIJQym7HMlncVMRbyAcJ5dsvJI"
  },
  {
    "name": "Calgary Income Tax Services",
    "category": "Tax preparation",
    "phone": "+1 403-608-2575",
    "website": "http://calgaryincometax.com/",
    "address": "106 Bridlecrest Blvd SW, Calgary, AB T2Y 4Y1",
    "city": "Calgary",
    "state": "Alberta",
    "state_code": "",
    "postal_code": "T2Y 4Y1",
    "latitude": 50.90404179999999,
    "longitude": -114.1194174,
    "rating": 5.0,
    "reviews": 7,
    "place_id": "ChIJg9p3BsV1cVMRBINXbcYiw0A"
  },
  {
    "name": "FIRPTA CANADA",
    "category": "Tax preparation",
    "phone": "+1 587-358-2977",
    "website": "http://www.firptacanada.ca/%3Futm_source%3Dgoogle%26utm_medium%3Dorganic%26utm_campaign%3Dgooglebusinessprofile",
    "address": "700 6 Ave SW #1770, Calgary, AB T2P 0T8",
    "city": "Calgary",
    "state": "Alberta",
    "state_code": "",
    "postal_code": "T2P 0T8",
    "latitude": 51.048058,
    "longitude": -114.076624,
    "rating": 5.0,
    "reviews": 198,
    "place_id": "ChIJc7k2YCRxcVMRakgZWXVhodY"
  },
  {
    "name": "Alberta EFile Inc",
    "category": "Tax preparation service",
    "phone": "+1 403-255-6421",
    "website": "",
    "address": "5917 1a St SW Suite 203A, Calgary, AB T2H 0G4",
    "city": "Calgary",
    "state": "Alberta",
    "state_code": "",
    "postal_code": "T2H 0G4",
    "latitude": 51.00060569999999,
    "longitude": -114.0682226,
    "rating": 4.6,
    "reviews": 29,
    "place_id": "ChIJvVOu3z5xcVMRSIry70vvUQ4"
  },
  {
    "name": "Taxmizers Canada Inc.",
    "category": "Tax preparation service",
    "phone": "+1 403-660-7334",
    "website": "",
    "address": "1904 17 Ave NW, Calgary, AB T2M 0S4",
    "city": "Calgary",
    "state": "Alberta",
    "state_code": "",
    "postal_code": "T2M 0S4",
    "latitude": 51.068079,
    "longitude": -114.1048298,
    "rating": 3.4,
    "reviews": 18,
    "place_id": "ChIJARyWjYVvcVMRA_MFVdL-h5M"
  },
  {
    "name": "Trans Canada Tax Service",
    "category": "Tax preparation service",
    "phone": "+1 403-212-1223",
    "website": "http://www.transcdatax.ca/",
    "address": "355 Heritage Dr SE #204, Calgary, AB T2H 1M8",
    "city": "Calgary",
    "state": "Alberta",
    "state_code": "",
    "postal_code": "T2H 1M8",
    "latitude": 50.9786403,
    "longitude": -114.0619412,
    "rating": 5.0,
    "reviews": 1,
    "place_id": "ChIJ7zy6aABxcVMRtYoFIiLB7bU"
  },
  {
    "name": "Klassen Tax Services Inc",
    "category": "Tax preparation service",
    "phone": "+1 403-719-0656",
    "website": "https://klassentax.ca/",
    "address": "7013 Ogden Rd SE, Calgary, AB T2C 1B5",
    "city": "Calgary",
    "state": "Alberta",
    "state_code": "",
    "postal_code": "T2C 1B5",
    "latitude": 50.989315,
    "longitude": -114.0010813,
    "rating": 4.6,
    "reviews": 10,
    "place_id": "ChIJO7HsD2ZwcVMRFk5ISuqHmkw"
  },
  {
    "name": "Tax Calgary South",
    "category": "Tax preparation service",
    "phone": "+1 587-391-9550",
    "website": "https://www.taxcalgary.com/",
    "address": "259 Midpark Way SE Suite #205, Calgary, AB T2X 1M2",
    "city": "Calgary",
    "state": "Alberta",
    "state_code": "",
    "postal_code": "T2X 1M2",
    "latitude": 50.91207199999999,
    "longitude": -114.0636481,
    "rating": 3.7,
    "reviews": 3,
    "place_id": "ChIJSXXjqYd3cVMRTgv2hG53Kxs"
  },
  {
    "name": "Tax Advisory Group Ltd",
    "category": "Tax preparation service",
    "phone": "+1 403-265-0162",
    "website": "https://www.cdntagtax.com/",
    "address": "4441 76 Ave SE, Calgary, AB T2C 2L5",
    "city": "Calgary",
    "state": "Alberta",
    "state_code": "",
    "postal_code": "T2C 2L5",
    "latitude": 50.98403219999999,
    "longitude": -113.9707084,
    "rating": 5.0,
    "reviews": 3,
    "place_id": "ChIJ5zdA0xt6cVMRWh93DwzcUZg"
  },
  {
    "name": "Tax Pro Inc",
    "category": "Tax preparation service",
    "phone": "+1 403-210-3316",
    "website": "http://taxproinc.ca/home.html",
    "address": "1632 14 Ave NW, Calgary, AB T2N 1M7",
    "city": "Calgary",
    "state": "Alberta",
    "state_code": "",
    "postal_code": "T2N 1M7",
    "latitude": 51.0654324,
    "longitude": -114.0996443,
    "rating": 4.0,
    "reviews": 13,
    "place_id": "ChIJXcNQwJZvcVMRw4KU4UKy5eE"
  },
  {
    "name": "Kidane Tax Services",
    "category": "Tax preparation",
    "phone": "+1 403-402-3153",
    "website": "http://equbaytax.com/",
    "address": "2935 17 Ave SE, Calgary, AB T2B 1N7",
    "city": "Calgary",
    "state": "Alberta",
    "state_code": "",
    "postal_code": "T2B 1N7",
    "latitude": 51.0374469,
    "longitude": -113.9912593,
    "rating": 5.0,
    "reviews": 6,
    "place_id": "ChIJhyZsgGh7cVMRL_B6-i6ahzo"
  },
  {
    "name": "SIRK Accounting & Tax",
    "category": "Tax preparation service",
    "phone": "+1 587-316-5220",
    "website": "https://sirkaccounting.ca/",
    "address": "9705 Horton Rd SW A206, Calgary, AB T2V 2X4",
    "city": "Calgary",
    "state": "Alberta",
    "state_code": "",
    "postal_code": "T2V 2X4",
    "latitude": 50.9678605,
    "longitude": -114.0764425,
    "rating": 4.2,
    "reviews": 9,
    "place_id": null
  },
  {
    "name": "H&R Block",
    "category": "Tax preparation service",
    "phone": "+1 587-475-7997",
    "website": "https://www.hrblock.ca/stores/1518-16-ave-nw/",
    "address": "1518 16 Ave NW, Calgary, AB T2M 0R6",
    "city": "Calgary",
    "state": "Alberta",
    "state_code": "",
    "postal_code": "T2M 0R6",
    "latitude": 51.0672538,
    "longitude": -114.0962573,
    "rating": 3.9,
    "reviews": 37,
    "place_id": "ChIJo7Q8H5FvcVMRm7KKcRF9MNE"
  },
  {
    "name": "Liberty Tax",
    "category": "Tax preparation",
    "phone": "+1 587-319-2341",
    "website": "https://www.libertytaxcanada.ca/70444",
    "address": "1109 17 Ave SW #102, Calgary, AB T2T 5R9",
    "city": "Calgary",
    "state": "Alberta",
    "state_code": "",
    "postal_code": "T2T 5R9",
    "latitude": 51.0375504,
    "longitude": -114.087818,
    "rating": 4.0,
    "reviews": 32,
    "place_id": "ChIJPwr9K0BxcVMR3x1Eew7aVYM"
  },
  {
    "name": "Buchanan Barry LLP",
    "category": "Tax preparation service",
    "phone": "+1 403-262-2116",
    "website": "http://www.buchananbarry.ca/",
    "address": "635 8 Ave SW #1300, Calgary, AB T2P 3M3",
    "city": "Calgary",
    "state": "Alberta",
    "state_code": "",
    "postal_code": "T2P 3M3",
    "latitude": 51.0456666,
    "longitude": -114.0758168,
    "rating": 4.6,
    "reviews": 18,
    "place_id": "ChIJ9bpsL-RvcVMR7xuiesXeeFo"
  },
  {
    "name": "East Willow Tax and Accounting",
    "category": "Tax preparation",
    "phone": "+1 403-888-9228",
    "website": "https://eastwillow.ca/",
    "address": "330 5 Ave SW, Calgary, AB T2P 0L4",
    "city": "Calgary",
    "state": "Alberta",
    "state_code": "",
    "postal_code": "T2P 0L4",
    "latitude": 51.0487856,
    "longitude": -114.0691793,
    "rating": 4.2,
    "reviews": 5,
    "place_id": "ChIJA2-mP21vcVMRj6FMXaCY_0w"
  },
  {
    "name": "H&R Block",
    "category": "Tax preparation service",
    "phone": "+1 403-543-4171",
    "website": "https://www.hrblock.ca/stores/1029-17-ave-sw-104/",
    "address": "1029 17 Ave SW, Calgary, AB T2T 0A9",
    "city": "Calgary",
    "state": "Alberta",
    "state_code": "",
    "postal_code": "T2T 0A9",
    "latitude": 51.03756689999999,
    "longitude": -114.0860107,
    "rating": 4.1,
    "reviews": 354,
    "place_id": "ChIJ2Z0FRCBwcVMR2vN1KpBIseI"
  },
  {
    "name": "H&R Block",
    "category": "Tax preparation service",
    "phone": "+1 403-650-1495",
    "website": "https://www.hrblock.ca/stores/317-7-ave-sw-t359/",
    "address": "317 7 Ave SW T359, Calgary, AB T2P 2Y9",
    "city": "Calgary",
    "state": "Alberta",
    "state_code": "",
    "postal_code": "T2P 2Y9",
    "latitude": 51.04605549999999,
    "longitude": -114.06984,
    "rating": 4.4,
    "reviews": 69,
    "place_id": "ChIJHabw5fxvcVMRADGsBVa24GE"
  },
  {
    "name": "H&R Block",
    "category": "Tax preparation service",
    "phone": "+1 403-543-4177",
    "website": "https://www.hrblock.ca/stores/225--7-ave-sw-260/",
    "address": "225 7 Ave SW #260, Calgary, AB T2P 2W2",
    "city": "Calgary",
    "state": "Alberta",
    "state_code": "",
    "postal_code": "T2P 2W2",
    "latitude": 51.046115,
    "longitude": -114.0672161,
    "rating": 3.9,
    "reviews": 68,
    "place_id": "ChIJn7-vEfxvcVMRGvhON_jLM2E"
  },
  {
    "name": "Incan Tax & Accounting Inc",
    "category": "Tax preparation service",
    "phone": "+1 403-852-1565",
    "website": "https://www.incantax.ca/",
    "address": "31 Cityspring Bay NE, Calgary, AB T3N 1Z9",
    "city": "Calgary",
    "state": "Alberta",
    "state_code": "",
    "postal_code": "T3N 1Z9",
    "latitude": 51.1487729,
    "longitude": -113.9534385,
    "rating": 4.5,
    "reviews": 8,
    "place_id": "ChIJDyE_1ChjcVMR_1kRmFRbMKc"
  },
  {
    "name": "Xing Professional Corporation",
    "category": "Tax consultant",
    "phone": "+1 403-383-2286",
    "website": "https://expatriatetax.ca/",
    "address": "638 11 Ave SW #200, Calgary, AB T2R 0E2",
    "city": "Calgary",
    "state": "Alberta",
    "state_code": "",
    "postal_code": "T2R 0E2",
    "latitude": 51.0429453,
    "longitude": -114.0760424,
    "rating": 5.0,
    "reviews": 2,
    "place_id": "ChIJXcgH8-VxcVMRv0sknOODbUc"
  },
  {
    "name": "Ernst & Young",
    "category": "Tax preparation service",
    "phone": "+1 403-290-4100",
    "website": "http://ey.com/ca",
    "address": "215 2 St SW #2200, Calgary, AB T2P 1M4",
    "city": "Calgary",
    "state": "Alberta",
    "state_code": "",
    "postal_code": "T2P 1M4",
    "latitude": 51.0508329,
    "longitude": -114.0680383,
    "rating": 3.6,
    "reviews": 9,
    "place_id": "ChIJi2d8WfpvcVMR7kZbxXimGbo"
  },
  {
    "name": "RDS Bookkeeping and Tax Services",
    "category": "Tax preparation service",
    "phone": "+1 403-707-3097",
    "website": "https://www.facebook.com/profile.php%3Fid%3D100090434210346%26mibextid%3DLQQJ4d",
    "address": "524 15 Ave NE, Calgary, AB T2E 1H6",
    "city": "Calgary",
    "state": "Alberta",
    "state_code": "",
    "postal_code": "T2E 1H6",
    "latitude": 51.0661858,
    "longitude": -114.0519207,
    "rating": 5.0,
    "reviews": 3,
    "place_id": "ChIJ1fRwiYdlcVMRTRWadiKc5kU"
  },
  {
    "name": "CN Tax & Accounting Services",
    "category": "Tax consultant",
    "phone": "+1 780-289-3870",
    "website": "http://cntaxaccounting.com/",
    "address": "CN Tower, 10004 104 Ave NW Unit 1126, Edmonton, AB T5J 0K1",
    "city": "Edmonton",
    "state": "Alberta",
    "state_code": "",
    "postal_code": "T5J 0K1",
    "latitude": 53.5468633,
    "longitude": -113.491344,
    "rating": 4.9,
    "reviews": 1107,
    "place_id": "ChIJlRSosKAkoFMR58zrfuyy9PM"
  },
  {
    "name": "TAX RETURN & ACCOUNTING SERVICES",
    "category": "Tax preparation service",
    "phone": "+1 587-710-6429",
    "website": "",
    "address": "12008 66 St NW, Edmonton, AB T5B 1J6",
    "city": "Edmonton",
    "state": "Alberta",
    "state_code": "",
    "postal_code": "T5B 1J6",
    "latitude": 53.57390299999999,
    "longitude": -113.4434022,
    "rating": 4.6,
    "reviews": 55,
    "place_id": "ChIJ8x038SQjoFMRVmuie7z2rEo"
  },
  {
    "name": "Keystone Tax & Accounting",
    "category": "Tax preparation",
    "phone": "+1 780-479-8818",
    "website": "https://keystonetaxes.ca/",
    "address": "10015 116 St NW #102, Edmonton, AB T5K 1V5",
    "city": "Edmonton",
    "state": "Alberta",
    "state_code": "",
    "postal_code": "T5K 1V5",
    "latitude": 53.5392404,
    "longitude": -113.5209127,
    "rating": 4.2,
    "reviews": 109,
    "place_id": "ChIJS69kL6EjoFMRRWT-lt--CPw"
  },
  {
    "name": "Quick Return Income Tax Service",
    "category": "Tax preparation service",
    "phone": "+1 780-463-4162",
    "website": "",
    "address": "3903 106 St, Edmonton, AB T6J 2M3",
    "city": "Edmonton",
    "state": "Alberta",
    "state_code": "",
    "postal_code": "T6J 2M3",
    "latitude": 53.4746143,
    "longitude": -113.5044228,
    "rating": 4.9,
    "reviews": 34,
    "place_id": "ChIJsY86CzsfoFMR8-CTg_kycng"
  },
  {
    "name": "Alberta Tax Services",
    "category": "Tax preparation service",
    "phone": "+1 780-414-5000",
    "website": "http://www.altatax.com/",
    "address": "3908 97 St NW #2, Edmonton, AB T6E 6N2",
    "city": "Edmonton",
    "state": "Alberta",
    "state_code": "",
    "postal_code": "T6E 6N2",
    "latitude": 53.4743911,
    "longitude": -113.4799588,
    "rating": 4.3,
    "reviews": 78,
    "place_id": "ChIJGV4YKC0foFMRmsdPOI-lZ5A"
  },
  {
    "name": "Happy Returns Tax Services Ltd.",
    "category": "Tax preparation service",
    "phone": "+1 780-489-2400",
    "website": "",
    "address": "10106 156 St NW, Edmonton, AB T5P 2P9",
    "city": "Edmonton",
    "state": "Alberta",
    "state_code": "",
    "postal_code": "T5P 2P9",
    "latitude": 53.54199,
    "longitude": -113.59081,
    "rating": 3.8,
    "reviews": 236,
    "place_id": "ChIJnab5CgshoFMRqLvgNjNcojU"
  },
  {
    "name": "Sunu accounting services -Tax",
    "category": "Tax preparation service",
    "phone": "+1 587-920-8226",
    "website": "",
    "address": "10717 98 St NW, Edmonton, AB T5H 2N8",
    "city": "Edmonton",
    "state": "Alberta",
    "state_code": "",
    "postal_code": "T5H 2N8",
    "latitude": 53.5520444,
    "longitude": -113.4905166,
    "rating": 4.6,
    "reviews": 38,
    "place_id": "ChIJy6raXksioFMR2W1DzN0TaDI"
  },
  {
    "name": "Cybal Finance & Tax Services Inc",
    "category": "Tax preparation service",
    "phone": "+1 587-855-5898",
    "website": "http://cybal.ca/",
    "address": "12006 Fort Rd NW, Edmonton, AB T5B 4H1",
    "city": "Edmonton",
    "state": "Alberta",
    "state_code": "",
    "postal_code": "T5B 4H1",
    "latitude": 53.5738453,
    "longitude": -113.4611963,
    "rating": 4.8,
    "reviews": 92,
    "place_id": "ChIJyzqQvmYjoFMRMUlHuC57HNM"
  },
  {
    "name": "Affordable Tax Services Ltd.",
    "category": "Tax preparation service",
    "phone": "+1 587-521-5003",
    "website": "",
    "address": "775 Warwick Rd NW, Edmonton, AB T5X 4R2",
    "city": "Edmonton",
    "state": "Alberta",
    "state_code": "",
    "postal_code": "T5X 4R2",
    "latitude": 53.6251981,
    "longitude": -113.5371911,
    "rating": 4.8,
    "reviews": 17,
    "place_id": "ChIJu6-ChfckoFMRdZNH_dN5SEY"
  },
  {
    "name": "Kp Accounting & Tax services",
    "category": "Tax preparation service",
    "phone": "+1 780-469-2677",
    "website": "https://www.kpaccounting.ca/",
    "address": "9133 35 Ave NW, Edmonton, AB T6E 5Y1",
    "city": "Edmonton",
    "state": "Alberta",
    "state_code": "",
    "postal_code": "T6E 5Y1",
    "latitude": 53.4682808,
    "longitude": -113.4692049,
    "rating": 3.1,
    "reviews": 115,
    "place_id": "ChIJo0uJcvqYY0ER7jN5z0ZUHUo"
  },
  {
    "name": "* U.S. Tax IRS Acceptance Agent - Lily Lo CPA (U.S. & Canada) Cross-Border Tax",
    "category": "Tax consultant",
    "phone": "+1 780-800-0237",
    "website": "http://lilylocpa.com/",
    "address": "15915 100a Ave NW, Edmonton, AB T5P 0L7",
    "city": "Edmonton",
    "state": "Alberta",
    "state_code": "",
    "postal_code": "T5P 0L7",
    "latitude": 53.5400638,
    "longitude": -113.5967081,
    "rating": 4.7,
    "reviews": 209,
    "place_id": "ChIJI0q-w-8joFMRMfSqeRajo10"
  },
  {
    "name": "Liberty Tax",
    "category": "Tax preparation",
    "phone": "+1 587-410-7182",
    "website": "https://www.libertytaxcanada.ca/70418",
    "address": "17034 90 Ave NW, Edmonton, AB T5T 1L6",
    "city": "Edmonton",
    "state": "Alberta",
    "state_code": "",
    "postal_code": "T5T 1L6",
    "latitude": 53.5255164,
    "longitude": -113.6186072,
    "rating": 4.6,
    "reviews": 136,
    "place_id": "ChIJjxmdSuAhoFMRnn6AF_XW_2U"
  },
  {
    "name": "Liberty Tax",
    "category": "Tax preparation",
    "phone": "+1 587-410-7424",
    "website": "https://www.libertytaxcanada.ca/70448",
    "address": "10112 149 St, Edmonton, AB T5P 1L1",
    "city": "Edmonton",
    "state": "Alberta",
    "state_code": "",
    "postal_code": "T5P 1L1",
    "latitude": 53.54223169999999,
    "longitude": -113.5787311,
    "rating": 4.7,
    "reviews": 122,
    "place_id": "ChIJpTCKUPchoFMRJ0D6mkOeEjs"
  },
  {
    "name": "Mijo Tax Services",
    "category": "Tax preparation service",
    "phone": "+1 780-478-3359",
    "website": "http://www.mijotax.ca/",
    "address": "2125 14a Ave NW, Edmonton, AB T6T 0N4",
    "city": "Edmonton",
    "state": "Alberta",
    "state_code": "",
    "postal_code": "T6T 0N4",
    "latitude": 53.4424149,
    "longitude": -113.3735889,
    "rating": 5.0,
    "reviews": 140,
    "place_id": "ChIJRcCQygcZoFMRy41i75WAARg"
  },
  {
    "name": "Liberty Tax",
    "category": "Tax preparation",
    "phone": "+1 587-410-7340",
    "website": "https://www.libertytaxcanada.ca/70077",
    "address": "5124 122 St NW Suite 106, Edmonton, AB T6H 3S2",
    "city": "Edmonton",
    "state": "Alberta",
    "state_code": "",
    "postal_code": "T6H 3S2",
    "latitude": 53.4893801,
    "longitude": -113.5424876,
    "rating": 5.0,
    "reviews": 30,
    "place_id": "ChIJ1eXG5kwfoFMR8Xv3UnrMMQQ"
  },
  {
    "name": "Liberty Tax Service",
    "category": "Tax preparation",
    "phone": "+1 780-413-3122",
    "website": "https://www.libertytax.ca/",
    "address": "137 Avenue & 66 Street, Edmonton, AB T5C 3C8",
    "city": "Edmonton",
    "state": "Alberta",
    "state_code": "",
    "postal_code": "T5C 3C8",
    "latitude": 53.5997819,
    "longitude": -113.443076,
    "rating": 4.4,
    "reviews": 18,
    "place_id": "ChIJSR5MplIjoFMRCJyIhE5FV5U"
  },
  {
    "name": "Liberty Tax",
    "category": "Tax preparation",
    "phone": "+1 587-410-7384",
    "website": "https://www.libertytaxcanada.ca/70063",
    "address": "12912 97 St NW, Edmonton, AB T5E 6Z3",
    "city": "Edmonton",
    "state": "Alberta",
    "state_code": "",
    "postal_code": "T5E 6Z3",
    "latitude": 53.58774099999999,
    "longitude": -113.492679,
    "rating": 3.7,
    "reviews": 19,
    "place_id": "ChIJUVuiM2MjoFMRbQIHz8wiDEE"
  },
  {
    "name": "K&R TAXSERVICES - St Albert",
    "category": "Tax preparation service",
    "phone": "+1 780-809-2316",
    "website": "http://www.krtaxservices.com/",
    "address": "275 Carnegie Dr, St. Albert, AB T8N 5A7",
    "city": "St. Albert",
    "state": "Alberta",
    "state_code": "",
    "postal_code": "T8N 5A7",
    "latitude": 53.6416838,
    "longitude": -113.5769358,
    "rating": 4.9,
    "reviews": 366,
    "place_id": "ChIJt7h6bKQloFMRaC-TQcXW-9s"
  },
  {
    "name": "YAM OFFICE",
    "category": "Tax preparation service",
    "phone": "+1 780-909-8644",
    "website": "http://yamoffice.ca/",
    "address": "10704 108 St NW 2ND FLOOR UNIT 1, Edmonton, AB T5H 0W9",
    "city": "Edmonton",
    "state": "Alberta",
    "state_code": "",
    "postal_code": "T5H 0W9",
    "latitude": 53.5515595,
    "longitude": -113.5070263,
    "rating": 4.9,
    "reviews": 30,
    "place_id": "ChIJ9duDUDMjoFMRPjiPLzgTokU"
  },
  {
    "name": "CAN-AM Tax and Accounting",
    "category": "Tax preparation service",
    "phone": "+1 780-680-4769",
    "website": "",
    "address": "1271 Latta Crescent NW, Edmonton, AB T6R 3T2",
    "city": "Edmonton",
    "state": "Alberta",
    "state_code": "",
    "postal_code": "T6R 3T2",
    "latitude": 53.4579731,
    "longitude": -113.5745225,
    "rating": 5.0,
    "reviews": 2,
    "place_id": "ChIJ_al8yuMfoFMRmG5G9ImfCDs"
  },
  {
    "name": "H&R Block",
    "category": "Tax preparation service",
    "phone": "+1 780-448-2100",
    "website": "https://www.hrblock.ca/stores/10126-124-st-nw/",
    "address": "10126 124 St, Edmonton, AB T5N 1R3",
    "city": "Edmonton",
    "state": "Alberta",
    "state_code": "",
    "postal_code": "T5N 1R3",
    "latitude": 53.54250949999999,
    "longitude": -113.5362514,
    "rating": 3.1,
    "reviews": 107,
    "place_id": "ChIJoQplqysioFMRXvdnFhvJU28"
  },
  {
    "name": "Z&A Accounting & Tax",
    "category": "Tax consultant",
    "phone": "+1 825-865-6602",
    "website": "",
    "address": "10704 108 St NW, Edmonton, AB T5H 0W9",
    "city": "Edmonton",
    "state": "Alberta",
    "state_code": "",
    "postal_code": "T5H 0W9",
    "latitude": 53.5515595,
    "longitude": -113.5070263,
    "rating": 5.0,
    "reviews": 20,
    "place_id": "ChIJ8crZQ009oFMR6N49SMBWVWE"
  },
  {
    "name": "Liu & Associates LLP",
    "category": "Tax preparation service",
    "phone": "+1 780-429-1047",
    "website": "https://www.liuandassociates.com/%3Futm_source%3Dgoogle%26utm_medium%3Dgmb%26utm_campaign%3Dinfo",
    "address": "10534 124 St #300, Edmonton, AB T5N 1S1",
    "city": "Edmonton",
    "state": "Alberta",
    "state_code": "",
    "postal_code": "T5N 1S1",
    "latitude": 53.548765,
    "longitude": -113.536106,
    "rating": 4.3,
    "reviews": 6,
    "place_id": "ChIJO57agtMjoFMRdU34dhI6Nqk"
  },
  {
    "name": "H&R Block",
    "category": "Tax preparation service",
    "phone": "+1 587-463-9866",
    "website": "https://www.hrblock.ca/stores/8330-82-ave-nw-115/",
    "address": "115 Whyte Ave NW #115, Edmonton, AB T6C 4E3",
    "city": "Edmonton",
    "state": "Alberta",
    "state_code": "",
    "postal_code": "T6C 4E3",
    "latitude": 53.5203702,
    "longitude": -113.4569053,
    "rating": 3.6,
    "reviews": 93,
    "place_id": "ChIJ9ffwLnkioFMR_JNaAuQOEMU"
  },
  {
    "name": "H&R Block",
    "category": "Tax preparation service",
    "phone": "+1 780-448-2111",
    "website": "https://www.hrblock.ca/stores/10748-82-ave-nw/",
    "address": "10748 82 Ave NW, Edmonton, AB T6E 6P4",
    "city": "Edmonton",
    "state": "Alberta",
    "state_code": "",
    "postal_code": "T6E 6P4",
    "latitude": 53.5182972,
    "longitude": -113.508264,
    "rating": 3.1,
    "reviews": 39,
    "place_id": "ChIJ4VxRWxsioFMRQrQevLpuxII"
  },
  {
    "name": "H&Z Tax Services(Personal &business tax preparation)",
    "category": "Tax preparation service",
    "phone": "+1 780-680-3141",
    "website": "",
    "address": "13209 123 St NW, Edmonton, AB T5L 0K1",
    "city": "Edmonton",
    "state": "Alberta",
    "state_code": "",
    "postal_code": "T5L 0K1",
    "latitude": 53.5926674,
    "longitude": -113.5331824,
    "rating": 5.0,
    "reviews": 8,
    "place_id": null
  },
  {
    "name": "H&R Block",
    "category": "Tax preparation service",
    "phone": "+1 780-413-8993",
    "website": "https://www.hrblock.ca/stores/9499-137-ave-nw-2085/",
    "address": "9499 137 Ave NW #2085, Edmonton, AB T5E 5R8",
    "city": "Edmonton",
    "state": "Alberta",
    "state_code": "",
    "postal_code": "T5E 5R8",
    "latitude": 53.5976745,
    "longitude": -113.4888138,
    "rating": 3.6,
    "reviews": 79,
    "place_id": "ChIJx3RV1GMjoFMRccwm9UREUvY"
  },
  {
    "name": "General Accounting & Income Tax Consulting Ltd",
    "category": "Tax preparation service",
    "phone": "+1 780-965-0849",
    "website": "",
    "address": "10704 108 St NW, Edmonton, AB T5H 0W8",
    "city": "Edmonton",
    "state": "Alberta",
    "state_code": "",
    "postal_code": "T5H 0W8",
    "latitude": 53.55153079999999,
    "longitude": -113.5068664,
    "rating": 4.5,
    "reviews": 4,
    "place_id": "ChIJlY_41UoioFMR989kvkVmizw"
  },
  {
    "name": "Yaqiin Services",
    "category": "Tax preparation",
    "phone": "+1 780-690-7475",
    "website": "",
    "address": "10704 108 St NW Unit 4, Edmonton, AB T5H 0W8",
    "city": "Edmonton",
    "state": "Alberta",
    "state_code": "",
    "postal_code": "T5H 0W8",
    "latitude": 53.5515595,
    "longitude": -113.5070263,
    "rating": 5.0,
    "reviews": 6,
    "place_id": "ChIJAb4G97kjoFMR9P9Br9f2X8s"
  },
  {
    "name": "H&R Block",
    "category": "Tax preparation service",
    "phone": "+1 780-962-8884",
    "website": "https://www.hrblock.ca/office-locator/results/%3Faddress%3Dsprucegrove%26find-office%3D",
    "address": "201B First Ave, Spruce Grove, AB T7X 3B1",
    "city": "Spruce Grove",
    "state": "Alberta",
    "state_code": "",
    "postal_code": "T7X 3B1",
    "latitude": 53.54165,
    "longitude": -113.904618,
    "rating": 4.0,
    "reviews": 44,
    "place_id": "ChIJjw_ayvOOn1MRkTzfdq1wBuc"
  },
  {
    "name": "H&R Block",
    "category": "Tax preparation service",
    "phone": "+1 780-962-8382",
    "website": "https://www.hrblock.ca/stores/11-westwind-dr/",
    "address": "11 Westwind Dr, Spruce Grove, AB T7X 0V6",
    "city": "Spruce Grove",
    "state": "Alberta",
    "state_code": "",
    "postal_code": "T7X 0V6",
    "latitude": 53.5647148,
    "longitude": -113.8840748,
    "rating": 4.1,
    "reviews": 19,
    "place_id": "ChIJG33_lb6Pn1MRSZ4J2R-xtRM"
  },
  {
    "name": "Alberta Tax Service",
    "category": "Tax preparation service",
    "phone": "+1 780-980-5363",
    "website": "https://www.altatax.com/",
    "address": "5011 51 Ave, Leduc, AB T9E 5L2",
    "city": "Leduc",
    "state": "Alberta",
    "state_code": "",
    "postal_code": "T9E 5L2",
    "latitude": 53.2654673,
    "longitude": -113.5538983,
    "rating": 4.1,
    "reviews": 24,
    "place_id": "ChIJVx5NLXX5n1MRYynLM8Tp15I"
  },
  {
    "name": "Liberty Tax",
    "category": "Tax preparation",
    "phone": "+1 587-410-7229",
    "website": "https://www.libertytaxcanada.ca/70836",
    "address": "4601 61 Ave, Leduc, AB T9E 7A4",
    "city": "Leduc",
    "state": "Alberta",
    "state_code": "",
    "postal_code": "T9E 7A4",
    "latitude": 53.2741066,
    "longitude": -113.5466459,
    "rating": 4.3,
    "reviews": 32,
    "place_id": "ChIJF5aa3B_5n1MRr0qYNBYpMu0"
  },
  {
    "name": "Pat's Tax Services",
    "category": "Tax preparation service",
    "phone": "+1 587-783-8997",
    "website": "",
    "address": "6 Willow Park Estates, Leduc, AB T9E 5P7",
    "city": "Leduc",
    "state": "Alberta",
    "state_code": "",
    "postal_code": "T9E 5P7",
    "latitude": 53.2717581,
    "longitude": -113.5573555,
    "rating": 5.0,
    "reviews": 6,
    "place_id": null
  },
  {
    "name": "H&R Block",
    "category": "Tax preparation service",
    "phone": "+1 403-934-3268",
    "website": "https://www.hrblock.ca/stores/800-pine-rd-110f/",
    "address": "800 Pine Rd #110F, Strathmore, AB T1P 0A2",
    "city": "Strathmore",
    "state": "Alberta",
    "state_code": "",
    "postal_code": "T1P 0A2",
    "latitude": 51.0372986,
    "longitude": -113.3923119,
    "rating": 3.2,
    "reviews": 45,
    "place_id": "ChIJiT7O4uTMc1MR4R32Jb3YltU"
  },
  {
    "name": "H&R Block",
    "category": "Tax preparation service",
    "phone": "+1 403-652-7266",
    "website": "https://www.hrblock.ca/stores/28-12-ave-se-2/",
    "address": "28 12 Ave SE #2, High River, AB T1V 1T2",
    "city": "High River",
    "state": "Alberta",
    "state_code": "",
    "postal_code": "T1V 1T2",
    "latitude": 50.5723672,
    "longitude": -113.8712357,
    "rating": 4.0,
    "reviews": 23,
    "place_id": "ChIJtXydQ0eVcVMRDaDmxdkiBIM"
  },
  {
    "name": "Thickwood Tax",
    "category": "Tax preparation",
    "phone": "+1 780-748-7975",
    "website": "https://sites.google.com/thickwoodtax.com/thickwoodtax/home",
    "address": "412 Thickwood Blvd #5, Fort McMurray, AB T9K 1P1",
    "city": "Fort McMurray",
    "state": "Alberta",
    "state_code": "",
    "postal_code": "T9K 1P1",
    "latitude": 56.7329747,
    "longitude": -111.4309781,
    "rating": 4.9,
    "reviews": 277,
    "place_id": "ChIJ4xBQt-gIsFMRlHqFN1Mssak"
  },
  {
    "name": "Pinkney Tax Services",
    "category": "Tax preparation",
    "phone": "+1 780-799-2330",
    "website": "https://pinkneytax.ca/",
    "address": "9902 Franklin Ave, Fort McMurray, AB T9H 2K5",
    "city": "Fort McMurray",
    "state": "Alberta",
    "state_code": "",
    "postal_code": "T9H 2K5",
    "latitude": 56.7270313,
    "longitude": -111.3788429,
    "rating": 4.9,
    "reviews": 133,
    "place_id": "ChIJRWMzk7QIsFMRXAwUVHUG4cs"
  },
  {
    "name": "AAT Accounting & Tax Services",
    "category": "Tax preparation service",
    "phone": "+1 587-778-8081",
    "website": "http://www.aataccountinginc.ca/",
    "address": "9908 Franklin Ave Suite 101, Fort McMurray, AB T9H 2K5",
    "city": "Fort McMurray",
    "state": "Alberta",
    "state_code": "",
    "postal_code": "T9H 2K5",
    "latitude": 56.7271638,
    "longitude": -111.379459,
    "rating": 4.9,
    "reviews": 44,
    "place_id": "ChIJj6nAjV0JsFMRDCodQ5ysnQE"
  },
  {
    "name": "GetMaxRefunds Tax Services",
    "category": "Tax preparation service",
    "phone": "+1 780-709-2101",
    "website": "",
    "address": "189 Gravelstone Rd, Fort McMurray, AB T9K 0X1",
    "city": "Fort McMurray",
    "state": "Alberta",
    "state_code": "",
    "postal_code": "T9K 0X1",
    "latitude": 56.7665174,
    "longitude": -111.4302053,
    "rating": 5.0,
    "reviews": 61,
    "place_id": "ChIJ2XZbXn8JsFMR4-VwChvqmcg"
  },
  {
    "name": "Twin Tax by Pinkney",
    "category": "Tax preparation service",
    "phone": "+1 780-715-1126",
    "website": "https://www.twintax.ca/",
    "address": "9903 Franklin Ave Unit 109B, Fort McMurray, AB T9H 2K4",
    "city": "Fort McMurray",
    "state": "Alberta",
    "state_code": "",
    "postal_code": "T9H 2K4",
    "latitude": 56.7265695,
    "longitude": -111.3796138,
    "rating": 5.0,
    "reviews": 19,
    "place_id": "ChIJy344P-gJsFMRlpRfdS5ywxA"
  },
  {
    "name": "Action Tax Services",
    "category": "Tax preparation service",
    "phone": "+1 780-791-1511",
    "website": "",
    "address": "8520 Manning Ave #210, Fort McMurray, AB T9H 5G2",
    "city": "Fort McMurray",
    "state": "Alberta",
    "state_code": "",
    "postal_code": "T9H 5G2",
    "latitude": 56.71931259999999,
    "longitude": -111.3556962,
    "rating": 3.3,
    "reviews": 15,
    "place_id": "ChIJvX3W20wPsFMRWNDAzY6uiw0"
  },
  {
    "name": "Gacal Tax Services",
    "category": "Tax preparation",
    "phone": "+1 780-743-0013",
    "website": "",
    "address": "10012 Franklin Ave Unit 200, Fort McMurray, AB T9H 2K6",
    "city": "Fort McMurray",
    "state": "Alberta",
    "state_code": "",
    "postal_code": "T9H 2K6",
    "latitude": 56.7283617,
    "longitude": -111.3829045,
    "rating": 4.7,
    "reviews": 15,
    "place_id": "ChIJOUdkr7UIsFMRVGWM21T5xbg"
  },
  {
    "name": "Rite-On Services Ltd.",
    "category": "Tax consultant",
    "phone": "+1 587-275-3399",
    "website": "https://riteonservices.com/",
    "address": "30 Riedel St #14, Fort McMurray, AB T9H 5M9",
    "city": "Fort McMurray",
    "state": "Alberta",
    "state_code": "",
    "postal_code": "T9H 5M9",
    "latitude": 56.72413599999999,
    "longitude": -111.3636374,
    "rating": 5.0,
    "reviews": 7,
    "place_id": "ChIJITDxZJEPsFMRNf2-yF44y1M"
  },
  {
    "name": "RGB Tax & More",
    "category": "Tax preparation",
    "phone": "+1 587-276-5531",
    "website": "https://www.facebook.com/profile.php%3Fid%3D61563133903287",
    "address": "9612 Franklin Ave Unit 150, Fort McMurray, AB T9H 2J9",
    "city": "Fort McMurray",
    "state": "Alberta",
    "state_code": "",
    "postal_code": "T9H 2J9",
    "latitude": 56.72467589999999,
    "longitude": -111.3713254,
    "rating": 5.0,
    "reviews": 3,
    "place_id": "ChIJSc2BwPUPsFMRO-u5-kLnqMc"
  },
  {
    "name": "H&R Block",
    "category": "Tax preparation service",
    "phone": "+1 780-743-1000",
    "website": "https://www.hrblock.ca/stores/8720-franklin-ave-5/",
    "address": "8720 Franklin Ave #5, Fort McMurray, AB T9H 3K8",
    "city": "Fort McMurray",
    "state": "Alberta",
    "state_code": "",
    "postal_code": "T9H 3K8",
    "latitude": 56.7216569,
    "longitude": -111.3642983,
    "rating": 3.3,
    "reviews": 60,
    "place_id": "ChIJfTTEa1IPsFMRSg38I3o4bwQ"
  },
  {
    "name": "N X T Accounting Inc.",
    "category": "Tax preparation service",
    "phone": "",
    "website": "http://www.nxtcorporation.ca/",
    "address": "10020 Franklin Ave #207, Fort McMurray, AB T9H 2K6",
    "city": "Fort McMurray",
    "state": "Alberta",
    "state_code": "",
    "postal_code": "T9H 2K6",
    "latitude": 56.7288073,
    "longitude": -111.3835236,
    "rating": 4.5,
    "reviews": 2,
    "place_id": "ChIJ8XUKo7UIsFMRhQbtzmvDTOI"
  },
  {
    "name": "TAAJ EXPRESS SERVICE IN FORT MCMURRAY",
    "category": "Tax preparation",
    "phone": "+1 780-838-5522",
    "website": "",
    "address": "8706 Franklin Ave #202B, Fort McMurray, AB T9H 2J6",
    "city": "Fort McMurray",
    "state": "Alberta",
    "state_code": "",
    "postal_code": "T9H 2J6",
    "latitude": 56.7211558,
    "longitude": -111.3626997,
    "rating": 4.0,
    "reviews": 2,
    "place_id": "ChIJ-V9FFlIPsFMRxMsAGThkhnM"
  },
  {
    "name": "Tim The Taxman",
    "category": "Tax preparation service",
    "phone": "+1 306-590-8522",
    "website": "https://www.facebook.com/p/Tim-the-Taxman-100067517881613/",
    "address": "33 W Edge Rd, Cochrane, AB T4C 1J4",
    "city": "Cochrane",
    "state": "Alberta",
    "state_code": "",
    "postal_code": "T4C 1J4",
    "latitude": 51.191806,
    "longitude": -114.4943863,
    "rating": 4.6,
    "reviews": 10,
    "place_id": "ChIJpadsIRs_cVMRtwBXAuMmKpA"
  },
  {
    "name": "H&R Block",
    "category": "Tax preparation service",
    "phone": "+1 403-932-4393",
    "website": "https://www.hrblock.ca/stores/20-quarry-st-e-6/",
    "address": "20 Quarry St #6, Cochrane, AB T4C 0W6",
    "city": "Cochrane",
    "state": "Alberta",
    "state_code": "",
    "postal_code": "T4C 0W6",
    "latitude": 51.18438,
    "longitude": -114.47018,
    "rating": 4.4,
    "reviews": 186,
    "place_id": "ChIJ_aj3tZ1AcVMRAsA8tzNUJOU"
  },
  {
    "name": "J&N Powell Tax Consulting Ltd",
    "category": "Tax preparation service",
    "phone": "+1 403-932-3285",
    "website": "http://www.jnpowelltax.ca/",
    "address": "33040 Mountain Glen View, Cochrane, AB T4C 0G6",
    "city": "Cochrane",
    "state": "Alberta",
    "state_code": "",
    "postal_code": "T4C 0G6",
    "latitude": 51.2180171,
    "longitude": -114.353936,
    "rating": 3.7,
    "reviews": 6,
    "place_id": null
  },
  {
    "name": "SB Books",
    "category": "Tax preparation service",
    "phone": "+1 403-872-2366",
    "website": "http://www.sbbooksetc.com/",
    "address": "13 Westwood Crescent, Sylvan Lake, AB T4S 1P6",
    "city": "Sylvan Lake",
    "state": "Alberta",
    "state_code": "",
    "postal_code": "T4S 1P6",
    "latitude": 52.317203,
    "longitude": -114.119224,
    "rating": 5.0,
    "reviews": 1,
    "place_id": "ChIJ3R6bsn6zdVMR6VZe0_ns5Fk"
  },
  {
    "name": "H&R Block",
    "category": "Tax preparation service",
    "phone": "+1 403-887-2234",
    "website": "https://www.hrblock.ca/stores/5043-50a-street-a2/",
    "address": "5043 50a St A2, Sylvan Lake, AB T4S 1R1",
    "city": "Sylvan Lake",
    "state": "Alberta",
    "state_code": "",
    "postal_code": "T4S 1R1",
    "latitude": 52.3096506,
    "longitude": -114.0983598,
    "rating": 3.7,
    "reviews": 21,
    "place_id": "ChIJ1bDj1MOydVMR6uMFYkRLj1Q"
  },
  {
    "name": "JD Accounting Services Inc",
    "category": "Tax preparation service",
    "phone": "+1 587-894-3235",
    "website": "http://www.jdaccountingservices.ca/",
    "address": "2 Elk Ave, Okotoks, AB T1S 1J8",
    "city": "Okotoks",
    "state": "Alberta",
    "state_code": "",
    "postal_code": "T1S 1J8",
    "latitude": 50.7262395,
    "longitude": -113.9783606,
    "rating": 5.0,
    "reviews": 3,
    "place_id": "ChIJGT2H54OXcVMRzBpCxHZRxFk"
  },
  {
    "name": "H&R Block",
    "category": "Tax preparation service",
    "phone": "+1 403-938-1995",
    "website": "https://www.hrblock.ca/stores/201-southridge-dr-739/",
    "address": "201 Southridge Dr #739, Okotoks, AB T1S 2C8",
    "city": "Okotoks",
    "state": "Alberta",
    "state_code": "",
    "postal_code": "T1S 2C8",
    "latitude": 50.7047013,
    "longitude": -113.9733332,
    "rating": 3.0,
    "reviews": 36,
    "place_id": "ChIJqzA80IeXcVMR5qdGc8Yt_gE"
  },
  {
    "name": "Suderman & Associates Bookkeeping & Tax Preparation",
    "category": "Tax preparation service",
    "phone": "+1 403-993-4885",
    "website": "",
    "address": "30 Crystal Green Way, Okotoks, AB T1S 2K5",
    "city": "Okotoks",
    "state": "Alberta",
    "state_code": "",
    "postal_code": "T1S 2K5",
    "latitude": 50.7365451,
    "longitude": -113.949881,
    "rating": 5.0,
    "reviews": 1,
    "place_id": "ChIJDQXgEMCZcVMREkoJuAkoWu0"
  },
  {
    "name": "FILETAXHERE INC.",
    "category": "Tax preparation service",
    "phone": "+1 780-870-5738",
    "website": "https://www.filetaxhere.com/",
    "address": "5020 48 St, Lloydminster, AB T9V 0H8",
    "city": "Lloydminster",
    "state": "Alberta",
    "state_code": "",
    "postal_code": "T9V 0H8",
    "latitude": 53.28166299999999,
    "longitude": -110.0081033,
    "rating": 5.0,
    "reviews": 169,
    "place_id": "ChIJWVNTKpeyCVMR-WxEK1Q_VIk"
  },
  {
    "name": "Judy Barrett's Tax Prep",
    "category": "Tax preparation",
    "phone": "+1 780-872-1291",
    "website": "",
    "address": "5105 48 St Room 203, Lloydminster, AB T9V 0H9",
    "city": "Lloydminster",
    "state": "Alberta",
    "state_code": "",
    "postal_code": "T9V 0H9",
    "latitude": 53.281351,
    "longitude": -110.008346,
    "rating": 4.2,
    "reviews": 5,
    "place_id": "ChIJ0wrWzv-zCVMRBBE2mR3IZTY"
  },
  {
    "name": "WLS LLP Chartered Professional Accountants",
    "category": "Tax preparation service",
    "phone": "+1 780-875-9144",
    "website": "http://www.wlscpa.com/",
    "address": "6305 43 St, Lloydminster, AB T9V 2W9",
    "city": "Lloydminster",
    "state": "Alberta",
    "state_code": "",
    "postal_code": "T9V 2W9",
    "latitude": 53.27650449999999,
    "longitude": -110.0386923,
    "rating": 5.0,
    "reviews": 1,
    "place_id": "ChIJnZNxOpGyCVMReiYvYBIxoiU"
  },
  {
    "name": "Graham and Associates",
    "category": "Tax preparation service",
    "phone": "+1 780-458-8720",
    "website": "https://grahamandassociates.ca/",
    "address": "20 Circle Dr, St. Albert, AB T8N 7L4",
    "city": "St. Albert",
    "state": "Alberta",
    "state_code": "",
    "postal_code": "T8N 7L4",
    "latitude": 53.646805,
    "longitude": -113.572128,
    "rating": 4.4,
    "reviews": 83,
    "place_id": "ChIJ96YD7qMloFMRG6XE7os8qUM"
  },
  {
    "name": "H&R Block",
    "category": "Tax preparation service",
    "phone": "+1 780-458-5399",
    "website": "https://www.hrblock.ca/stores/375-st-albert-trail-k6/",
    "address": "375 St Albert Trl K6, St. Albert, AB T8N 3K8",
    "city": "St. Albert",
    "state": "Alberta",
    "state_code": "",
    "postal_code": "T8N 3K8",
    "latitude": 53.6427211,
    "longitude": -113.622506,
    "rating": 3.8,
    "reviews": 53,
    "place_id": "ChIJDQ4_v9gloFMRq9qUzNNjYUE"
  },
  {
    "name": "Liberty Tax",
    "category": "Tax preparation",
    "phone": "+1 587-801-1069",
    "website": "https://www.libertytaxcanada.ca/",
    "address": "3341 Dunmore Rd SE #1A, Medicine Hat, AB T1B 3R2",
    "city": "Medicine Hat",
    "state": "Alberta",
    "state_code": "",
    "postal_code": "T1B 3R2",
    "latitude": 50.0049843,
    "longitude": -110.6421172,
    "rating": 4.1,
    "reviews": 42,
    "place_id": "ChIJm6S8A9wtE1MROcUWi7icgRI"
  },
  {
    "name": "Five Star Bookkeeping & Tax Services",
    "category": "Tax preparation",
    "phone": "+1 403-529-1459",
    "website": "https://m.facebook.com/medicinehatalta",
    "address": "765 2 St SE, Medicine Hat, AB T1A 0E2",
    "city": "Medicine Hat",
    "state": "Alberta",
    "state_code": "",
    "postal_code": "T1A 0E2",
    "latitude": 50.04204619999999,
    "longitude": -110.6713251,
    "rating": 5.0,
    "reviews": 3,
    "place_id": "ChIJ3zwRUPgtE1MR1d-XmCBSZ8k"
  },
  {
    "name": "H&R Block",
    "category": "Tax preparation service",
    "phone": "+1 403-580-5801",
    "website": "https://www.hrblock.ca/stores/66-8-st-nw-c/",
    "address": "66 8 St NW C, Medicine Hat, AB T1A 6P1",
    "city": "Medicine Hat",
    "state": "Alberta",
    "state_code": "",
    "postal_code": "T1A 6P1",
    "latitude": 50.0499571,
    "longitude": -110.6887329,
    "rating": 4.4,
    "reviews": 27,
    "place_id": "ChIJbes5-GAsE1MRGBrHqmbqSUo"
  },
  {
    "name": "H&R Block",
    "category": "Tax preparation service",
    "phone": "+1 403-526-5801",
    "website": "https://www.hrblock.ca/stores/3307-dunmore-rd-se-2/",
    "address": "3307 Dunmore Rd SE #2, Medicine Hat, AB T1B 3R2",
    "city": "Medicine Hat",
    "state": "Alberta",
    "state_code": "",
    "postal_code": "T1B 3R2",
    "latitude": 50.0052414,
    "longitude": -110.6425991,
    "rating": 4.3,
    "reviews": 57,
    "place_id": "ChIJm9D9hZotE1MRqktQ4K56OZ8"
  }
]