[
  {
    "name": "Bethel Tax Services LLC",
    "category": "Tax preparation service",
    "phone": "+1 203-470-7866",
    "website": "https://betheltax.com/",
    "address": "14 Depot Pl #6, Bethel, CT 06801",
    "city": "Bethel",
    "state": "Connecticut",
    "state_code": "CT",
    "postal_code": "06801",
    "latitude": 41.370223,
    "longitude": -73.41395399999999,
    "rating": 5.0,
    "reviews": 7,
    "place_id": "ChIJuXBH51X-54kRBld1EvSMslA"
  },
  {
    "name": "By The Book Taxes",
    "category": "Tax preparation service",
    "phone": "+1 203-434-5626",
    "website": "https://bythebooktaxes.net/",
    "address": "71 East Ave Q, Norwalk, CT 06851",
    "city": "Norwalk",
    "state": "Connecticut",
    "state_code": "CT",
    "postal_code": "06851",
    "latitude": 41.1191818,
    "longitude": -73.4072924,
    "rating": 4.9,
    "reviews": 30,
    "place_id": "ChIJqywXY3Ad6IkRzI09aYT-fSc"
  },
  {
    "name": "Liberty Tax",
    "category": "Tax preparation",
    "phone": "+1 203-951-1949",
    "website": "https://www.libertytax.com/11180",
    "address": "1039 Dixwell Ave, Hamden, CT 06514",
    "city": "Hamden",
    "state": "Connecticut",
    "state_code": "CT",
    "postal_code": "06514",
    "latitude": 41.341701,
    "longitude": -72.9345805,
    "rating": 4.9,
    "reviews": 149,
    "place_id": "ChIJQZ6cTiba54kRJlon6b5U6aY"
  },
  {
    "name": "Southern CT Tax Group",
    "category": "Tax preparation service",
    "phone": "+1 203-281-4748",
    "website": "http://southerncttaxgroup.com/",
    "address": "3074 Whitney Ave #1, Hamden, CT 06518",
    "city": "Hamden",
    "state": "Connecticut",
    "state_code": "CT",
    "postal_code": "06518",
    "latitude": 41.407169,
    "longitude": -72.9001047,
    "rating": 5.0,
    "reviews": 4,
    "place_id": "ChIJ7xUFC6fa54kRqH07Y8BTLgk"
  },
  {
    "name": "Jackson Hewitt Tax Service",
    "category": "Tax preparation",
    "phone": "+1 203-244-8100",
    "website": "https://office.jacksonhewitt.com/tax-preparation-services-locations/en/ct/hamden/1315-dixwell-avenue/19847%3Futm_source%3Dgoogle%26utm_medium%3Dlocal%26utm_campaign%3Dlocal%26utm_content%3D19847",
    "address": "1315 Dixwell Ave Suite 8, Hamden, CT 06514",
    "city": "Hamden",
    "state": "Connecticut",
    "state_code": "CT",
    "postal_code": "06514",
    "latitude": 41.3489355,
    "longitude": -72.9319987,
    "rating": 4.7,
    "reviews": 47,
    "place_id": "ChIJx88nVCba54kRxSS-ts7TGA4"
  },
  {
    "name": "TurboTax - Mount Carmel, Hamden",
    "category": "Tax preparation",
    "phone": "+1 475-290-1663",
    "website": "https://turbotax.intuit.com/local-tax-offices/ct/hamden/7f4dcf9f6f634f5b9cccedc724b7ffab/",
    "address": "2321 Whitney Avenue, 308 3rd Floor, Office 317, Hamden, CT 06518",
    "city": "Hamden",
    "state": "Connecticut",
    "state_code": "CT",
    "postal_code": "06518",
    "latitude": 41.3824488,
    "longitude": -72.9005207,
    "rating": 5.0,
    "reviews": 4,
    "place_id": "ChIJl_HNj1vb54kRQv_M2REdniE"
  },
  {
    "name": "Lostritto Tax Services, LLC",
    "category": "Tax preparation",
    "phone": "",
    "website": "https://www.facebook.com/LostrittoTaxServices/",
    "address": "2514 Whitney Ave #185337, Hamden, CT 06518",
    "city": "Hamden",
    "state": "Connecticut",
    "state_code": "CT",
    "postal_code": "06518",
    "latitude": 41.3886332,
    "longitude": -72.9005143,
    "rating": 5.0,
    "reviews": 6,
    "place_id": "ChIJNxSTCG23twsRC3beEX6fkM8"
  },
  {
    "name": "THE TAX GUY LLC",
    "category": "Tax preparation",
    "phone": "+1 203-684-3512",
    "website": "http://www.thetaxguy.us/",
    "address": "1822 Dixwell Ave, Hamden, CT 06514",
    "city": "Hamden",
    "state": "Connecticut",
    "state_code": "CT",
    "postal_code": "06514",
    "latitude": 41.3615431,
    "longitude": -72.9247985,
    "rating": 5.0,
    "reviews": 6,
    "place_id": "ChIJTf5ULV_b54kRnSNUAaiYjl8"
  },
  {
    "name": "Jackson Hewitt Tax Service",
    "category": "Tax preparation",
    "phone": "+1 203-889-9568",
    "website": "https://office.jacksonhewitt.com/tax-preparation-services-locations/en/ct/hamden/2300-dixwell-ave/53545%3Futm_source%3Dgoogle%26utm_medium%3Dlocal%26utm_campaign%3Dlocal%26utm_content%3D53545",
    "address": "2300 Dixwell Ave, Hamden, CT 06514",
    "city": "Hamden",
    "state": "Connecticut",
    "state_code": "CT",
    "postal_code": "06514",
    "latitude": 41.3736477,
    "longitude": -72.91900799999999,
    "rating": 4.6,
    "reviews": 15,
    "place_id": "ChIJbetXm2ja54kRY6TEA5h3Vx0"
  },
  {
    "name": "A & J Tax and Payroll Services",
    "category": "Tax preparation service",
    "phone": "+1 203-248-6142",
    "website": "http://www.aandjpayrollservices.com/",
    "address": "2319 Whitney Ave #3E, Hamden, CT 06518",
    "city": "Hamden",
    "state": "Connecticut",
    "state_code": "CT",
    "postal_code": "06518",
    "latitude": 41.3819465,
    "longitude": -72.9011574,
    "rating": 3.7,
    "reviews": 7,
    "place_id": "ChIJ4YWh_oDa54kRkfTFToyto98"
  },
  {
    "name": "E&E CPA, Accounting & Tax Services",
    "category": "Tax consultant",
    "phone": "+1 203-308-0746",
    "website": "https://eecpaaccounting.com/",
    "address": "3074 Whitney Ave, Hamden, CT 06518",
    "city": "Hamden",
    "state": "Connecticut",
    "state_code": "CT",
    "postal_code": "06518",
    "latitude": 41.4068093,
    "longitude": -72.9004348,
    "rating": 4.5,
    "reviews": 8,
    "place_id": "ChIJBQ_5ECbb54kRcFxUthWDPPc"
  },
  {
    "name": "Giglietti Matthew T CPA",
    "category": "Tax preparation service",
    "phone": "+1 203-248-5515",
    "website": "",
    "address": "8 Ralston Ave, Hamden, CT 06517",
    "city": "Hamden",
    "state": "Connecticut",
    "state_code": "CT",
    "postal_code": "06517",
    "latitude": 41.3465888,
    "longitude": -72.9130153,
    "rating": 5.0,
    "reviews": 5,
    "place_id": "ChIJGZZl8Rza54kR9ZyCUxETTXY"
  },
  {
    "name": "H&R Block",
    "category": "Tax preparation service",
    "phone": "+1 203-281-1589",
    "website": "https://www.hrblock.com/tax-office-near-me/connecticut/hamden/7620/%3Fotppartnerid%3D9308%26campaignid%3Dpw_mcm_9308_9762%26utm_medium%3Dlocal",
    "address": "1245 Dixwell Ave, Hamden, CT 06514",
    "city": "Hamden",
    "state": "Connecticut",
    "state_code": "CT",
    "postal_code": "06514",
    "latitude": 41.3472084,
    "longitude": -72.93144989999999,
    "rating": 4.5,
    "reviews": 125,
    "place_id": "ChIJ4x_0mifa54kRZ17T_RpEaJ0"
  },
  {
    "name": "Frontier Financial Group, Inc.",
    "category": "Tax preparation",
    "phone": "+1 203-288-2274",
    "website": "http://www.frontierfinancialgroupinc.com/",
    "address": "943 Dixwell Ave suite c, Hamden, CT 06514",
    "city": "Hamden",
    "state": "Connecticut",
    "state_code": "CT",
    "postal_code": "06514",
    "latitude": 41.339004,
    "longitude": -72.934834,
    "rating": 4.3,
    "reviews": 6,
    "place_id": "ChIJswbyWSPa54kRVCmJmY0gKwA"
  },
  {
    "name": "Upscale Multi Service CT",
    "category": "Tax preparation service",
    "phone": "",
    "website": "",
    "address": "270 Amity Rd #129, Woodbridge, CT 06525",
    "city": "Woodbridge",
    "state": "Connecticut",
    "state_code": "CT",
    "postal_code": "06525",
    "latitude": 41.3439736,
    "longitude": -72.98587909999999,
    "rating": 5.0,
    "reviews": 9,
    "place_id": "ChIJKwQHiJDZ54kRsgEy3Nh5EMQ"
  },
  {
    "name": "JMK Professional Services LLC",
    "category": "Tax preparation service",
    "phone": "+1 203-632-0680",
    "website": "http://www.jmkservices.net/",
    "address": "140 Washington Ave, North Haven, CT 06473",
    "city": "North Haven",
    "state": "Connecticut",
    "state_code": "CT",
    "postal_code": "06473",
    "latitude": 41.3963866,
    "longitude": -72.8543098,
    "rating": 5.0,
    "reviews": 18,
    "place_id": "ChIJrYN50a7R54kRZMEwJH2AcPw"
  },
  {
    "name": "Jose's Tax Service",
    "category": "Tax preparation service",
    "phone": "+1 475-254-9373",
    "website": "https://josestaxservice.com/",
    "address": "162 Portsea St, New Haven, CT 06519",
    "city": "New Haven",
    "state": "Connecticut",
    "state_code": "CT",
    "postal_code": "06519",
    "latitude": 41.2973232,
    "longitude": -72.9308999,
    "rating": 4.4,
    "reviews": 8,
    "place_id": "ChIJ8QBARHLZ54kRFnsRI-LSegQ"
  },
  {
    "name": "Teodosio Mark J",
    "category": "Tax preparation service",
    "phone": "+1 203-288-3001",
    "website": "",
    "address": "2911 Dixwell Ave, Hamden, CT 06518",
    "city": "Hamden",
    "state": "Connecticut",
    "state_code": "CT",
    "postal_code": "06518",
    "latitude": 41.3832929,
    "longitude": -72.90352829999999,
    "rating": 4.7,
    "reviews": 3,
    "place_id": "ChIJxQO12IDa54kRN09cjw4-_g0"
  },
  {
    "name": "Volain & Volain PC",
    "category": "Tax preparation service",
    "phone": "+1 203-248-2668",
    "website": "https://dvolain.wixsite.com/volain",
    "address": "84 Linden Ave STE 1, Hamden, CT 06518",
    "city": "Hamden",
    "state": "Connecticut",
    "state_code": "CT",
    "postal_code": "06518",
    "latitude": 41.3925025,
    "longitude": -72.89883,
    "rating": 5.0,
    "reviews": 1,
    "place_id": "ChIJZ7AEgZ3a54kRdAdZMDzpVo0"
  },
  {
    "name": "H&R Block",
    "category": "Tax preparation service",
    "phone": "+1 203-234-7663",
    "website": "https://www.hrblock.com/tax-office-near-me/connecticut/north-haven/7625/%3Fotppartnerid%3D9308%26campaignid%3Dpw_mcm_9308_9762%26utm_medium%3Dlocal",
    "address": "85 Washington Ave, North Haven, CT 06473",
    "city": "North Haven",
    "state": "Connecticut",
    "state_code": "CT",
    "postal_code": "06473",
    "latitude": 41.3942625,
    "longitude": -72.8593484,
    "rating": 4.6,
    "reviews": 83,
    "place_id": "ChIJWUuE5EnQ54kRkhhki6UCN2s"
  },
  {
    "name": "MaxTax Services",
    "category": "Tax preparation service",
    "phone": "+1 860-583-6666",
    "website": "https://maxtaxct.com/",
    "address": "900 Farmington Ave Unit 2, Bristol, CT 06010",
    "city": "Bristol",
    "state": "Connecticut",
    "state_code": "CT",
    "postal_code": "06010",
    "latitude": 41.6935655,
    "longitude": -72.9134191,
    "rating": 4.9,
    "reviews": 61,
    "place_id": "ChIJUV8Fe6G754kR1oaKXm8v63Q"
  },
  {
    "name": "CMW Tax Services - The Tax Office LLC",
    "category": "Tax preparation service",
    "phone": "+1 860-582-6900",
    "website": "http://www.thetaxofficellc.com/",
    "address": "1001 Farmington Ave #202, Bristol, CT 06010",
    "city": "Bristol",
    "state": "Connecticut",
    "state_code": "CT",
    "postal_code": "06010",
    "latitude": 41.6954383,
    "longitude": -72.9106216,
    "rating": 4.6,
    "reviews": 11,
    "place_id": "ChIJL5Z2QLW754kR_Ca-QwvoZbw"
  },
  {
    "name": "Jackson Hewitt Tax Service",
    "category": "Tax preparation",
    "phone": "+1 860-453-2032",
    "website": "https://office.jacksonhewitt.com/tax-preparation-services-locations/en/ct/bristol/708-farmington-avenue/19517%3Futm_source%3Dgoogle%26utm_medium%3Dlocal%26utm_campaign%3Dlocal%26utm_content%3D19517",
    "address": "708 Farmington Ave, Bristol, CT 06010",
    "city": "Bristol",
    "state": "Connecticut",
    "state_code": "CT",
    "postal_code": "06010",
    "latitude": 41.6913989,
    "longitude": -72.9198265,
    "rating": 4.6,
    "reviews": 58,
    "place_id": "ChIJ2Un9cF6654kRMNPk_aETa2A"
  },
  {
    "name": "Liberty Tax",
    "category": "Tax preparation",
    "phone": "+1 860-516-5326",
    "website": "https://www.libertytax.com/19434",
    "address": "160 Farmington Ave, Bristol, CT 06010",
    "city": "Bristol",
    "state": "Connecticut",
    "state_code": "CT",
    "postal_code": "06010",
    "latitude": 41.685409,
    "longitude": -72.9375329,
    "rating": 4.9,
    "reviews": 61,
    "place_id": "ChIJAa8pq2G654kRmU5cYGEYJjE"
  },
  {
    "name": "H&R Block",
    "category": "Tax preparation service",
    "phone": "+1 860-582-1000",
    "website": "https://www.hrblock.com/tax-office-near-me/connecticut/bristol/7639/%3Fotppartnerid%3D9308%26campaignid%3Dpw_mcm_9308_9762%26utm_medium%3Dlocal",
    "address": "123 Farmington Ave, Bristol, CT 06010",
    "city": "Bristol",
    "state": "Connecticut",
    "state_code": "CT",
    "postal_code": "06010",
    "latitude": 41.6855549,
    "longitude": -72.938834,
    "rating": 4.5,
    "reviews": 138,
    "place_id": "ChIJ5WcIik6654kRDn7CqlBY278"
  },
  {
    "name": "Jackson Hewitt Tax Service",
    "category": "Tax preparation",
    "phone": "+1 860-453-2034",
    "website": "https://office.jacksonhewitt.com/tax-preparation-services-locations/en/ct/bristol/1400-farmington-ave/52719%3Futm_source%3Dgoogle%26utm_medium%3Dlocal%26utm_campaign%3Dlocal%26utm_content%3D52719",
    "address": "1400 Farmington Ave, Bristol, CT 06010",
    "city": "Bristol",
    "state": "Connecticut",
    "state_code": "CT",
    "postal_code": "06010",
    "latitude": 41.697637,
    "longitude": -72.89769299999999,
    "rating": 4.6,
    "reviews": 77,
    "place_id": "ChIJS8GtR3iw54kRsS-cqr2ThRg"
  },
  {
    "name": "Taxing Matters",
    "category": "Tax preparation service",
    "phone": "+1 860-793-8630",
    "website": "",
    "address": "52 S Canal St, Plainville, CT 06062",
    "city": "Plainville",
    "state": "Connecticut",
    "state_code": "CT",
    "postal_code": "06062",
    "latitude": 41.664201,
    "longitude": -72.87025109999999,
    "rating": 4.5,
    "reviews": 15,
    "place_id": null
  },
  {
    "name": "Jeff Massicott Tax & Financial",
    "category": "Tax preparation service",
    "phone": "+1 860-314-1040",
    "website": "",
    "address": "1506 West St, Southington, CT 06489",
    "city": "Southington",
    "state": "Connecticut",
    "state_code": "CT",
    "postal_code": "06489",
    "latitude": 41.6291602,
    "longitude": -72.9004037,
    "rating": 4.6,
    "reviews": 20,
    "place_id": "ChIJ9yMhJEu654kRUrEsCPHWVj8"
  },
  {
    "name": "Cornish Financial Services LLC",
    "category": "Tax preparation service",
    "phone": "+1 860-747-5657",
    "website": "",
    "address": "45 Lincoln St, Plainville, CT 06062",
    "city": "Plainville",
    "state": "Connecticut",
    "state_code": "CT",
    "postal_code": "06062",
    "latitude": 41.6656184,
    "longitude": -72.8772287,
    "rating": 5.0,
    "reviews": 7,
    "place_id": "ChIJJTpND7-w54kRZ0DWGEszaRI"
  },
  {
    "name": "Lugo Tax Services",
    "category": "Tax preparation",
    "phone": "+1 860-997-8673",
    "website": "",
    "address": "1 W Main St, Plainville, CT 06062",
    "city": "Plainville",
    "state": "Connecticut",
    "state_code": "CT",
    "postal_code": "06062",
    "latitude": 41.6713666,
    "longitude": -72.8670147,
    "rating": 5.0,
    "reviews": 9,
    "place_id": "ChIJ51HoM6yuYg8R8vRhQzdyiuU"
  },
  {
    "name": "H&R Block",
    "category": "Tax preparation service",
    "phone": "+1 860-620-5134",
    "website": "https://www.hrblock.com/tax-office-near-me/connecticut/southington/7640/%3Fotppartnerid%3D9308%26campaignid%3Dpw_mcm_9308_9762%26utm_medium%3Dlocal",
    "address": "768 Queen St, Southington, CT 06489",
    "city": "Southington",
    "state": "Connecticut",
    "state_code": "CT",
    "postal_code": "06489",
    "latitude": 41.6377161,
    "longitude": -72.87517439999999,
    "rating": 4.8,
    "reviews": 153,
    "place_id": "ChIJK8klFDi354kRLHP0EvS9wms"
  },
  {
    "name": "Liberty Tax",
    "category": "Tax preparation",
    "phone": "+1 860-400-1040",
    "website": "https://www.libertytax.com/21125",
    "address": "BM2, 17 Farmington Ave, Plainville, CT 06062",
    "city": "Plainville",
    "state": "Connecticut",
    "state_code": "CT",
    "postal_code": "06062",
    "latitude": 41.6757007,
    "longitude": -72.8587557,
    "rating": 4.6,
    "reviews": 82,
    "place_id": "ChIJ47Clz_z_54kRF9lWhUGWx4Y"
  },
  {
    "name": "Padgett Business Services",
    "category": "Tax preparation service",
    "phone": "+1 860-942-8315",
    "website": "http://www.padgettbusinessservices.com/contact-an-office/387-tuckie-road-suite-f-north-windham-ct-06256",
    "address": "387 Tuckie Rd, North Windham, CT 06256",
    "city": "North Windham",
    "state": "Connecticut",
    "state_code": "CT",
    "postal_code": "06256",
    "latitude": 41.7327207,
    "longitude": -72.1831526,
    "rating": 5.0,
    "reviews": 1,
    "place_id": "ChIJUy2U9QFj5okRi8BLlEfvfnI"
  },
  {
    "name": "Jackson Hewitt Tax Service",
    "category": "Tax preparation",
    "phone": "+1 860-931-0200",
    "website": "https://office.jacksonhewitt.com/tax-preparation-services-locations/en/ct/north-windham/474-boston-post-rd/52022%3Futm_source%3Dgoogle%26utm_medium%3Dlocal%26utm_campaign%3Dlocal%26utm_content%3D52022",
    "address": "474 Boston Post Rd, North Windham, CT 06256",
    "city": "North Windham",
    "state": "Connecticut",
    "state_code": "CT",
    "postal_code": "06256",
    "latitude": 41.741291,
    "longitude": -72.174388,
    "rating": 4.3,
    "reviews": 12,
    "place_id": "ChIJy3_yKOpi5okRIa5pzNq_9AI"
  },
  {
    "name": "SHERIDAN VERNON EA",
    "category": "Tax preparation service",
    "phone": "+1 860-456-1500",
    "website": "https://sheridanvernon.com/",
    "address": "6 Storrs Rd, Willimantic, CT 06226",
    "city": "Willimantic",
    "state": "Connecticut",
    "state_code": "CT",
    "postal_code": "06226",
    "latitude": 41.728397,
    "longitude": -72.201015,
    "rating": 5.0,
    "reviews": 75,
    "place_id": "ChIJzcCjB-9j5okRToGGiHjjFGU"
  },
  {
    "name": "H&R Block",
    "category": "Tax preparation service",
    "phone": "+1 860-423-1076",
    "website": "https://www.hrblock.com/tax-office-near-me/connecticut/north-windham/7743/%3Fotppartnerid%3D9308%26campaignid%3Dpw_mcm_9308_9762%26utm_medium%3Dlocal",
    "address": "361 Boston Post Rd, North Windham, CT 06256",
    "city": "North Windham",
    "state": "Connecticut",
    "state_code": "CT",
    "postal_code": "06256",
    "latitude": 41.7414239,
    "longitude": -72.1777556,
    "rating": 4.8,
    "reviews": 107,
    "place_id": "ChIJKefwTuVi5okRWlQplQziMRM"
  },
  {
    "name": "S & P Financial Services LLC",
    "category": "Tax preparation service",
    "phone": "+1 860-456-1661",
    "website": "https://www.sp-financial.com/",
    "address": "452 Jackson St, Willimantic, CT 06226",
    "city": "Willimantic",
    "state": "Connecticut",
    "state_code": "CT",
    "postal_code": "06226",
    "latitude": 41.72222,
    "longitude": -72.2030718,
    "rating": 5.0,
    "reviews": 3,
    "place_id": "ChIJRx1-mrxj5okRHJXXTO2J4Cs"
  },
  {
    "name": "Jackson Hewitt Tax Service",
    "category": "Tax preparation",
    "phone": "+1 860-450-1383",
    "website": "https://office.jacksonhewitt.com/tax-preparation-services-locations/en/ct/willimantic/822-main-street/18792%3Futm_source%3Dgoogle%26utm_medium%3Dlocal%26utm_campaign%3Dlocal%26utm_content%3D18792",
    "address": "822 Main St, Willimantic, CT 06226",
    "city": "Willimantic",
    "state": "Connecticut",
    "state_code": "CT",
    "postal_code": "06226",
    "latitude": 41.712092,
    "longitude": -72.2145445,
    "rating": 4.6,
    "reviews": 45,
    "place_id": "ChIJiQvw4exj5okR-HIFOma3jks"
  },
  {
    "name": "H&R Block",
    "category": "Tax preparation service",
    "phone": "+1 860-423-1722",
    "website": "https://www.hrblock.com/tax-office-near-me/connecticut/willimantic/7800/%3Fotppartnerid%3D9308%26campaignid%3Dpw_mcm_9308_9762%26utm_medium%3Dlocal",
    "address": "857 Main St, Willimantic, CT 06226",
    "city": "Willimantic",
    "state": "Connecticut",
    "state_code": "CT",
    "postal_code": "06226",
    "latitude": 41.7126208,
    "longitude": -72.2151427,
    "rating": 4.9,
    "reviews": 95,
    "place_id": "ChIJAzBy_Oxj5okRyIq1Mk6Ys80"
  },
  {
    "name": "Pallein Michael CPA",
    "category": "Tax preparation service",
    "phone": "+1 860-423-0000",
    "website": "",
    "address": "1486 W Main St, Willimantic, CT 06226",
    "city": "Willimantic",
    "state": "Connecticut",
    "state_code": "CT",
    "postal_code": "06226",
    "latitude": 41.7176486,
    "longitude": -72.23449769999999,
    "rating": 4.4,
    "reviews": 7,
    "place_id": "ChIJL7i4i-Fj5okRN0G9MNGzdpg"
  },
  {
    "name": "Tax Services of Milford",
    "category": "Tax preparation service",
    "phone": "+1 203-878-8544",
    "website": "https://taxservicesofmilford.com/",
    "address": "479 New Haven Ave, Milford, CT 06460",
    "city": "Milford",
    "state": "Connecticut",
    "state_code": "CT",
    "postal_code": "06460",
    "latitude": 41.2238668,
    "longitude": -73.0360804,
    "rating": 4.8,
    "reviews": 14,
    "place_id": "ChIJU1ct6GB06IkRCyiuBPMnbcg"
  },
  {
    "name": "Litchfield Tax Service",
    "category": "Tax preparation",
    "phone": "+1 860-350-3278",
    "website": "https://litchfieldtaxservice.com/",
    "address": "56 Danbury Rd STE 8, New Milford, CT 06776",
    "city": "New Milford",
    "state": "Connecticut",
    "state_code": "CT",
    "postal_code": "06776",
    "latitude": 41.5670192,
    "longitude": -73.4147619,
    "rating": 4.5,
    "reviews": 8,
    "place_id": "ChIJy6AQdyn054kRW9LCV4AZwIw"
  },
  {
    "name": "Helping Hand Multi Services",
    "category": "Tax preparation service",
    "phone": "+1 860-717-4557",
    "website": "",
    "address": "337 Danbury Rd, New Milford, CT 06776",
    "city": "New Milford",
    "state": "Connecticut",
    "state_code": "CT",
    "postal_code": "06776",
    "latitude": 41.5328458,
    "longitude": -73.4230165,
    "rating": 5.0,
    "reviews": 1,
    "place_id": "ChIJq6q27av354kRAD9cEUmzavU"
  },
  {
    "name": "RJM Tax & Financial Services Inc",
    "category": "Tax preparation service",
    "phone": "+1 203-301-0555",
    "website": "http://rjmtax.com/",
    "address": "244 Bridgeport Ave, Milford, CT 06460",
    "city": "Milford",
    "state": "Connecticut",
    "state_code": "CT",
    "postal_code": "06460",
    "latitude": 41.2027918,
    "longitude": -73.1012744,
    "rating": 4.6,
    "reviews": 7,
    "place_id": "ChIJmUNKlup06IkRgUcuD8AeUHw"
  },
  {
    "name": "CLARA TAX SERVICES LLC",
    "category": "Tax preparation",
    "phone": "+1 203-730-2824",
    "website": "",
    "address": "59 Main St 2ND FL, Danbury, CT 06810",
    "city": "Danbury",
    "state": "Connecticut",
    "state_code": "CT",
    "postal_code": "06810",
    "latitude": 41.3894052,
    "longitude": -73.4471856,
    "rating": 5.0,
    "reviews": 110,
    "place_id": "ChIJvwt5GYj_54kRuwVR45vbS3c"
  },
  {
    "name": "H&R Block",
    "category": "Tax preparation service",
    "phone": "+1 860-354-0660",
    "website": "https://www.hrblock.com/tax-office-near-me/connecticut/new-milford/26621/%3Fotppartnerid%3D9308%26campaignid%3Dpw_mcm_9308_9762%26utm_medium%3Dlocal",
    "address": "30 Bank St, New Milford, CT 06776",
    "city": "New Milford",
    "state": "Connecticut",
    "state_code": "CT",
    "postal_code": "06776",
    "latitude": 41.5776941,
    "longitude": -73.4119085,
    "rating": 4.8,
    "reviews": 91,
    "place_id": "ChIJUTHHXyn054kR8Ikdbkh9fF8"
  },
  {
    "name": "Godinho Enterprises",
    "category": "Tax preparation",
    "phone": "+1 203-482-9206",
    "website": "https://godinhoenterprises.com/",
    "address": "304 Federal Rd #310, Brookfield, CT 06804",
    "city": "Brookfield",
    "state": "Connecticut",
    "state_code": "CT",
    "postal_code": "06804",
    "latitude": 41.448887,
    "longitude": -73.40324509999999,
    "rating": 5.0,
    "reviews": 40,
    "place_id": "ChIJ-zjjS5H554kRZpishYUDD9A"
  },
  {
    "name": "TCL Tax Solutions LLC",
    "category": "Tax preparation service",
    "phone": "+1 203-788-2216",
    "website": "https://www.irs.gov/individuals/international-taxpayers/acceptance-agents-connecticut",
    "address": "59 Main St 2nd floor, Danbury, CT 06810",
    "city": "Danbury",
    "state": "Connecticut",
    "state_code": "CT",
    "postal_code": "06810",
    "latitude": 41.3894052,
    "longitude": -73.4471856,
    "rating": 4.8,
    "reviews": 17,
    "place_id": "ChIJKUxbnHr_54kRBAb_FcFKRWA"
  },
  {
    "name": "ABCD PLLC",
    "category": "Tax preparation service",
    "phone": "+1 203-273-1088",
    "website": "https://brookfieldabcd.com/",
    "address": "9 Laurel Dr, Brookfield, CT 06804",
    "city": "Brookfield",
    "state": "Connecticut",
    "state_code": "CT",
    "postal_code": "06804",
    "latitude": 41.4762329,
    "longitude": -73.4387156,
    "rating": 5.0,
    "reviews": 14,
    "place_id": "ChIJTVh9o3hb9qQRX-tfr8lNKX8"
  },
  {
    "name": "C & D Number Crunchers LLC",
    "category": "Tax preparation",
    "phone": "+1 203-283-1877",
    "website": "",
    "address": "31 Cherry St #100, Milford, CT 06460",
    "city": "Milford",
    "state": "Connecticut",
    "state_code": "CT",
    "postal_code": "06460",
    "latitude": 41.2263274,
    "longitude": -73.05497199999999,
    "rating": 5.0,
    "reviews": 1,
    "place_id": "ChIJna7jUXHg54kROYl2MKtbvXA"
  },
  {
    "name": "H&R Block",
    "category": "Tax preparation service",
    "phone": "+1 203-746-5790",
    "website": "https://www.hrblock.com/tax-office-near-me/connecticut/new-fairfield/26622/%3Fotppartnerid%3D9308%26campaignid%3Dpw_mcm_9308_9762%26utm_medium%3Dlocal",
    "address": "1 Brush Hill Rd Ste 190, New Fairfield, CT 06812",
    "city": "New Fairfield",
    "state": "Connecticut",
    "state_code": "CT",
    "postal_code": "06812",
    "latitude": 41.4652253,
    "longitude": -73.48527159999999,
    "rating": 4.9,
    "reviews": 70,
    "place_id": "ChIJr8tLmTNW3YkReuvG_-jqvg8"
  },
  {
    "name": "FABIAN MULTI SERVICE",
    "category": "Tax preparation service",
    "phone": "+1 203-456-6802",
    "website": "http://www.fabianmultiservice.com/",
    "address": "39 Rose St 2nd FL, Danbury, CT 06810",
    "city": "Danbury",
    "state": "Connecticut",
    "state_code": "CT",
    "postal_code": "06810",
    "latitude": 41.3977398,
    "longitude": -73.4603181,
    "rating": 4.9,
    "reviews": 44,
    "place_id": "ChIJf36VXR7_54kRJYkYivNZOOM"
  },
  {
    "name": "Seneca Business Services | Tax Preparation Service and Business Consultant",
    "category": "Tax preparation service",
    "phone": "+1 203-730-8520",
    "website": "http://seneca-business.com/",
    "address": "85 Main St, Danbury, CT 06810",
    "city": "Danbury",
    "state": "Connecticut",
    "state_code": "CT",
    "postal_code": "06810",
    "latitude": 41.3912063,
    "longitude": -73.44815299999999,
    "rating": 4.3,
    "reviews": 15,
    "place_id": "ChIJnTApJSL_54kR930okK8HGJE"
  },
  {
    "name": "Jones & Co Accounting & Tax Services",
    "category": "Tax preparation service",
    "phone": "+1 203-730-0326",
    "website": "",
    "address": "40 Tamanny Trail, Danbury, CT 06811",
    "city": "Danbury",
    "state": "Connecticut",
    "state_code": "CT",
    "postal_code": "06811",
    "latitude": 41.4333778,
    "longitude": -73.4392101,
    "rating": 5.0,
    "reviews": 1,
    "place_id": "ChIJE8520cf454kRpqK7y5pnRNM"
  },
  {
    "name": "Gaby Chin Multi-Services",
    "category": "Tax preparation service",
    "phone": "+1 203-739-5830",
    "website": "http://www.gabychin.com/",
    "address": "457 N Main St SUITE 2A, Danbury, CT 06811",
    "city": "Danbury",
    "state": "Connecticut",
    "state_code": "CT",
    "postal_code": "06811",
    "latitude": 41.4053785,
    "longitude": -73.4624996,
    "rating": 4.7,
    "reviews": 15,
    "place_id": "ChIJw31YZHD_54kRocLRHwp1YlQ"
  },
  {
    "name": "Christian Multi Services",
    "category": "Tax preparation service",
    "phone": "+1 203-744-3099",
    "website": "",
    "address": "301 Main St 2nd Floor, Danbury, CT 06810",
    "city": "Danbury",
    "state": "Connecticut",
    "state_code": "CT",
    "postal_code": "06810",
    "latitude": 41.3966107,
    "longitude": -73.4542037,
    "rating": 4.5,
    "reviews": 51,
    "place_id": "ChIJPyw-1GD_54kRH-WzIiGwc0Y"
  },
  {
    "name": "Liberty Tax",
    "category": "Tax preparation",
    "phone": "+1 203-437-9126",
    "website": "https://www.libertytax.com/14076",
    "address": "345 W Main St, Waterbury, CT 06702",
    "city": "Waterbury",
    "state": "Connecticut",
    "state_code": "CT",
    "postal_code": "06702",
    "latitude": 41.5576927,
    "longitude": -73.0467686,
    "rating": 4.9,
    "reviews": 300,
    "place_id": "ChIJacLYqKzB54kR6Pd5ldcAGTU"
  },
  {
    "name": "Leon Tax Service",
    "category": "Tax preparation service",
    "phone": "+1 203-684-4063",
    "website": "",
    "address": "1820 Baldwin St, Waterbury, CT 06706",
    "city": "Waterbury",
    "state": "Connecticut",
    "state_code": "CT",
    "postal_code": "06706",
    "latitude": 41.5284576,
    "longitude": -73.03795769999999,
    "rating": 4.8,
    "reviews": 35,
    "place_id": "ChIJi0-yoTPB54kRssDe8FVw_-w"
  },
  {
    "name": "Liberty Tax",
    "category": "Tax preparation",
    "phone": "+1 203-437-9128",
    "website": "https://www.libertytax.com/19874",
    "address": "353 E Main St Suite 1, Waterbury, CT 06702",
    "city": "Waterbury",
    "state": "Connecticut",
    "state_code": "CT",
    "postal_code": "06702",
    "latitude": 41.5546732,
    "longitude": -73.0346485,
    "rating": 5.0,
    "reviews": 227,
    "place_id": "ChIJd2GEJwLB54kRSV4hCp8zAN4"
  },
  {
    "name": "Seven Express Multi service LLC",
    "category": "Tax preparation service",
    "phone": "+1 203-527-5178",
    "website": "",
    "address": "1872 E Main St, Waterbury, CT 06705",
    "city": "Waterbury",
    "state": "Connecticut",
    "state_code": "CT",
    "postal_code": "06705",
    "latitude": 41.54458,
    "longitude": -73.0112877,
    "rating": 5.0,
    "reviews": 133,
    "place_id": "ChIJTxeVeBXB54kRe0P7KhQI7ws"
  },
  {
    "name": "Liberty Tax",
    "category": "Tax preparation",
    "phone": "+1 203-437-9132",
    "website": "https://www.libertytax.com/12011",
    "address": "155 Thomaston Ave, Waterbury, CT 06702",
    "city": "Waterbury",
    "state": "Connecticut",
    "state_code": "CT",
    "postal_code": "06702",
    "latitude": 41.5602578,
    "longitude": -73.0553566,
    "rating": 4.9,
    "reviews": 230,
    "place_id": "ChIJ8_5NoE3A54kRfF_npJ826hc"
  },
  {
    "name": "Liberty Tax",
    "category": "Tax preparation",
    "phone": "+1 203-463-6279",
    "website": "https://www.libertytax.com/19325",
    "address": "145 Meriden Rd, Waterbury, CT 06705",
    "city": "Waterbury",
    "state": "Connecticut",
    "state_code": "CT",
    "postal_code": "06705",
    "latitude": 41.5495418,
    "longitude": -73.01393929999999,
    "rating": 4.7,
    "reviews": 202,
    "place_id": "ChIJxzczDSHB54kRVlrAQHWAFYk"
  },
  {
    "name": "Jackson Hewitt Tax Service",
    "category": "Tax preparation",
    "phone": "+1 203-893-4609",
    "website": "https://office.jacksonhewitt.com/tax-preparation-services-locations/en/ct/waterbury/625-wolcott-street/19579%3Futm_source%3Dgoogle%26utm_medium%3Dlocal%26utm_campaign%3Dlocal%26utm_content%3D19579",
    "address": "625 Wolcott St Suite 5, Waterbury, CT 06705",
    "city": "Waterbury",
    "state": "Connecticut",
    "state_code": "CT",
    "postal_code": "06705",
    "latitude": 41.5587987,
    "longitude": -73.01311199999999,
    "rating": 4.7,
    "reviews": 91,
    "place_id": "ChIJSx2wRNzA54kRiHU1gY_cyy4"
  },
  {
    "name": "H&R Block",
    "category": "Tax preparation service",
    "phone": "+1 203-753-7823",
    "website": "https://www.hrblock.com/tax-office-near-me/connecticut/waterbury/7658/%3Fotppartnerid%3D9308%26campaignid%3Dpw_mcm_9308_9762%26utm_medium%3Dlocal",
    "address": "649 W Main St, Waterbury, CT 06702",
    "city": "Waterbury",
    "state": "Connecticut",
    "state_code": "CT",
    "postal_code": "06702",
    "latitude": 41.5578318,
    "longitude": -73.0503171,
    "rating": 4.8,
    "reviews": 169,
    "place_id": "ChIJARLfqiRA54YRKijgKvVQpkU"
  },
  {
    "name": "New England Tax Service Inc.",
    "category": "Tax preparation service",
    "phone": "+1 203-756-4315",
    "website": "http://www.netaxservice.com/",
    "address": "118 Scott Rd Suite 10, Waterbury, CT 06705",
    "city": "Waterbury",
    "state": "Connecticut",
    "state_code": "CT",
    "postal_code": "06705",
    "latitude": 41.5393724,
    "longitude": -72.99415309999999,
    "rating": 3.7,
    "reviews": 3,
    "place_id": "ChIJqw2Eovbl54kRJcmzu2h2ZNo"
  },
  {
    "name": "Goldstein Smedick",
    "category": "Tax preparation service",
    "phone": "+1 203-573-1311",
    "website": "",
    "address": "30 W Main St, Waterbury, CT 06702",
    "city": "Waterbury",
    "state": "Connecticut",
    "state_code": "CT",
    "postal_code": "06702",
    "latitude": 41.55706139999999,
    "longitude": -73.0410351,
    "rating": 5.0,
    "reviews": 1,
    "place_id": "ChIJ7yf0r6rB54kRPl0wudp2Ji0"
  },
  {
    "name": "AMC Tax",
    "category": "Tax preparation service",
    "phone": "+1 203-573-8766",
    "website": "",
    "address": "378 Chase Ave, Waterbury, CT 06704",
    "city": "Waterbury",
    "state": "Connecticut",
    "state_code": "CT",
    "postal_code": "06704",
    "latitude": 41.5826574,
    "longitude": -73.03639919999999,
    "rating": 5.0,
    "reviews": 6,
    "place_id": "ChIJ4WDCOSfB54kR1R8ZxNcqdD4"
  },
  {
    "name": "Family Multiservices & Income Tax",
    "category": "Tax preparation service",
    "phone": "",
    "website": "",
    "address": "Waterbury, CT 06706",
    "city": "Waterbury",
    "state": "Connecticut",
    "state_code": "CT",
    "postal_code": "06706",
    "latitude": 41.5327572,
    "longitude": -73.0348546,
    "rating": 5.0,
    "reviews": 1,
    "place_id": "ChIJ8aztCHTB54kR8QSr6xJPs-8"
  },
  {
    "name": "Jackson Hewitt Tax Service",
    "category": "Tax preparation",
    "phone": "+1 203-527-6852",
    "website": "https://office.jacksonhewitt.com/tax-preparation-services-locations/en/ct/waterbury/195-grove-street/14247%3Futm_source%3Dgoogle%26utm_medium%3Dlocal%26utm_campaign%3Dlocal%26utm_content%3D14247",
    "address": "195 Grove St Suite 2-South, Waterbury, CT 06710",
    "city": "Waterbury",
    "state": "Connecticut",
    "state_code": "CT",
    "postal_code": "06710",
    "latitude": 41.5596391,
    "longitude": -73.0431036,
    "rating": 4.8,
    "reviews": 26,
    "place_id": "ChIJfcSnDJ7B54kR9IFseXuqtVU"
  },
  {
    "name": "UNUM GLOBAL Tax and Immigration",
    "category": "Tax preparation",
    "phone": "+1 203-518-4868",
    "website": "http://www.unumglobal.net/",
    "address": "481 Wolcott St, Waterbury, CT 06705",
    "city": "Waterbury",
    "state": "Connecticut",
    "state_code": "CT",
    "postal_code": "06705",
    "latitude": 41.5556911,
    "longitude": -73.0148129,
    "rating": 5.0,
    "reviews": 42,
    "place_id": "ChIJMZfOTN7A54kRJOTfNSF89Qc"
  },
  {
    "name": "Rekaby & Associates LLC",
    "category": "Tax preparation service",
    "phone": "+1 203-757-0808",
    "website": "http://www.rekaby1040.com/",
    "address": "140 Homer St UNIT A, Waterbury, CT 06704",
    "city": "Waterbury",
    "state": "Connecticut",
    "state_code": "CT",
    "postal_code": "06704",
    "latitude": 41.5855518,
    "longitude": -73.0450202,
    "rating": 4.4,
    "reviews": 20,
    "place_id": "ChIJjdu1YsrA54kRHLJOSJMZgdU"
  },
  {
    "name": "Jackson Hewitt Tax Service",
    "category": "Tax preparation",
    "phone": "+1 203-278-5237",
    "website": "https://office.jacksonhewitt.com/tax-preparation-services-locations/en/ct/waterbury/910-wolcott-street/53548%3Futm_source%3Dgoogle%26utm_medium%3Dlocal%26utm_campaign%3Dlocal%26utm_content%3D53548",
    "address": "910 Wolcott St, Waterbury, CT 06705",
    "city": "Waterbury",
    "state": "Connecticut",
    "state_code": "CT",
    "postal_code": "06705",
    "latitude": 41.56332,
    "longitude": -73.00444399999999,
    "rating": 4.7,
    "reviews": 73,
    "place_id": "ChIJ0ZUD1MXA54kRQJ8ZHJtWG2Y"
  },
  {
    "name": "Main Street Tax Services LLC",
    "category": "Tax preparation service",
    "phone": "+1 860-274-4954",
    "website": "https://splinternetmarketing.com/local-pros/ct/oakville/main-street-tax-services-llc/",
    "address": "153 Main St, Oakville, CT 06779",
    "city": "Oakville",
    "state": "Connecticut",
    "state_code": "CT",
    "postal_code": "06779",
    "latitude": 41.587179,
    "longitude": -73.084721,
    "rating": 3.7,
    "reviews": 3,
    "place_id": "ChIJGReJzMzq54kRCT7BfJxqOBw"
  },
  {
    "name": "Ciampi Tax & Financial Services LLC",
    "category": "Tax preparation service",
    "phone": "+1 203-271-3801",
    "website": "https://ciampitax.com/",
    "address": "2278 Waterbury Rd, Cheshire, CT 06410",
    "city": "Cheshire",
    "state": "Connecticut",
    "state_code": "CT",
    "postal_code": "06410",
    "latitude": 41.5453327,
    "longitude": -72.9612874,
    "rating": 5.0,
    "reviews": 168,
    "place_id": "ChIJETUEeeLG54kRWatOR-ISTSI"
  },
  {
    "name": "Megret Solutions Consulting",
    "category": "Tax preparation service",
    "phone": "+1 203-529-6800",
    "website": "",
    "address": "67 S Main St #1011, Waterbury, CT 06706",
    "city": "Waterbury",
    "state": "Connecticut",
    "state_code": "CT",
    "postal_code": "06706",
    "latitude": 41.5548177,
    "longitude": -73.04040309999999,
    "rating": 4.8,
    "reviews": 64,
    "place_id": "ChIJ1XLZfwDB54kRyD8XwFw2Vrw"
  },
  {
    "name": "Bergamo Tax & Accounting Services CPA, LLC",
    "category": "Tax preparation service",
    "phone": "+1 860-274-1655",
    "website": "http://www.bergamocpa.com/",
    "address": "51 Depot St STE 111, Watertown, CT 06795",
    "city": "Watertown",
    "state": "Connecticut",
    "state_code": "CT",
    "postal_code": "06795",
    "latitude": 41.6019051,
    "longitude": -73.11396979999999,
    "rating": 5.0,
    "reviews": 26,
    "place_id": "ChIJa3h7d8nq54kRUX6A5N0DSnE"
  },
  {
    "name": "JOHANNA TAX FINANCIAL",
    "category": "Tax preparation service",
    "phone": "+1 347-376-5623",
    "website": "",
    "address": "51 Depot St #202A, Watertown, CT 06795",
    "city": "Watertown",
    "state": "Connecticut",
    "state_code": "CT",
    "postal_code": "06795",
    "latitude": 41.601843,
    "longitude": -73.1141122,
    "rating": 5.0,
    "reviews": 77,
    "place_id": "ChIJkUzIEMfB54kRzConJyauaR8"
  },
  {
    "name": "H&R Block",
    "category": "Tax preparation service",
    "phone": "+1 203-754-6488",
    "website": "https://www.hrblock.com/tax-office-near-me/connecticut/waterbury/7661/%3Fotppartnerid%3D9308%26campaignid%3Dpw_mcm_9308_9762%26utm_medium%3Dlocal",
    "address": "216 Chase Ave, Waterbury, CT 06704",
    "city": "Waterbury",
    "state": "Connecticut",
    "state_code": "CT",
    "postal_code": "06704",
    "latitude": 41.5824267,
    "longitude": -73.03038719999999,
    "rating": 4.7,
    "reviews": 90,
    "place_id": "ChIJ7RCuno7A54kR3CLc9DYMgow"
  },
  {
    "name": "Rekaby & Associates",
    "category": "Tax preparation service",
    "phone": "+1 203-575-8331",
    "website": "https://www.rekaby1040.com/",
    "address": "846 Wolcott St, Waterbury, CT 06705",
    "city": "Waterbury",
    "state": "Connecticut",
    "state_code": "CT",
    "postal_code": "06705",
    "latitude": 41.564437,
    "longitude": -73.008877,
    "rating": 5.0,
    "reviews": 1,
    "place_id": "ChIJqWeH9sTA54kRShb_UAHp7-Y"
  },
  {
    "name": "Charles Heaven & Co",
    "category": "Tax preparation service",
    "phone": "+1 203-753-4101",
    "website": "http://www.charlesheaven.com/",
    "address": "207 Bank St #5, Waterbury, CT 06702",
    "city": "Waterbury",
    "state": "Connecticut",
    "state_code": "CT",
    "postal_code": "06702",
    "latitude": 41.5529002,
    "longitude": -73.0413638,
    "rating": 5.0,
    "reviews": 1,
    "place_id": "ChIJh9YCDqrB54kRTCQlUJn-Yd4"
  },
  {
    "name": "Sodlosky III Edward J CPA",
    "category": "Tax preparation service",
    "phone": "+1 203-723-8398",
    "website": "https://sodlosky.com/",
    "address": "276 N Main St, Naugatuck, CT 06770",
    "city": "Naugatuck",
    "state": "Connecticut",
    "state_code": "CT",
    "postal_code": "06770",
    "latitude": 41.4983347,
    "longitude": -73.0492143,
    "rating": 3.8,
    "reviews": 10,
    "place_id": "ChIJtQGFrknC54kRAz2kjiZNBP8"
  },
  {
    "name": "Menelio Tax Service LLC",
    "category": "Tax preparation service",
    "phone": "+1 203-231-8711",
    "website": "http://www.meneliotaxservice.com/",
    "address": "90 Church St 2nd Floor, Suite F, Naugatuck, CT 06770",
    "city": "Naugatuck",
    "state": "Connecticut",
    "state_code": "CT",
    "postal_code": "06770",
    "latitude": 41.4885334,
    "longitude": -73.05614179999999,
    "rating": 5.0,
    "reviews": 4,
    "place_id": "ChIJGSELkFLB54kRZxYgK-QFBdw"
  },
  {
    "name": "Dibble & Rossi Cpas PC",
    "category": "Tax preparation service",
    "phone": "+1 203-754-3134",
    "website": "",
    "address": "515 Watertown Ave, Waterbury, CT 06708",
    "city": "Waterbury",
    "state": "Connecticut",
    "state_code": "CT",
    "postal_code": "06708",
    "latitude": 41.5665038,
    "longitude": -73.0607174,
    "rating": 4.0,
    "reviews": 3,
    "place_id": "ChIJR-nIaUnA54kRcr3o2U2rnEE"
  },
  {
    "name": "O'Connor Accounting & Tax Services",
    "category": "Tax preparation service",
    "phone": "+1 203-729-6000",
    "website": "",
    "address": "35 Porter Ave, Naugatuck, CT 06770",
    "city": "Naugatuck",
    "state": "Connecticut",
    "state_code": "CT",
    "postal_code": "06770",
    "latitude": 41.5067982,
    "longitude": -73.0576384,
    "rating": 5.0,
    "reviews": 2,
    "place_id": "ChIJ11OQC1vC54kRvaeARBgpmNU"
  },
  {
    "name": "Kimball Paris & Gugliotti",
    "category": "Tax preparation service",
    "phone": "+1 203-598-3800",
    "website": "http://www.kpgcpa.com/",
    "address": "1579 Straits Turnpike, Middlebury, CT 06762",
    "city": "Middlebury",
    "state": "Connecticut",
    "state_code": "CT",
    "postal_code": "06762",
    "latitude": 41.5520873,
    "longitude": -73.09187899999999,
    "rating": 5.0,
    "reviews": 1,
    "place_id": "ChIJ5f4q6Xbq54kRg6YFUqqTMZg"
  },
  {
    "name": "H&R Block",
    "category": "Tax preparation service",
    "phone": "+1 860-274-1135",
    "website": "https://www.hrblock.com/tax-office-near-me/connecticut/watertown/7662/%3Fotppartnerid%3D9308%26campaignid%3Dpw_mcm_9308_9762%26utm_medium%3Dlocal",
    "address": "1278 Main St Ste 1 and 2, Watertown, CT 06795",
    "city": "Watertown",
    "state": "Connecticut",
    "state_code": "CT",
    "postal_code": "06795",
    "latitude": 41.5906917,
    "longitude": -73.1068607,
    "rating": 4.7,
    "reviews": 83,
    "place_id": "ChIJL59spr7q54kRumHCZFaWk_0"
  },
  {
    "name": "J&E Tax Services",
    "category": "Tax preparation service",
    "phone": "+1 203-217-2611",
    "website": "",
    "address": "27 Siemon Company Dr, Watertown, CT 06795",
    "city": "Watertown",
    "state": "Connecticut",
    "state_code": "CT",
    "postal_code": "06795",
    "latitude": 41.6039238,
    "longitude": -73.1122694,
    "rating": 5.0,
    "reviews": 1,
    "place_id": "ChIJrapmP8rq54kR-IABYQcndnU"
  },
  {
    "name": "H&R Block",
    "category": "Tax preparation service",
    "phone": "+1 203-729-1312",
    "website": "https://www.hrblock.com/tax-office-near-me/connecticut/naugatuck/7663/%3Fotppartnerid%3D9308%26campaignid%3Dpw_mcm_9308_9762%26utm_medium%3Dlocal",
    "address": "799 New Haven Road Crosspointe Plaza, Naugatuck, CT 06770",
    "city": "Naugatuck",
    "state": "Connecticut",
    "state_code": "CT",
    "postal_code": "06770",
    "latitude": 41.4726885,
    "longitude": -73.04296699999999,
    "rating": 4.7,
    "reviews": 105,
    "place_id": "ChIJGyAQVXrC54kRH_eOKHkUkIM"
  },
  {
    "name": "H&R Block",
    "category": "Tax preparation service",
    "phone": "+1 203-879-7386",
    "website": "https://www.hrblock.com/tax-office-near-me/connecticut/wolcott/7768/%3Fotppartnerid%3D9308%26campaignid%3Dpw_mcm_9308_9762%26utm_medium%3Dlocal",
    "address": "1457 Meriden Rd, Wolcott, CT 06716",
    "city": "Wolcott",
    "state": "Connecticut",
    "state_code": "CT",
    "postal_code": "06716",
    "latitude": 41.5541549,
    "longitude": -72.9703699,
    "rating": 4.7,
    "reviews": 54,
    "place_id": "ChIJ1wPwfxjH54kR82FEpHC3-bo"
  },
  {
    "name": "Michael Linsalato III & Co Llc",
    "category": "Tax preparation service",
    "phone": "+1 203-879-2228",
    "website": "",
    "address": "724 Wolcott Rd UNIT 2, Wolcott, CT 06716",
    "city": "Wolcott",
    "state": "Connecticut",
    "state_code": "CT",
    "postal_code": "06716",
    "latitude": 41.6018735,
    "longitude": -72.986199,
    "rating": 5.0,
    "reviews": 9,
    "place_id": "ChIJNUXZTrG454kRFu27oxEtAyQ"
  },
  {
    "name": "Del Pan Inc.",
    "category": "Tax preparation service",
    "phone": "+1 203-879-6368",
    "website": "http://www.delpaninc.com/",
    "address": "32 Bolduc Ct #3146, Wolcott, CT 06716",
    "city": "Wolcott",
    "state": "Connecticut",
    "state_code": "CT",
    "postal_code": "06716",
    "latitude": 41.5647623,
    "longitude": -72.9767932,
    "rating": 5.0,
    "reviews": 2,
    "place_id": "ChIJJzBOsj7H54kRP76aGB3N9fk"
  },
  {
    "name": "Glick & Company LLC",
    "category": "Tax preparation service",
    "phone": "+1 203-527-7646",
    "website": "https://www.dglickcpa.com/",
    "address": "199 Park Rd Ext Suite 100, Middlebury, CT 06762",
    "city": "Middlebury",
    "state": "Connecticut",
    "state_code": "CT",
    "postal_code": "06762",
    "latitude": 41.5531335,
    "longitude": -73.0992481,
    "rating": 4.0,
    "reviews": 4,
    "place_id": "ChIJ2xKXpP3B54kRLtyLtZCdo5g"
  },
  {
    "name": "Kalita Joseph S",
    "category": "Tax preparation service",
    "phone": "+1 860-274-6623",
    "website": "",
    "address": "8 Depot St, Watertown, CT 06795",
    "city": "Watertown",
    "state": "Connecticut",
    "state_code": "CT",
    "postal_code": "06795",
    "latitude": 41.60181,
    "longitude": -73.1156651,
    "rating": 5.0,
    "reviews": 1,
    "place_id": "ChIJJ6iRQsnq54kRi8OUwH1uFQs"
  },
  {
    "name": "Bonaldi & Company LLC: Lori A Bonaldi",
    "category": "Tax preparation service",
    "phone": "+1 860-274-0656",
    "website": "",
    "address": "1044 Main St, Watertown, CT 06795",
    "city": "Watertown",
    "state": "Connecticut",
    "state_code": "CT",
    "postal_code": "06795",
    "latitude": 41.5955395,
    "longitude": -73.1124184,
    "rating": 3.3,
    "reviews": 7,
    "place_id": "ChIJXVz9kcfq54kR11qMpraif4g"
  },
  {
    "name": "James Coffey Tax Accountant",
    "category": "Tax preparation service",
    "phone": "+1 203-758-1706",
    "website": "",
    "address": "1486 Straits Turnpike, Middlebury, CT 06762",
    "city": "Middlebury",
    "state": "Connecticut",
    "state_code": "CT",
    "postal_code": "06762",
    "latitude": 41.5496195,
    "longitude": -73.0909855,
    "rating": 3.7,
    "reviews": 3,
    "place_id": "ChIJBYJZJXTq54kRya65m6S3A00"
  },
  {
    "name": "AD Tax Prep",
    "category": "Tax preparation service",
    "phone": "+1 203-264-4108",
    "website": "http://adtaxprep.com/",
    "address": "325 Main St S, Southbury, CT 06488",
    "city": "Southbury",
    "state": "Connecticut",
    "state_code": "CT",
    "postal_code": "06488",
    "latitude": 41.4726648,
    "longitude": -73.2213258,
    "rating": 5.0,
    "reviews": 8,
    "place_id": "ChIJ6_fHjnvv54kRUupD54-ZUMQ"
  },
  {
    "name": "Jackson Hewitt Tax Service",
    "category": "Tax preparation",
    "phone": "+1 203-778-4829",
    "website": "https://office.jacksonhewitt.com/tax-preparation-services-locations/en/ct/danbury/34-mill-plain-rd/11261%3Futm_source%3Dgoogle%26utm_medium%3Dlocal%26utm_campaign%3Dlocal%26utm_content%3D11261",
    "address": "34 Mill Plain Rd Suite 1 B, Danbury, CT 06811",
    "city": "Danbury",
    "state": "Connecticut",
    "state_code": "CT",
    "postal_code": "06811",
    "latitude": 41.388087,
    "longitude": -73.49761699999999,
    "rating": 4.6,
    "reviews": 49,
    "place_id": "ChIJgaRgiwhV3YkR5vnIi6Eug88"
  },
  {
    "name": "Avance Professional Services",
    "category": "Tax preparation service",
    "phone": "+1 203-625-1599",
    "website": "http://www.avancetax.com/",
    "address": "1 Marshall St # 201, Norwalk, CT 06854",
    "city": "Norwalk",
    "state": "Connecticut",
    "state_code": "CT",
    "postal_code": "06854",
    "latitude": 41.1003775,
    "longitude": -73.41889019999999,
    "rating": 4.9,
    "reviews": 84,
    "place_id": "ChIJn8t6hAof6IkRbVTK_-ZLzxU"
  },
  {
    "name": "J R BLESSING MULTI SERVICES LLC",
    "category": "Income tax help association",
    "phone": "+1 203-919-0152",
    "website": "",
    "address": "16 Richelieu St, Norwalk, CT 06850",
    "city": "Norwalk",
    "state": "Connecticut",
    "state_code": "CT",
    "postal_code": "06850",
    "latitude": 41.1190648,
    "longitude": -73.4301534,
    "rating": 5.0,
    "reviews": 59,
    "place_id": "ChIJjbUMXsUd6IkRIujPEVg0ot0"
  },
  {
    "name": "H&R Block",
    "category": "Tax preparation service",
    "phone": "+1 203-866-1040",
    "website": "https://www.hrblock.com/tax-office-near-me/connecticut/norwalk/7684/%3Fotppartnerid%3D9308%26campaignid%3Dpw_mcm_9308_9762%26utm_medium%3Dlocal",
    "address": "650 West Ave Ste 4 and 5, Norwalk, CT 06850",
    "city": "Norwalk",
    "state": "Connecticut",
    "state_code": "CT",
    "postal_code": "06850",
    "latitude": 41.1142921,
    "longitude": -73.41601059999999,
    "rating": 4.6,
    "reviews": 136,
    "place_id": "ChIJWdaZDC0c6IkRUUoNckCsNLc"
  },
  {
    "name": "Jackson Hewitt Tax Service",
    "category": "Tax preparation",
    "phone": "+1 877-580-1040",
    "website": "https://office.jacksonhewitt.com/tax-preparation-services-locations/en/ct/norwalk/110-wall-street/11094%3Futm_source%3Dgoogle%26utm_medium%3Dlocal%26utm_campaign%3Dlocal%26utm_content%3D11094",
    "address": "110 Wall Street, Norwalk, CT 06850",
    "city": "Norwalk",
    "state": "Connecticut",
    "state_code": "CT",
    "postal_code": "06850",
    "latitude": 41.1171133,
    "longitude": -73.4146739,
    "rating": 4.0,
    "reviews": 33,
    "place_id": "ChIJmfJS9zIc6IkRvcsJ0em-sOI"
  },
  {
    "name": "Multi-Services Preparation LLC",
    "category": "Tax preparation",
    "phone": "+1 203-820-2040",
    "website": "http://www.msprep.net/",
    "address": "45 Lakeview Dr, Norwalk, CT 06850",
    "city": "Norwalk",
    "state": "Connecticut",
    "state_code": "CT",
    "postal_code": "06850",
    "latitude": 41.1313977,
    "longitude": -73.4329265,
    "rating": 5.0,
    "reviews": 7,
    "place_id": "ChIJMYA2oLkd6IkR_Vqrkd3jVAI"
  },
  {
    "name": "Liberty Tax",
    "category": "Tax preparation",
    "phone": "+1 475-250-1332",
    "website": "https://www.libertytax.com/21895",
    "address": "17 High St, Norwalk, CT 06851",
    "city": "Norwalk",
    "state": "Connecticut",
    "state_code": "CT",
    "postal_code": "06851",
    "latitude": 41.1196381,
    "longitude": -73.4119891,
    "rating": 5.0,
    "reviews": 3,
    "place_id": "ChIJWfK8NK8d6IkRUuWson4OqGk"
  },
  {
    "name": "La Oficina Latina Smart Tax Services",
    "category": "Tax preparation service",
    "phone": "+1 203-939-2666",
    "website": "",
    "address": "Norwalk, CT 06851",
    "city": "Norwalk",
    "state": "Connecticut",
    "state_code": "CT",
    "postal_code": "06851",
    "latitude": 41.126487,
    "longitude": -73.4206701,
    "rating": 5.0,
    "reviews": 1,
    "place_id": "ChIJ3UqLfrUd6IkR_lYho_89pAs"
  },
  {
    "name": "EBX Tax Services",
    "category": "Tax preparation",
    "phone": "+1 203-515-7662",
    "website": "https://www.facebook.com/EBXTAXSERVICES/",
    "address": "26 Fillow St, Norwalk, CT 06850",
    "city": "Norwalk",
    "state": "Connecticut",
    "state_code": "CT",
    "postal_code": "06850",
    "latitude": 41.1178789,
    "longitude": -73.430567,
    "rating": 4.8,
    "reviews": 6,
    "place_id": "ChIJDyPcom8d6IkRbUXj-WFIBM0"
  },
  {
    "name": "Balance Business Services LLC",
    "category": "Tax preparation service",
    "phone": "+1 203-939-7818",
    "website": "https://gpbalancebusiness.com/",
    "address": "26 Pearl St, Norwalk, CT 06850",
    "city": "Norwalk",
    "state": "Connecticut",
    "state_code": "CT",
    "postal_code": "06850",
    "latitude": 41.1390327,
    "longitude": -73.42752229999999,
    "rating": 5.0,
    "reviews": 3,
    "place_id": null
  },
  {
    "name": "H&R Block",
    "category": "Tax preparation service",
    "phone": "+1 475-977-1116",
    "website": "https://www.hrblock.com/tax-office-near-me/connecticut/norwalk/7995/%3Fotppartnerid%3D9308%26campaignid%3Dpw_mcm_9308_9762%26utm_medium%3Dlocal",
    "address": "56 S Main St, Norwalk, CT 06854",
    "city": "Norwalk",
    "state": "Connecticut",
    "state_code": "CT",
    "postal_code": "06854",
    "latitude": 41.0975584,
    "longitude": -73.4187717,
    "rating": 3.5,
    "reviews": 16,
    "place_id": "ChIJffwdddUf6IkR5AfcvdMvQ5A"
  },
  {
    "name": "Avance Professional Services",
    "category": "Tax preparation service",
    "phone": "+1 203-625-1599",
    "website": "http://www.avancetax.com/",
    "address": "934 E Main St, Stamford, CT 06902",
    "city": "Stamford",
    "state": "Connecticut",
    "state_code": "CT",
    "postal_code": "06902",
    "latitude": 41.0562833,
    "longitude": -73.52218409999999,
    "rating": 4.9,
    "reviews": 93,
    "place_id": "ChIJ0SRBEc-hwokRams4KNSZMFg"
  },
  {
    "name": "RMJR Tax and Accounting",
    "category": "Tax preparation service",
    "phone": "+1 203-571-4401",
    "website": "https://www.rmjr-tax-accounting.com/westport-ct",
    "address": "181 Post Rd W, Westport, CT 06880",
    "city": "Westport",
    "state": "Connecticut",
    "state_code": "CT",
    "postal_code": "06880",
    "latitude": 41.13615679999999,
    "longitude": -73.37005529999999,
    "rating": 5.0,
    "reviews": 1,
    "place_id": "ChIJ3yuuA2Qb6IkROQ7fPeV4wMk"
  },
  {
    "name": "Jay B. Chadwick, CPA",
    "category": "Tax preparation service",
    "phone": "+1 203-454-3600",
    "website": "",
    "address": "90 Post Rd W 2nd floor, Westport, CT 06880",
    "city": "Westport",
    "state": "Connecticut",
    "state_code": "CT",
    "postal_code": "06880",
    "latitude": 41.1386386,
    "longitude": -73.3664256,
    "rating": 5.0,
    "reviews": 1,
    "place_id": "ChIJcydvenQb6IkRUMMJCxZa4-g"
  },
  {
    "name": "Meriden Tax Services",
    "category": "Tax preparation service",
    "phone": "+1 203-204-1112",
    "website": "http://www.meridentaxservices.com/",
    "address": "440 W Main St, Meriden, CT 06451",
    "city": "Meriden",
    "state": "Connecticut",
    "state_code": "CT",
    "postal_code": "06451",
    "latitude": 41.5400072,
    "longitude": -72.8182351,
    "rating": 4.6,
    "reviews": 13,
    "place_id": "ChIJyUkRWpLJ54kRnwjF5j6_k1w"
  },
  {
    "name": "Paramount Tax & Accounting Meriden",
    "category": "Tax preparation",
    "phone": "+1 475-206-0155",
    "website": "https://paramount.tax/wallingford",
    "address": "240 Pomeroy Ave Suite 101 G, Meriden, CT 06450",
    "city": "Meriden",
    "state": "Connecticut",
    "state_code": "CT",
    "postal_code": "06450",
    "latitude": 41.5204222,
    "longitude": -72.76299519999999,
    "rating": 4.9,
    "reviews": 70,
    "place_id": "ChIJgcDuHP_L54kRZOBijZBtFjY"
  },
  {
    "name": "Jackson Hewitt Tax Service",
    "category": "Tax preparation",
    "phone": "+1 203-630-2628",
    "website": "https://office.jacksonhewitt.com/tax-preparation-services-locations/en/ct/meriden/525-broad-st/15411%3Futm_source%3Dgoogle%26utm_medium%3Dlocal%26utm_campaign%3Dlocal%26utm_content%3D15411",
    "address": "525 Broad St Unit A, Meriden, CT 06450",
    "city": "Meriden",
    "state": "Connecticut",
    "state_code": "CT",
    "postal_code": "06450",
    "latitude": 41.5340146,
    "longitude": -72.7915117,
    "rating": 4.9,
    "reviews": 98,
    "place_id": "ChIJfelppjzK54kRjzSMmYSje2c"
  },
  {
    "name": "H&R Block",
    "category": "Tax preparation service",
    "phone": "+1 203-235-7977",
    "website": "https://www.hrblock.com/tax-office-near-me/connecticut/meriden/7647/%3Fotppartnerid%3D9308%26campaignid%3Dpw_mcm_9308_9762%26utm_medium%3Dlocal",
    "address": "626 E Main St Ste 3, Meriden, CT 06450",
    "city": "Meriden",
    "state": "Connecticut",
    "state_code": "CT",
    "postal_code": "06450",
    "latitude": 41.530977,
    "longitude": -72.7819767,
    "rating": 4.6,
    "reviews": 94,
    "place_id": "ChIJZVXJ7jjK54kRi6MGBkpJBVk"
  },
  {
    "name": "H&R Block",
    "category": "Tax preparation service",
    "phone": "+1 203-235-3335",
    "website": "https://www.hrblock.com/tax-office-near-me/connecticut/meriden/7641/%3Fotppartnerid%3D9308%26campaignid%3Dpw_mcm_9308_9762%26utm_medium%3Dlocal",
    "address": "533 S Broad St Space 20, Meriden, CT 06450",
    "city": "Meriden",
    "state": "Connecticut",
    "state_code": "CT",
    "postal_code": "06450",
    "latitude": 41.5085468,
    "longitude": -72.8079267,
    "rating": 4.6,
    "reviews": 60,
    "place_id": "ChIJQUVF1GPJ54kRVzrO8q6vRI0"
  },
  {
    "name": "Liberty Tax",
    "category": "Tax preparation",
    "phone": "+1 203-608-4671",
    "website": "https://www.libertytax.com/12506",
    "address": "89 W Main St, Meriden, CT 06451",
    "city": "Meriden",
    "state": "Connecticut",
    "state_code": "CT",
    "postal_code": "06451",
    "latitude": 41.5383093,
    "longitude": -72.8058341,
    "rating": 4.3,
    "reviews": 21,
    "place_id": "ChIJt1hqXorJ54kRrGJO-Rsv2c0"
  },
  {
    "name": "Workers Tax Services",
    "category": "Tax preparation service",
    "phone": "+1 203-634-6774",
    "website": "",
    "address": "776 E Main St, Meriden, CT 06450",
    "city": "Meriden",
    "state": "Connecticut",
    "state_code": "CT",
    "postal_code": "06450",
    "latitude": 41.5293054,
    "longitude": -72.77724189999999,
    "rating": 5.0,
    "reviews": 4,
    "place_id": "ChIJsUg1VUbK54kRMfw67-84Lsc"
  },
  {
    "name": "H&R Block",
    "category": "Tax preparation service",
    "phone": "+1 203-639-0378",
    "website": "https://www.hrblock.com/tax-office-near-me/connecticut/meriden/7938/%3Fotppartnerid%3D9308%26campaignid%3Dpw_mcm_9308_9762%26utm_medium%3Dlocal",
    "address": "470 Lewis Ave, Meriden, CT 06451",
    "city": "Meriden",
    "state": "Connecticut",
    "state_code": "CT",
    "postal_code": "06451",
    "latitude": 41.551019,
    "longitude": -72.807946,
    "rating": 4.9,
    "reviews": 87,
    "place_id": "ChIJ7dHN1_nJ54kR-YUXPCOGhVs"
  },
  {
    "name": "E&M United Financial LLC",
    "category": "Tax preparation",
    "phone": "+1 203-747-6522",
    "website": "https://marketingpro.sbtpg.com/site/qztpersqrij8gewk/activity/dashboard",
    "address": "5 Colony St 3rd Fl Office, Meriden, CT 06451",
    "city": "Meriden",
    "state": "Connecticut",
    "state_code": "CT",
    "postal_code": "06451",
    "latitude": 41.53833179999999,
    "longitude": -72.8022496,
    "rating": 3.0,
    "reviews": 3,
    "place_id": "ChIJFcMJh4rJ54kREAB8zmib8k0"
  },
  {
    "name": "Liberty Tax",
    "category": "Tax preparation",
    "phone": "+1 860-288-5924",
    "website": "https://www.libertytax.com/13070",
    "address": "294 Main St, Manchester, CT 06042",
    "city": "Manchester",
    "state": "Connecticut",
    "state_code": "CT",
    "postal_code": "06042",
    "latitude": 41.7836295,
    "longitude": -72.5236425,
    "rating": 4.5,
    "reviews": 130,
    "place_id": "ChIJKz2SiX5X5okRjEdJRBxjHEI"
  },
  {
    "name": "Tedford Tax Services",
    "category": "Tax preparation service",
    "phone": "+1 860-266-3383",
    "website": "https://www.tedford.tax/",
    "address": "74 E Center St, Manchester, CT 06040",
    "city": "Manchester",
    "state": "Connecticut",
    "state_code": "CT",
    "postal_code": "06040",
    "latitude": 41.7760797,
    "longitude": -72.52020879999999,
    "rating": 5.0,
    "reviews": 1,
    "place_id": "ChIJ_c6um29Z5okRYHcfEmZ40l0"
  },
  {
    "name": "Jackson Hewitt Tax Service",
    "category": "Tax preparation",
    "phone": "+1 860-356-4497",
    "website": "https://office.jacksonhewitt.com/tax-preparation-services-locations/en/ct/manchester/1040-tolland-turnpike/14181%3Futm_source%3Dgoogle%26utm_medium%3Dlocal%26utm_campaign%3Dlocal%26utm_content%3D14181",
    "address": "1040 Tolland Turnpike, Manchester, CT 06042",
    "city": "Manchester",
    "state": "Connecticut",
    "state_code": "CT",
    "postal_code": "06042",
    "latitude": 41.7952097,
    "longitude": -72.5468364,
    "rating": 4.8,
    "reviews": 101,
    "place_id": "ChIJyaksf15X5okRWWN8mAWG6W0"
  },
  {
    "name": "H&R Block",
    "category": "Tax preparation service",
    "phone": "+1 860-646-5440",
    "website": "https://www.hrblock.com/tax-office-near-me/connecticut/manchester/7674/%3Fotppartnerid%3D9308%26campaignid%3Dpw_mcm_9308_9762%26utm_medium%3Dlocal",
    "address": "374a Middle Tpke E, Manchester, CT 06040",
    "city": "Manchester",
    "state": "Connecticut",
    "state_code": "CT",
    "postal_code": "06040",
    "latitude": 41.77903999999999,
    "longitude": -72.5399588,
    "rating": 4.7,
    "reviews": 131,
    "place_id": "ChIJA5_CeHJX5okRz9dkai8z_X0"
  },
  {
    "name": "Jackson Hewitt Tax Service",
    "category": "Tax preparation",
    "phone": "+1 860-288-5004",
    "website": "https://office.jacksonhewitt.com/tax-preparation-services-locations/en/ct/manchester/420-buckland-hills-dr/51891%3Futm_source%3Dgoogle%26utm_medium%3Dlocal%26utm_campaign%3Dlocal%26utm_content%3D51891",
    "address": "420 Buckland Hills Dr, Manchester, CT 06042",
    "city": "Manchester",
    "state": "Connecticut",
    "state_code": "CT",
    "postal_code": "06042",
    "latitude": 41.806627,
    "longitude": -72.53774299999999,
    "rating": 4.8,
    "reviews": 34,
    "place_id": "ChIJp_YJgJNX5okRCG_Cn23enu0"
  },
  {
    "name": "Muniz Tax Services",
    "category": "Tax preparation",
    "phone": "+1 860-993-1040",
    "website": "https://muniztax.com/",
    "address": "61 Tolland Turnpike, Manchester, CT 06042",
    "city": "Manchester",
    "state": "Connecticut",
    "state_code": "CT",
    "postal_code": "06042",
    "latitude": 41.8147486,
    "longitude": -72.508826,
    "rating": 5.0,
    "reviews": 1,
    "place_id": "ChIJq2WPkV5Z5okRBjjmZPT2hEk"
  },
  {
    "name": "H&R Block",
    "category": "Tax preparation service",
    "phone": "+1 860-647-1661",
    "website": "https://www.hrblock.com/tax-office-near-me/connecticut/manchester/7760/%3Fotppartnerid%3D9308%26campaignid%3Dpw_mcm_9308_9762%26utm_medium%3Dlocal",
    "address": "1131 Tolland Turnpike, Manchester, CT 06040",
    "city": "Manchester",
    "state": "Connecticut",
    "state_code": "CT",
    "postal_code": "06040",
    "latitude": 41.7969641,
    "longitude": -72.5537669,
    "rating": 4.6,
    "reviews": 88,
    "place_id": "ChIJtcAgeKZX5okRMcqOPUZJj6Y"
  },
  {
    "name": "Whitehead Tax & Advisory Services, LLC",
    "category": "Tax preparation service",
    "phone": "+1 860-474-3700",
    "website": "http://www.whiteheadtax.com/",
    "address": "225 Oakland Rd Suite 304, South Windsor, CT 06074",
    "city": "South Windsor",
    "state": "Connecticut",
    "state_code": "CT",
    "postal_code": "06074",
    "latitude": 41.8220256,
    "longitude": -72.5446221,
    "rating": 5.0,
    "reviews": 79,
    "place_id": "ChIJoxSqAIX25okRd7m1uv3Z8GM"
  },
  {
    "name": "Jag Tax Services",
    "category": "Tax preparation service",
    "phone": "+1 860-645-9108",
    "website": "",
    "address": "12 Diane Dr, Manchester, CT 06040",
    "city": "Manchester",
    "state": "Connecticut",
    "state_code": "CT",
    "postal_code": "06040",
    "latitude": 41.7595731,
    "longitude": -72.5395162,
    "rating": 5.0,
    "reviews": 1,
    "place_id": "ChIJRfcwwkhX5okRxy8ZhLU7lQI"
  },
  {
    "name": "Task Income Tax",
    "category": "Tax preparation",
    "phone": "+1 401-642-6100",
    "website": "https://taskincometax.com/providence-tax-filing-services/",
    "address": "654 Center St, Manchester, CT 06040",
    "city": "Manchester",
    "state": "Connecticut",
    "state_code": "CT",
    "postal_code": "06040",
    "latitude": 41.7746217,
    "longitude": -72.5485121,
    "rating": 5.0,
    "reviews": 1,
    "place_id": "ChIJXetMpxZX5okRIrJe5OPSW0M"
  },
  {
    "name": "Nothing But Numb3rs, Inc.",
    "category": "Tax preparation",
    "phone": "+1 860-869-5667",
    "website": "http://www.nothinbutnumbers.com/",
    "address": "642 Hilliard St Unit 2121, Manchester, CT 06042",
    "city": "Manchester",
    "state": "Connecticut",
    "state_code": "CT",
    "postal_code": "06042",
    "latitude": 41.7844165,
    "longitude": -72.5516737,
    "rating": 5.0,
    "reviews": 25,
    "place_id": "ChIJuVlaW0ZX5okRZwU_jgHz_Z0"
  },
  {
    "name": "Bridge Tax Advisors, LLC",
    "category": "Tax preparation service",
    "phone": "+1 860-648-9870",
    "website": "https://www.bridgetaxadvisors.com/",
    "address": "7 Hillside Dr Suite 7, South Windsor, CT 06074",
    "city": "South Windsor",
    "state": "Connecticut",
    "state_code": "CT",
    "postal_code": "06074",
    "latitude": 41.8472418,
    "longitude": -72.565028,
    "rating": 5.0,
    "reviews": 204,
    "place_id": "ChIJ5TQ5kKT55okRCLRoH6hU7VU"
  },
  {
    "name": "TAX PREPARATION SERVICES INC",
    "category": "Tax preparation service",
    "phone": "+1 860-218-6398",
    "website": "http://www.taxprepsolution.com/",
    "address": "1137 Main St Suite 204, East Hartford, CT 06108",
    "city": "East Hartford",
    "state": "Connecticut",
    "state_code": "CT",
    "postal_code": "06108",
    "latitude": 41.7735006,
    "longitude": -72.6415517,
    "rating": 5.0,
    "reviews": 202,
    "place_id": "ChIJwxoqJKJW5okRRCbwSLkykaE"
  },
  {
    "name": "Steven E Hintz CPA",
    "category": "Tax preparation service",
    "phone": "+1 860-644-9453",
    "website": "http://stevenhintzcpa.com/",
    "address": "152 Deming St, South Windsor, CT 06074",
    "city": "South Windsor",
    "state": "Connecticut",
    "state_code": "CT",
    "postal_code": "06074",
    "latitude": 41.8217264,
    "longitude": -72.55398749999999,
    "rating": 5.0,
    "reviews": 13,
    "place_id": "ChIJVw-N-Xn45okRheTzm7llk2Y"
  },
  {
    "name": "Hillcourt Financial",
    "category": "Tax preparation service",
    "phone": "+1 860-281-1742",
    "website": "",
    "address": "222 McKee St, Manchester, CT 06040",
    "city": "Manchester",
    "state": "Connecticut",
    "state_code": "CT",
    "postal_code": "06040",
    "latitude": 41.7661924,
    "longitude": -72.5427119,
    "rating": 5.0,
    "reviews": 2,
    "place_id": "ChIJbQzHS0dX5okR9A0KtLdRfFg"
  },
  {
    "name": "Block Advisors",
    "category": "Tax preparation service",
    "phone": "+1 860-644-4230",
    "website": "https://www.blockadvisors.com/tax-office-near-me/connecticut/south-windsor/7679/%3Fotppartnerid%3D9308%26campaignid%3Dpw_mcm_9308_9762%26utm_medium%3Dlocal",
    "address": "287 Oakland Rd, South Windsor, CT 06074",
    "city": "South Windsor",
    "state": "Connecticut",
    "state_code": "CT",
    "postal_code": "06074",
    "latitude": 41.8206449,
    "longitude": -72.5432757,
    "rating": 4.6,
    "reviews": 49,
    "place_id": "ChIJJ3F-f-dX5okRohdoo6MfcZk"
  },
  {
    "name": "Don Brooks & Associates Inc",
    "category": "Tax preparation service",
    "phone": "+1 860-648-4002",
    "website": "https://www.donbrooksassoc.com/",
    "address": "152 Deming St, South Windsor, CT 06074",
    "city": "South Windsor",
    "state": "Connecticut",
    "state_code": "CT",
    "postal_code": "06074",
    "latitude": 41.8218262,
    "longitude": -72.5539664,
    "rating": 5.0,
    "reviews": 10,
    "place_id": "ChIJ4WRbrdtX5okRqFWu_Y1Q8jk"
  },
  {
    "name": "Gemme & Co",
    "category": "Tax preparation service",
    "phone": "+1 860-646-3113",
    "website": "",
    "address": "70 Middle Tpke E STE 1, Manchester, CT 06040",
    "city": "Manchester",
    "state": "Connecticut",
    "state_code": "CT",
    "postal_code": "06040",
    "latitude": 41.7834865,
    "longitude": -72.51988419999999,
    "rating": 4.0,
    "reviews": 2,
    "place_id": "ChIJ5yYMjdVZ5okRGcatmUtb0c0"
  },
  {
    "name": "Bacon & Gendreau Tax Preparation",
    "category": "Tax preparation service",
    "phone": "+1 860-216-2195",
    "website": "http://bgtaxct.com/",
    "address": "62 LaSalle Rd #305, West Hartford, CT 06107",
    "city": "West Hartford",
    "state": "Connecticut",
    "state_code": "CT",
    "postal_code": "06107",
    "latitude": 41.7598855,
    "longitude": -72.7441949,
    "rating": 5.0,
    "reviews": 94,
    "place_id": "ChIJv1_h6-2s54kRHfIXgeWBng0"
  },
  {
    "name": "Liberty Tax",
    "category": "Tax preparation",
    "phone": "+1 860-512-7148",
    "website": "https://www.libertytax.com/12664",
    "address": "243 Hartford Turnpike, Vernon, CT 06066",
    "city": "Vernon",
    "state": "Connecticut",
    "state_code": "CT",
    "postal_code": "06066",
    "latitude": 41.8262493,
    "longitude": -72.49620209999999,
    "rating": 4.5,
    "reviews": 49,
    "place_id": "ChIJL7e3Dd735okRcBXzyKGGDQA"
  },
  {
    "name": "H&R Block",
    "category": "Tax preparation service",
    "phone": "+1 860-871-8803",
    "website": "https://www.hrblock.com/tax-office-near-me/connecticut/vernon/7676/%3Fotppartnerid%3D9308%26campaignid%3Dpw_mcm_9308_9762%26utm_medium%3Dlocal",
    "address": "35 Talcottville Rd, Vernon, CT 06066",
    "city": "Vernon",
    "state": "Connecticut",
    "state_code": "CT",
    "postal_code": "06066",
    "latitude": 41.8272223,
    "longitude": -72.4972823,
    "rating": 4.6,
    "reviews": 155,
    "place_id": "ChIJbbofqeD35okRuOR2LhlF9wU"
  },
  {
    "name": "Rob Matfess & Co",
    "category": "Tax preparation service",
    "phone": "+1 860-648-9870",
    "website": "http://www.robmatfess.com/",
    "address": "7 Hillside Dr # 6, South Windsor, CT 06074",
    "city": "South Windsor",
    "state": "Connecticut",
    "state_code": "CT",
    "postal_code": "06074",
    "latitude": 41.8472418,
    "longitude": -72.56502789999999,
    "rating": 5.0,
    "reviews": 2,
    "place_id": "ChIJTfP4fWH45okRZxljWGIes-E"
  },
  {
    "name": "ATAX Barnum Ave",
    "category": "Tax preparation service",
    "phone": "+1 475-295-2829",
    "website": "https://atax.com/stratford-ct/",
    "address": "1345 Barnum Ave Unit 3, Stratford, CT 06614",
    "city": "Stratford",
    "state": "Connecticut",
    "state_code": "CT",
    "postal_code": "06614",
    "latitude": 41.1967186,
    "longitude": -73.1371432,
    "rating": 4.9,
    "reviews": 96,
    "place_id": "ChIJEdhE6kQN6IkRTup1i8dt8q8"
  },
  {
    "name": "Barnum Tax",
    "category": "Tax preparation service",
    "phone": "+1 203-900-4413",
    "website": "https://www.barnumtax.com/",
    "address": "1166 Barnum Ave, Stratford, CT 06614",
    "city": "Stratford",
    "state": "Connecticut",
    "state_code": "CT",
    "postal_code": "06614",
    "latitude": 41.1985845,
    "longitude": -73.1345996,
    "rating": 4.9,
    "reviews": 31,
    "place_id": "ChIJlyGqPWgM6IkRDzwI3YTZMUM"
  },
  {
    "name": "H&R Block",
    "category": "Tax preparation service",
    "phone": "+1 203-377-1431",
    "website": "https://www.hrblock.com/tax-office-near-me/connecticut/stratford/7866/%3Fotppartnerid%3D9308%26campaignid%3Dpw_mcm_9308_9762%26utm_medium%3Dlocal",
    "address": "1420 Barnum Ave, Stratford, CT 06614",
    "city": "Stratford",
    "state": "Connecticut",
    "state_code": "CT",
    "postal_code": "06614",
    "latitude": 41.1965909,
    "longitude": -73.138789,
    "rating": 4.5,
    "reviews": 72,
    "place_id": "ChIJZ4POMVkM6IkRMHHHHq5WjsQ"
  },
  {
    "name": "MDM TAX BUSINESS",
    "category": "Tax preparation service",
    "phone": "+1 781-558-6733",
    "website": "http://www.mdmtaxbusiness.com/",
    "address": "1340 Barnum Ave, Stratford, CT 06614",
    "city": "Stratford",
    "state": "Connecticut",
    "state_code": "CT",
    "postal_code": "06614",
    "latitude": 41.1971437,
    "longitude": -73.1374934,
    "rating": 5.0,
    "reviews": 9,
    "place_id": "ChIJXdAefXcN6IkRavrcCyktZsw"
  },
  {
    "name": "MDM Tax Business",
    "category": "Tax preparation service",
    "phone": "+1 781-558-6733",
    "website": "https://www.mdmtaxbusiness.com/",
    "address": "1345 Barnum Ave, Stratford, CT 06614",
    "city": "Stratford",
    "state": "Connecticut",
    "state_code": "CT",
    "postal_code": "06614",
    "latitude": 41.1967186,
    "longitude": -73.1371432,
    "rating": 5.0,
    "reviews": 7,
    "place_id": "ChIJP9d0ieUN6IkRreEGJg8sd9w"
  },
  {
    "name": "Jackson Hewitt Tax Service",
    "category": "Tax preparation",
    "phone": "+1 203-386-0558",
    "website": "https://office.jacksonhewitt.com/tax-preparation-services-locations/en/ct/stratford/2345-barnum-avenue/17541%3Futm_source%3Dgoogle%26utm_medium%3Dlocal%26utm_campaign%3Dlocal%26utm_content%3D17541",
    "address": "2345 Barnum Ave, Stratford, CT 06615",
    "city": "Stratford",
    "state": "Connecticut",
    "state_code": "CT",
    "postal_code": "06615",
    "latitude": 41.1904097,
    "longitude": -73.1535021,
    "rating": 4.9,
    "reviews": 167,
    "place_id": "ChIJR8fPaEkM6IkRhHHpvXXLask"
  },
  {
    "name": "Lenny Haynes income-tax",
    "category": "Tax preparation service",
    "phone": "+1 203-212-4147",
    "website": "",
    "address": "15 Tavern Rock Rd, Stratford, CT 06614",
    "city": "Stratford",
    "state": "Connecticut",
    "state_code": "CT",
    "postal_code": "06614",
    "latitude": 41.2370871,
    "longitude": -73.130365,
    "rating": 5.0,
    "reviews": 1,
    "place_id": "ChIJCX8rYHQL6IkRg1mzjwuSnGA"
  },
  {
    "name": "Atlantis Tax Services LLC",
    "category": "Tax preparation service",
    "phone": "+1 203-331-0045",
    "website": "http://atlantistaxllc.com/",
    "address": "1116 Madison Ave, Bridgeport, CT 06606",
    "city": "Bridgeport",
    "state": "Connecticut",
    "state_code": "CT",
    "postal_code": "06606",
    "latitude": 41.1961066,
    "longitude": -73.2070679,
    "rating": 4.8,
    "reviews": 104,
    "place_id": "ChIJ0WFmwPQO6IkROvGB53FyLFI"
  },
  {
    "name": "Jackson Hewitt Tax Service",
    "category": "Tax preparation",
    "phone": "+1 203-533-4057",
    "website": "https://office.jacksonhewitt.com/tax-preparation-services-locations/en/ct/stratford/150-barnum-avenue-cutoff/52585%3Futm_source%3Dgoogle%26utm_medium%3Dlocal%26utm_campaign%3Dlocal%26utm_content%3D52585",
    "address": "150 Barnum Avenue Cutoff, Stratford, CT 06614",
    "city": "Stratford",
    "state": "Connecticut",
    "state_code": "CT",
    "postal_code": "06614",
    "latitude": 41.20129499999999,
    "longitude": -73.118753,
    "rating": 4.7,
    "reviews": 40,
    "place_id": "ChIJIfAPDpMM6IkRHmvex4vouhg"
  },
  {
    "name": "Tax Worx",
    "category": "Tax preparation",
    "phone": "+1 203-429-4584",
    "website": "https://tax-worx.com/",
    "address": "125 Rockland Ave, Stratford, CT 06614",
    "city": "Stratford",
    "state": "Connecticut",
    "state_code": "CT",
    "postal_code": "06614",
    "latitude": 41.216755,
    "longitude": -73.1364997,
    "rating": 5.0,
    "reviews": 10,
    "place_id": "ChIJiyGUrhkN6IkRf9AruhekwOE"
  },
  {
    "name": "ASAP Taxes",
    "category": "Tax preparation service",
    "phone": "+1 860-290-1781",
    "website": "",
    "address": "425 Park Ave, East Hartford, CT 06108",
    "city": "East Hartford",
    "state": "Connecticut",
    "state_code": "CT",
    "postal_code": "06108",
    "latitude": 41.7820793,
    "longitude": -72.6165386,
    "rating": 4.1,
    "reviews": 10,
    "place_id": "ChIJfeqF7A1U5okRbVBqgJH1_F8"
  },
  {
    "name": "MZ Tax Services",
    "category": "Tax preparation service",
    "phone": "+1 860-656-6750",
    "website": "",
    "address": "45 Connecticut Blvd, East Hartford, CT 06108",
    "city": "East Hartford",
    "state": "Connecticut",
    "state_code": "CT",
    "postal_code": "06108",
    "latitude": 41.76928179999999,
    "longitude": -72.64619139999999,
    "rating": 4.0,
    "reviews": 4,
    "place_id": "ChIJzXB2bnZU5okRiELLxlRfZCY"
  },
  {
    "name": "Jackson Hewitt Tax Service",
    "category": "Tax preparation",
    "phone": "+1 860-291-8750",
    "website": "https://office.jacksonhewitt.com/tax-preparation-services-locations/en/ct/east-hartford/922-main-street/17294%3Futm_source%3Dgoogle%26utm_medium%3Dlocal%26utm_campaign%3Dlocal%26utm_content%3D17294",
    "address": "922 Main St, East Hartford, CT 06108",
    "city": "East Hartford",
    "state": "Connecticut",
    "state_code": "CT",
    "postal_code": "06108",
    "latitude": 41.769907,
    "longitude": -72.64307409999999,
    "rating": 4.4,
    "reviews": 48,
    "place_id": "ChIJUTpZtXVU5okRIcY_Nf_npnI"
  },
  {
    "name": "H&R Block",
    "category": "Tax preparation service",
    "phone": "+1 860-568-4137",
    "website": "https://www.hrblock.com/tax-office-near-me/connecticut/east-hartford/7749/%3Fotppartnerid%3D9308%26campaignid%3Dpw_mcm_9308_9762%26utm_medium%3Dlocal",
    "address": "9 Main St, East Hartford, CT 06118",
    "city": "East Hartford",
    "state": "Connecticut",
    "state_code": "CT",
    "postal_code": "06118",
    "latitude": 41.7284341,
    "longitude": -72.61975989999999,
    "rating": 4.6,
    "reviews": 82,
    "place_id": "ChIJWRljvNVT5okR1zZ4WN-tx6c"
  },
  {
    "name": "Global Tax Services LLC",
    "category": "Tax preparation service",
    "phone": "+1 860-899-1490",
    "website": "",
    "address": "135 Burnside Ave, East Hartford, CT 06108",
    "city": "East Hartford",
    "state": "Connecticut",
    "state_code": "CT",
    "postal_code": "06108",
    "latitude": 41.7747259,
    "longitude": -72.6336182,
    "rating": 3.3,
    "reviews": 3,
    "place_id": "ChIJ-xeU7g1U5okRqRbm5jta328"
  },
  {
    "name": "Accu-Rite Tax Service, LLC",
    "category": "Tax preparation service",
    "phone": "+1 860-709-3512",
    "website": "http://www.accuritetax.com/",
    "address": "45 Cheney Ln, East Hartford, CT 06118",
    "city": "East Hartford",
    "state": "Connecticut",
    "state_code": "CT",
    "postal_code": "06118",
    "latitude": 41.7454265,
    "longitude": -72.5770659,
    "rating": 5.0,
    "reviews": 6,
    "place_id": "ChIJ658dgxNU5okRfVEsJM1MI2M"
  },
  {
    "name": "Liberal Tax",
    "category": "Income tax help association",
    "phone": "+1 860-560-1040",
    "website": "http://www.liberaltax.com/",
    "address": "241 Main St, Hartford, CT 06106",
    "city": "Hartford",
    "state": "Connecticut",
    "state_code": "CT",
    "postal_code": "06106",
    "latitude": 41.7586636,
    "longitude": -72.6756937,
    "rating": 4.2,
    "reviews": 96,
    "place_id": "ChIJX3QfMm5T5okR0p5uDaAs85g"
  },
  {
    "name": "Tax Plus LLC",
    "category": "Tax preparation service",
    "phone": "+1 860-296-1040",
    "website": "http://www.tp1040.com/",
    "address": "662 Wethersfield Ave, Hartford, CT 06114",
    "city": "Hartford",
    "state": "Connecticut",
    "state_code": "CT",
    "postal_code": "06114",
    "latitude": 41.7379357,
    "longitude": -72.6708829,
    "rating": 4.3,
    "reviews": 86,
    "place_id": "ChIJ_RbwgQNT5okRRVkh3UWhECU"
  },
  {
    "name": "Max Tax Services",
    "category": "Tax preparation",
    "phone": "+1 959-255-6221",
    "website": "https://maxtaxct.com/",
    "address": "551 Albany Ave, Hartford, CT 06112",
    "city": "Hartford",
    "state": "Connecticut",
    "state_code": "CT",
    "postal_code": "06112",
    "latitude": 41.7776934,
    "longitude": -72.6860806,
    "rating": 5.0,
    "reviews": 149,
    "place_id": "ChIJZbSss8hV5okRftXA5_7Hv-s"
  },
  {
    "name": "ATAX Hartford, CT",
    "category": "Tax preparation service",
    "phone": "+1 860-308-2663",
    "website": "https://atax.com/hartford-ct/",
    "address": "250 Main St Ste E, Hartford, CT 06106",
    "city": "Hartford",
    "state": "Connecticut",
    "state_code": "CT",
    "postal_code": "06106",
    "latitude": 41.7587965,
    "longitude": -72.6748922,
    "rating": 3.7,
    "reviews": 6,
    "place_id": "ChIJGziqU4pT5okRjA9xpQhj4EY"
  },
  {
    "name": "Hartford Liberal Tax Service",
    "category": "Tax preparation service",
    "phone": "+1 860-969-6625",
    "website": "",
    "address": "2739 Main St, Hartford, CT 06120",
    "city": "Hartford",
    "state": "Connecticut",
    "state_code": "CT",
    "postal_code": "06120",
    "latitude": 41.791261,
    "longitude": -72.6700908,
    "rating": 5.0,
    "reviews": 1,
    "place_id": "ChIJuSyIo0NV5okRAnoOijwb8fo"
  },
  {
    "name": "Peerless Tax Service Connecticut",
    "category": "Tax preparation service",
    "phone": "+1 860-251-6890",
    "website": "",
    "address": "16 Sisson Ave Suite #3, Hartford, CT 06106",
    "city": "Hartford",
    "state": "Connecticut",
    "state_code": "CT",
    "postal_code": "06106",
    "latitude": 41.7579546,
    "longitude": -72.7060071,
    "rating": 5.0,
    "reviews": 14,
    "place_id": "ChIJTyCIrkFT5okR2NAqPt6gHoI"
  },
  {
    "name": "Connecticut Accounting & Tax Services",
    "category": "Tax preparation service",
    "phone": "+1 860-259-7733",
    "website": "http://www.cttaxservices.com/",
    "address": "1978 Park St, Hartford, CT 06106",
    "city": "Hartford",
    "state": "Connecticut",
    "state_code": "CT",
    "postal_code": "06106",
    "latitude": 41.7564859,
    "longitude": -72.7117324,
    "rating": 5.0,
    "reviews": 140,
    "place_id": "ChIJGztF11Gt54kR8bYervB5jSg"
  },
  {
    "name": "H&R Block",
    "category": "Tax preparation service",
    "phone": "+1 860-528-7783",
    "website": "https://www.hrblock.com/tax-office-near-me/connecticut/east-hartford/7675/%3Fotppartnerid%3D9308%26campaignid%3Dpw_mcm_9308_9762%26utm_medium%3Dlocal",
    "address": "265 Ellington Rd, East Hartford, CT 06108",
    "city": "East Hartford",
    "state": "Connecticut",
    "state_code": "CT",
    "postal_code": "06108",
    "latitude": 41.7944723,
    "longitude": -72.62238889999999,
    "rating": 4.7,
    "reviews": 62,
    "place_id": "ChIJ5eeGPy9U5okRPUXgjwP1il8"
  },
  {
    "name": "H&R Block",
    "category": "Tax preparation service",
    "phone": "+1 860-289-3419",
    "website": "https://www.hrblock.com/tax-office-near-me/connecticut/east-hartford/7857/%3Fotppartnerid%3D9308%26campaignid%3Dpw_mcm_9308_9762%26utm_medium%3Dlocal",
    "address": "988 Main St, East Hartford, CT 06108",
    "city": "East Hartford",
    "state": "Connecticut",
    "state_code": "CT",
    "postal_code": "06108",
    "latitude": 41.7709455,
    "longitude": -72.642449,
    "rating": 4.9,
    "reviews": 124,
    "place_id": "ChIJATsJkAMo6IkRga7lgwW2II0"
  },
  {
    "name": "D & D Enterprises",
    "category": "Tax preparation service",
    "phone": "+1 860-231-8023",
    "website": "http://www.ddtaxprep.com/",
    "address": "25 S Whitney St, Hartford, CT 06106",
    "city": "Hartford",
    "state": "Connecticut",
    "state_code": "CT",
    "postal_code": "06106",
    "latitude": 41.7576157,
    "longitude": -72.70934679999999,
    "rating": 4.5,
    "reviews": 21,
    "place_id": "ChIJhVbMVjVT5okRmGcCS9M7Z_s"
  },
  {
    "name": "Angely Taxes",
    "category": "Tax preparation service",
    "phone": "",
    "website": "",
    "address": "83 Meadow St, Hartford, CT 06114",
    "city": "Hartford",
    "state": "Connecticut",
    "state_code": "CT",
    "postal_code": "06114",
    "latitude": 41.743943,
    "longitude": -72.66896899999999,
    "rating": 5.0,
    "reviews": 1,
    "place_id": "ChIJ5-N9MQ9T5okR3uNoipNsaUo"
  },
  {
    "name": "MaxTax Services",
    "category": "Tax preparation service",
    "phone": "+1 860-357-8064",
    "website": "",
    "address": "2389 Main St, Hartford, CT 06120",
    "city": "Hartford",
    "state": "Connecticut",
    "state_code": "CT",
    "postal_code": "06120",
    "latitude": 41.7871465,
    "longitude": -72.67392219999999,
    "rating": 5.0,
    "reviews": 7,
    "place_id": "ChIJ_dAI0zpV5okRyYpA3syQeaY"
  },
  {
    "name": "National Tax Services",
    "category": "Tax preparation",
    "phone": "+1 860-524-8495",
    "website": "",
    "address": "72 Main St #2, Hartford, CT 06106",
    "city": "Hartford",
    "state": "Connecticut",
    "state_code": "CT",
    "postal_code": "06106",
    "latitude": 41.7562347,
    "longitude": -72.6750096,
    "rating": 3.5,
    "reviews": 15,
    "place_id": "ChIJT3KFHdRT5okRC4uPHtJSK8I"
  },
  {
    "name": "Liberty Tax",
    "category": "Tax preparation",
    "phone": "+1 860-768-9333",
    "website": "https://www.libertytax.com/21928",
    "address": "97 Main St, Hartford, CT 06106",
    "city": "Hartford",
    "state": "Connecticut",
    "state_code": "CT",
    "postal_code": "06106",
    "latitude": 41.7568615,
    "longitude": -72.676048,
    "rating": 5.0,
    "reviews": 214,
    "place_id": "ChIJf_Sy2JVT5okRF_M-DNmpy8g"
  },
  {
    "name": "The Loyal Tax Man LLC",
    "category": "Tax preparation service",
    "phone": "+1 959-929-5599",
    "website": "",
    "address": "87 Church St, East Hartford, CT 06108",
    "city": "East Hartford",
    "state": "Connecticut",
    "state_code": "CT",
    "postal_code": "06108",
    "latitude": 41.7758919,
    "longitude": -72.60895599999999,
    "rating": 5.0,
    "reviews": 1,
    "place_id": "ChIJoeqI8FRX5okRqffG6lhTP3o"
  },
  {
    "name": "Liberty Tax",
    "category": "Tax preparation",
    "phone": "+1 860-706-8912",
    "website": "https://www.libertytax.com/14281",
    "address": "332 Franklin Ave, Hartford, CT 06114",
    "city": "Hartford",
    "state": "Connecticut",
    "state_code": "CT",
    "postal_code": "06114",
    "latitude": 41.7412154,
    "longitude": -72.67567509999999,
    "rating": 4.8,
    "reviews": 182,
    "place_id": "ChIJtXn1HhtT5okRO8NeW6JaP18"
  },
  {
    "name": "H&R Block",
    "category": "Tax preparation service",
    "phone": "+1 860-548-0523",
    "website": "https://www.hrblock.com/tax-office-near-me/connecticut/hartford/7668/%3Fotppartnerid%3D9308%26campaignid%3Dpw_mcm_9308_9762%26utm_medium%3Dlocal",
    "address": "651 Maple Ave, Hartford, CT 06114",
    "city": "Hartford",
    "state": "Connecticut",
    "state_code": "CT",
    "postal_code": "06114",
    "latitude": 41.7427897,
    "longitude": -72.6832136,
    "rating": 4.8,
    "reviews": 98,
    "place_id": "ChIJLT-2UhhT5okRZ9bCAl7M4JI"
  },
  {
    "name": "Scott Lewis Tax Preparation LLC",
    "category": "Tax preparation",
    "phone": "+1 860-233-0539",
    "website": "http://scottlewistax.com/",
    "address": "151 New Park Ave, Hartford, CT 06106",
    "city": "Hartford",
    "state": "Connecticut",
    "state_code": "CT",
    "postal_code": "06106",
    "latitude": 41.7523438,
    "longitude": -72.7098062,
    "rating": 4.3,
    "reviews": 6,
    "place_id": "ChIJw6V5y8ys54kRkvGc56Ix3JE"
  },
  {
    "name": "Bottaro Morrill & Co LLC",
    "category": "Tax preparation service",
    "phone": "+1 860-289-2766",
    "website": "",
    "address": "207 Pitkin St, East Hartford, CT 06108",
    "city": "East Hartford",
    "state": "Connecticut",
    "state_code": "CT",
    "postal_code": "06108",
    "latitude": 41.763457,
    "longitude": -72.6563158,
    "rating": 5.0,
    "reviews": 3,
    "place_id": "ChIJjQj8DIRT5okRvYqUe1uEmSs"
  },
  {
    "name": "Moorewillis Tax, LLC",
    "category": "Tax preparation service",
    "phone": "+1 860-656-4086",
    "website": "http://moorewillistax.com/",
    "address": "477 Connecticut Blvd Suite #303, East Hartford, CT 06108",
    "city": "East Hartford",
    "state": "Connecticut",
    "state_code": "CT",
    "postal_code": "06108",
    "latitude": 41.7690292,
    "longitude": -72.6542003,
    "rating": 5.0,
    "reviews": 2,
    "place_id": "ChIJXTGU7g1U5okRVLfnI7ePYJM"
  },
  {
    "name": "It's Tax Time",
    "category": "Tax preparation service",
    "phone": "+1 860-296-8141",
    "website": "",
    "address": "1010 Wethersfield Ave Suite 301, Hartford, CT 06114",
    "city": "Hartford",
    "state": "Connecticut",
    "state_code": "CT",
    "postal_code": "06114",
    "latitude": 41.7286189,
    "longitude": -72.6678134,
    "rating": 3.5,
    "reviews": 15,
    "place_id": "ChIJaSoBQxtT5okRac5o1B8dYeQ"
  },
  {
    "name": "Richardson Enterprises",
    "category": "Tax preparation service",
    "phone": "+1 860-278-2332",
    "website": "",
    "address": "918 Wethersfield Ave, Hartford, CT 06114",
    "city": "Hartford",
    "state": "Connecticut",
    "state_code": "CT",
    "postal_code": "06114",
    "latitude": 41.7310141,
    "longitude": -72.6693106,
    "rating": 5.0,
    "reviews": 7,
    "place_id": "ChIJh4nF_BhT5okR5t3MShFcW2Q"
  },
  {
    "name": "Foothills Income Tax Service",
    "category": "Tax preparation service",
    "phone": "+1 860-738-1040",
    "website": "http://www.foothillstax.com/",
    "address": "170 Main St Unit A, New Hartford, CT 06057",
    "city": "New Hartford",
    "state": "Connecticut",
    "state_code": "CT",
    "postal_code": "06057",
    "latitude": 41.86251619999999,
    "longitude": -72.9582458,
    "rating": 4.3,
    "reviews": 11,
    "place_id": "ChIJswnlRUCn54kRJxszvNbiXrQ"
  },
  {
    "name": "Task Income Tax",
    "category": "Tax preparation",
    "phone": "+1 860-969-6928",
    "website": "https://taskincometax.com/hartford-tax-filing-help/",
    "address": "360 Franklin Ave, Hartford, CT 06114",
    "city": "Hartford",
    "state": "Connecticut",
    "state_code": "CT",
    "postal_code": "06114",
    "latitude": 41.7402004,
    "longitude": -72.6754926,
    "rating": 5.0,
    "reviews": 3,
    "place_id": "ChIJi24PbjJT5okRHFgryRFPoAw"
  },
  {
    "name": "Sanchez Services",
    "category": "Tax preparation service",
    "phone": "+1 860-995-7915",
    "website": "",
    "address": "44 Harris St, Glastonbury, CT 06033",
    "city": "Glastonbury",
    "state": "Connecticut",
    "state_code": "CT",
    "postal_code": "06033",
    "latitude": 41.7244715,
    "longitude": -72.6057098,
    "rating": 5.0,
    "reviews": 5,
    "place_id": "ChIJQdSrmDtR5okR_5uRMirWQPs"
  },
  {
    "name": "Jackson Hewitt Tax Service",
    "category": "Tax preparation",
    "phone": "+1 860-453-2011",
    "website": "https://office.jacksonhewitt.com/tax-preparation-services-locations/en/ct/west-hartford/1142a-new-britain-ave/19389%3Futm_source%3Dgoogle%26utm_medium%3Dlocal%26utm_campaign%3Dlocal%26utm_content%3D19389",
    "address": "1142A New Britain Ave, West Hartford, CT 06110",
    "city": "West Hartford",
    "state": "Connecticut",
    "state_code": "CT",
    "postal_code": "06110",
    "latitude": 41.7331509,
    "longitude": -72.7334316,
    "rating": 4.6,
    "reviews": 130,
    "place_id": "ChIJq6qqqiat54kRN69tti-e880"
  },
  {
    "name": "G Watkis Financial, LLC",
    "category": "Tax preparation service",
    "phone": "+1 877-492-8547",
    "website": "http://www.watkisfinancial.com/",
    "address": "2389 Main St, Glastonbury, CT 06033",
    "city": "Glastonbury",
    "state": "Connecticut",
    "state_code": "CT",
    "postal_code": "06033",
    "latitude": 41.7125503,
    "longitude": -72.6092276,
    "rating": 5.0,
    "reviews": 3,
    "place_id": "ChIJrRTQ7Y9R5okRrsqZNVDX8lg"
  },
  {
    "name": "Consult Vera",
    "category": "Tax preparation service",
    "phone": "+1 860-994-2791",
    "website": "http://www.consultvera.com/",
    "address": "703 Hebron Ave Ste 2A, Glastonbury, CT 06033",
    "city": "Glastonbury",
    "state": "Connecticut",
    "state_code": "CT",
    "postal_code": "06033",
    "latitude": 41.7155824,
    "longitude": -72.5875342,
    "rating": 5.0,
    "reviews": 6,
    "place_id": "ChIJ6cdij6X35okRhKnhcPmaM1o"
  },
  {
    "name": "Jackson Hewitt Tax Service",
    "category": "Tax preparation",
    "phone": "+1 860-453-2035",
    "website": "https://office.jacksonhewitt.com/tax-preparation-services-locations/en/ct/hartford/495-flatbush-avenue/55095%3Futm_source%3Dgoogle%26utm_medium%3Dlocal%26utm_campaign%3Dlocal%26utm_content%3D55095",
    "address": "495 Flatbush Ave, Hartford, CT 06106",
    "city": "Hartford",
    "state": "Connecticut",
    "state_code": "CT",
    "postal_code": "06106",
    "latitude": 41.7406965,
    "longitude": -72.7123948,
    "rating": 4.7,
    "reviews": 100,
    "place_id": "ChIJY6JW-NSs54kR8jwPFgRVBXU"
  },
  {
    "name": "Nicola Yester & Co PC",
    "category": "Tax preparation service",
    "phone": "+1 860-633-1194",
    "website": "https://nicola-yester.com/",
    "address": "223 Eastern Blvd, Glastonbury, CT 06033",
    "city": "Glastonbury",
    "state": "Connecticut",
    "state_code": "CT",
    "postal_code": "06033",
    "latitude": 41.7231377,
    "longitude": -72.5840394,
    "rating": 5.0,
    "reviews": 5,
    "place_id": "ChIJv3G7gQlR5okR6C9V8nZ9oto"
  },
  {
    "name": "Taxes~Taxes~Taxes",
    "category": "Tax preparation service",
    "phone": "+1 860-358-9124",
    "website": "http://www.in-zerotaxservice.com/",
    "address": "769 Newfield St #1, Middletown, CT 06457",
    "city": "Middletown",
    "state": "Connecticut",
    "state_code": "CT",
    "postal_code": "06457",
    "latitude": 41.5799752,
    "longitude": -72.67289699999999,
    "rating": 4.2,
    "reviews": 5,
    "place_id": "ChIJX9TdDG1L5okR9iMcv1dQsHA"
  },
  {
    "name": "Jackson Hewitt Tax Service",
    "category": "Tax preparation",
    "phone": "+1 860-471-8551",
    "website": "https://office.jacksonhewitt.com/tax-preparation-services-locations/en/ct/middletown/551-washington-street/14419%3Futm_source%3Dgoogle%26utm_medium%3Dlocal%26utm_campaign%3Dlocal%26utm_content%3D14419",
    "address": "551 Washington St Suite 3, Middletown, CT 06457",
    "city": "Middletown",
    "state": "Connecticut",
    "state_code": "CT",
    "postal_code": "06457",
    "latitude": 41.5557362,
    "longitude": -72.66966,
    "rating": 4.5,
    "reviews": 43,
    "place_id": "ChIJNXqHUUFL5okRYvcR19cDybM"
  },
  {
    "name": "TurboTax - Highland, Middletown",
    "category": "Tax preparation",
    "phone": "+1 386-313-0820",
    "website": "https://turbotax.intuit.com/local-tax-offices/ct/middletown/274ab71de5e3431881f10b62101bc7e4/",
    "address": "515 Centerpoint Drive Office 117, Middletown, CT 06457",
    "city": "Middletown",
    "state": "Connecticut",
    "state_code": "CT",
    "postal_code": "06457",
    "latitude": 41.5915942,
    "longitude": -72.71175769999999,
    "rating": 4.7,
    "reviews": 13,
    "place_id": "ChIJ_xsxp7C154kRO9JKc2iGd-s"
  },
  {
    "name": "Ron's Tax Service",
    "category": "Tax preparation service",
    "phone": "+1 860-347-5127",
    "website": "",
    "address": "27 Frisbie St, Middletown, CT 06457",
    "city": "Middletown",
    "state": "Connecticut",
    "state_code": "CT",
    "postal_code": "06457",
    "latitude": 41.5491154,
    "longitude": -72.6320056,
    "rating": 5.0,
    "reviews": 4,
    "place_id": "ChIJJZl4lxZK5okRoKBJ6QpmX5I"
  },
  {
    "name": "H&R Block",
    "category": "Tax preparation service",
    "phone": "+1 860-638-3993",
    "website": "https://www.hrblock.com/tax-office-near-me/connecticut/middletown/7833/%3Fotppartnerid%3D9308%26campaignid%3Dpw_mcm_9308_9762%26utm_medium%3Dlocal",
    "address": "200 Main St, Middletown, CT 06457",
    "city": "Middletown",
    "state": "Connecticut",
    "state_code": "CT",
    "postal_code": "06457",
    "latitude": 41.55947099999999,
    "longitude": -72.6481321,
    "rating": 4.7,
    "reviews": 88,
    "place_id": "ChIJQWDKmkNK5okR4zq5ir1Lql0"
  },
  {
    "name": "Block Advisors",
    "category": "Tax preparation service",
    "phone": "+1 860-635-7447",
    "website": "https://www.blockadvisors.com/tax-office-near-me/connecticut/cromwell/7643/%3Fotppartnerid%3D9308%26campaignid%3Dpw_mcm_9308_9762%26utm_medium%3Dlocal",
    "address": "51 Shunpike Rd, Cromwell, CT 06416",
    "city": "Cromwell",
    "state": "Connecticut",
    "state_code": "CT",
    "postal_code": "06416",
    "latitude": 41.6061613,
    "longitude": -72.6785463,
    "rating": 4.7,
    "reviews": 52,
    "place_id": "ChIJ9wPiRG5L5okR8Tk7uyf1yfc"
  },
  {
    "name": "H&R Block",
    "category": "Tax preparation service",
    "phone": "+1 860-346-2350",
    "website": "https://www.hrblock.com/tax-office-near-me/connecticut/middletown/7747/%3Fotppartnerid%3D9308%26campaignid%3Dpw_mcm_9308_9762%26utm_medium%3Dlocal",
    "address": "955 Washington St, Middletown, CT 06457",
    "city": "Middletown",
    "state": "Connecticut",
    "state_code": "CT",
    "postal_code": "06457",
    "latitude": 41.5533453,
    "longitude": -72.68442569999999,
    "rating": 4.8,
    "reviews": 119,
    "place_id": "ChIJcWheTpZK5okRYnVrS23CAEY"
  },
  {
    "name": "Liberty Tax",
    "category": "Tax preparation",
    "phone": "+1 860-698-4267",
    "website": "https://www.libertytax.com/10985",
    "address": "73 Hazard Ave, Enfield, CT 06082",
    "city": "Enfield",
    "state": "Connecticut",
    "state_code": "CT",
    "postal_code": "06082",
    "latitude": 41.9898883,
    "longitude": -72.5719888,
    "rating": 5.0,
    "reviews": 462,
    "place_id": "ChIJl57Oq8_k5okR5bv9aDgqTqo"
  },
  {
    "name": "Karlene M Casarella Tax Services",
    "category": "Tax preparation service",
    "phone": "+1 860-745-0700",
    "website": "",
    "address": "734 Enfield St, Enfield, CT 06082",
    "city": "Enfield",
    "state": "Connecticut",
    "state_code": "CT",
    "postal_code": "06082",
    "latitude": 42.0031312,
    "longitude": -72.5932223,
    "rating": 5.0,
    "reviews": 1,
    "place_id": "ChIJ5yfCX7jk5okRy0usMmFiKog"
  },
  {
    "name": "H&R Block",
    "category": "Tax preparation service",
    "phone": "+1 860-745-8280",
    "website": "https://www.hrblock.com/tax-office-near-me/connecticut/enfield/7611/%3Fotppartnerid%3D9308%26campaignid%3Dpw_mcm_9308_9762%26utm_medium%3Dlocal",
    "address": "54 Hazard Ave, Enfield, CT 06082",
    "city": "Enfield",
    "state": "Connecticut",
    "state_code": "CT",
    "postal_code": "06082",
    "latitude": 41.9876659,
    "longitude": -72.5751736,
    "rating": 4.3,
    "reviews": 138,
    "place_id": "ChIJH7dt3NLk5okRGIy41H8tq0M"
  },
  {
    "name": "Pro Books Bookkeeping and Tax Service LLC",
    "category": "Tax preparation service",
    "phone": "+1 860-559-8843",
    "website": "http://www.probooks1.com/",
    "address": "133 Mountain Rd STE 6, Suffield, CT 06078",
    "city": "Suffield",
    "state": "Connecticut",
    "state_code": "CT",
    "postal_code": "06078",
    "latitude": 41.9829871,
    "longitude": -72.6559982,
    "rating": 4.9,
    "reviews": 38,
    "place_id": "ChIJY47fuGL85okRDPIy9ViL1fQ"
  },
  {
    "name": "Lisa Discepolo Foy, CPA LLC",
    "category": "Tax preparation service",
    "phone": "+1 860-272-4562",
    "website": "",
    "address": "174 S Rd Suite 121, Enfield, CT 06082",
    "city": "Enfield",
    "state": "Connecticut",
    "state_code": "CT",
    "postal_code": "06082",
    "latitude": 41.9764623,
    "longitude": -72.577693,
    "rating": 3.0,
    "reviews": 4,
    "place_id": "ChIJea-Q0y_75okRORzzQ5m_vE0"
  },