[
  {
    "name": "Gary B. Benson CPA",
    "category": "Tax preparation",
    "phone": "+1 702-298-3728",
    "website": "http://www.garybbensoncpa.com/",
    "address": "2377 Cottage Hill Ave, Laughlin, NV 89029",
    "city": "Laughlin",
    "state": "Nevada",
    "state_code": "NV",
    "postal_code": "89029",
    "latitude": 35.1325887,
    "longitude": -114.6333695,
    "rating": 5.0,
    "reviews": 35,
    "place_id": "ChIJFxD0U6hFzoARcW05y5lGJTk"
  },
  {
    "name": "H&R Block",
    "category": "Tax preparation service",
    "phone": "+1 702-298-3030",
    "website": "https://www.hrblock.com/tax-office-near-me/nevada/laughlin/17192/%3Fotppartnerid%3D9308%26campaignid%3Dpw_mcm_9308_9762%26utm_medium%3Dlocal",
    "address": "3030 Needles Hwy Ste 1000, Laughlin, NV 89029",
    "city": "Laughlin",
    "state": "Nevada",
    "state_code": "NV",
    "postal_code": "89029",
    "latitude": 35.1422629,
    "longitude": -114.6226099,
    "rating": 4.8,
    "reviews": 53,
    "place_id": "ChIJQxNEw5c4zoARa3-l4AcND6M"
  },
  {
    "name": "Carson Tahoe Tax Service",
    "category": "Tax preparation",
    "phone": "+1 775-882-4460",
    "website": "http://cttax.net/",
    "address": "901 E 2nd St, Carson City, NV 89701",
    "city": "Carson City",
    "state": "Nevada",
    "state_code": "NV",
    "postal_code": "89701",
    "latitude": 39.1629924,
    "longitude": -119.7597635,
    "rating": 4.8,
    "reviews": 50,
    "place_id": "ChIJty682xsLmYAR6Itd74qkvmc"
  },
  {
    "name": "Jaacovi Tax & Bookkeeping",
    "category": "Tax preparation service",
    "phone": "+1 775-400-4586",
    "website": "http://www.jaacovitax.com/",
    "address": "111 W Telegraph St Suite 104, Carson City, NV 89703",
    "city": "Carson City",
    "state": "Nevada",
    "state_code": "NV",
    "postal_code": "89703",
    "latitude": 39.165707,
    "longitude": -119.7675305,
    "rating": 5.0,
    "reviews": 86,
    "place_id": "ChIJwW87Pner60oRPA8Fcb7Thmg"
  },
  {
    "name": "Capital Tax Solutions LLC",
    "category": "Tax preparation service",
    "phone": "+1 775-882-7768",
    "website": "http://www.capitaltaxsolutions.net/",
    "address": "112 N Curry St, Carson City, NV 89703",
    "city": "Carson City",
    "state": "Nevada",
    "state_code": "NV",
    "postal_code": "89703",
    "latitude": 39.1644028,
    "longitude": -119.7680555,
    "rating": 4.7,
    "reviews": 31,
    "place_id": "ChIJe4LLmqEKmYARAxLXbhI2784"
  },
  {
    "name": "Advantage Tax Services",
    "category": "Tax preparation service",
    "phone": "+1 775-885-9955",
    "website": "",
    "address": "123 W Nye Ln, Carson City, NV 89706",
    "city": "Carson City",
    "state": "Nevada",
    "state_code": "NV",
    "postal_code": "89706",
    "latitude": 39.1859794,
    "longitude": -119.7668719,
    "rating": 5.0,
    "reviews": 1,
    "place_id": "ChIJiZxr5aMKmYARQm6oQDQdfxw"
  },
  {
    "name": "Green Valley Tax Services",
    "category": "Tax preparation service",
    "phone": "+1 702-351-3034",
    "website": "https://greenvalleytaxservice.com/",
    "address": "1522 W Warm Springs Rd, Henderson, NV 89014",
    "city": "Henderson",
    "state": "Nevada",
    "state_code": "NV",
    "postal_code": "89014",
    "latitude": 36.0565368,
    "longitude": -115.0518225,
    "rating": 4.9,
    "reviews": 9,
    "place_id": "ChIJs9CIiyHOyIARLf5w68myJrY"
  },
  {
    "name": "Pratt Tax",
    "category": "Tax preparation service",
    "phone": "+1 702-410-9410",
    "website": "http://pratttax.com/",
    "address": "3310 S Nellis Blvd, Las Vegas, NV 89121",
    "city": "Las Vegas",
    "state": "Nevada",
    "state_code": "NV",
    "postal_code": "89121",
    "latitude": 36.1291807,
    "longitude": -115.0648329,
    "rating": 4.9,
    "reviews": 153,
    "place_id": "ChIJyQ4J5RPByIARRMdAhBhdvX4"
  },
  {
    "name": "Jackson Hewitt Tax Service",
    "category": "Tax preparation",
    "phone": "+1 702-829-3689",
    "website": "https://office.jacksonhewitt.com/tax-preparation-services-locations/en/nv/henderson/540-marks-st/52838%3Futm_source%3Dgoogle%26utm_medium%3Dlocal%26utm_campaign%3Dlocal%26utm_content%3D52838",
    "address": "540 Marks St, Henderson, NV 89014",
    "city": "Henderson",
    "state": "Nevada",
    "state_code": "NV",
    "postal_code": "89014",
    "latitude": 36.060492,
    "longitude": -115.033156,
    "rating": 4.7,
    "reviews": 70,
    "place_id": "ChIJT4ZyP-XQyIARHTtX2zq_aTY"
  },
  {
    "name": "myTaxCoach",
    "category": "Tax preparation service",
    "phone": "+1 702-518-5109",
    "website": "https://www.mytaxcoach.biz/",
    "address": "2501 N Green Valley Pkwy Ste 124, Henderson, NV 89014",
    "city": "Henderson",
    "state": "Nevada",
    "state_code": "NV",
    "postal_code": "89014",
    "latitude": 36.0678816,
    "longitude": -115.0832035,
    "rating": 4.7,
    "reviews": 19,
    "place_id": "ChIJGdQmIvnRyIARQTblyPJsJMA"
  },
  {
    "name": "Matt Robinson Tax LLC",
    "category": "Tax preparation",
    "phone": "+1 702-513-3881",
    "website": "https://www.mattrobinsontax.com/",
    "address": "375 N Stephanie St UNIT 1212, Henderson, NV 89014",
    "city": "Henderson",
    "state": "Nevada",
    "state_code": "NV",
    "postal_code": "89014",
    "latitude": 36.054521,
    "longitude": -115.0478502,
    "rating": 5.0,
    "reviews": 3,
    "place_id": "ChIJG_manvLRyIAR93ii1mVrwBA"
  },
  {
    "name": "H&R Block",
    "category": "Tax preparation service",
    "phone": "+1 702-898-1133",
    "website": "https://www.hrblock.com/tax-office-near-me/nevada/henderson/27839/%3Fotppartnerid%3D9308%26campaignid%3Dpw_mcm_9308_9762%26utm_medium%3Dlocal",
    "address": "2801 N Green Valley Pkwy, Henderson, NV 89014",
    "city": "Henderson",
    "state": "Nevada",
    "state_code": "NV",
    "postal_code": "89014",
    "latitude": 36.0716892,
    "longitude": -115.0839055,
    "rating": 4.7,
    "reviews": 431,
    "place_id": "ChIJpeg1yxrQyIARAQSXwETu_hE"
  },
  {
    "name": "Rossies Income Tax Services (Rossie Taxes)",
    "category": "Tax preparation service",
    "phone": "+1 702-531-1909",
    "website": "http://www.rossiestax.com/",
    "address": "4542 E Charleston Blvd, Las Vegas, NV 89104",
    "city": "Las Vegas",
    "state": "Nevada",
    "state_code": "NV",
    "postal_code": "89104",
    "latitude": 36.1600556,
    "longitude": -115.0757555,
    "rating": 4.9,
    "reviews": 178,
    "place_id": "ChIJe3qIAlzbyIARhCZy3uS0Sxg"
  },
  {
    "name": "BMS Financial, Insurance & Tax Services",
    "category": "Tax preparation",
    "phone": "+1 702-791-0581",
    "website": "https://www.planmember.com/bms",
    "address": "375 N Stephanie St #2212, Henderson, NV 89014",
    "city": "Henderson",
    "state": "Nevada",
    "state_code": "NV",
    "postal_code": "89014",
    "latitude": 36.055057,
    "longitude": -115.0479741,
    "rating": 4.7,
    "reviews": 145,
    "place_id": "ChIJM3iI41XQyIARIGDa_t914B8"
  },
  {
    "name": "Toro Taxes & Realty Tropicana",
    "category": "Tax preparation service",
    "phone": "+1 702-930-5926",
    "website": "http://torotaxestropicana.com/%3Futm_source%3Dgmb%26utm_medium%3Dreferral",
    "address": "4558 E Tropicana Ave, Las Vegas, NV 89121",
    "city": "Las Vegas",
    "state": "Nevada",
    "state_code": "NV",
    "postal_code": "89121",
    "latitude": 36.1010423,
    "longitude": -115.0743771,
    "rating": 4.8,
    "reviews": 16,
    "place_id": "ChIJFe7rRuPbyIAROJxXhIws3S4"
  },
  {
    "name": "Jackson Hewitt Tax Service",
    "category": "Tax preparation",
    "phone": "+1 702-723-9479",
    "website": "https://office.jacksonhewitt.com/tax-preparation-services-locations/en/nv/henderson/1540-w-sunset-road/14277%3Futm_source%3Dgoogle%26utm_medium%3Dlocal%26utm_campaign%3Dlocal%26utm_content%3D14277",
    "address": "1540 W Sunset Rd, Henderson, NV 89014",
    "city": "Henderson",
    "state": "Nevada",
    "state_code": "NV",
    "postal_code": "89014",
    "latitude": 36.0642145,
    "longitude": -115.0521709,
    "rating": 4.9,
    "reviews": 116,
    "place_id": "ChIJpWjsfojRyIARizMlJIeyFBc"
  },
  {
    "name": "Jackson Hewitt Tax Service",
    "category": "Tax preparation",
    "phone": "+1 702-444-3279",
    "website": "https://office.jacksonhewitt.com/tax-preparation-services-locations/en/nv/las-vegas/2232-s-nellis-blvd/19468%3Futm_source%3Dgoogle%26utm_medium%3Dlocal%26utm_campaign%3Dlocal%26utm_content%3D19468",
    "address": "2232 S Nellis Blvd Suite 4, Las Vegas, NV 89104",
    "city": "Las Vegas",
    "state": "Nevada",
    "state_code": "NV",
    "postal_code": "89104",
    "latitude": 36.1462938,
    "longitude": -115.0635581,
    "rating": 4.8,
    "reviews": 118,
    "place_id": "ChIJ-xBDuhTbyIARC_T2MNn9GCY"
  },
  {
    "name": "JODY\u2019S TAX SERVICES",
    "category": "Tax preparation service",
    "phone": "+1 775-315-8945",
    "website": "http://jodys-tax-services.b12sites.com/",
    "address": "Meadbury Dr, Henderson, NV 89014",
    "city": "Henderson",
    "state": "Nevada",
    "state_code": "NV",
    "postal_code": "89014",
    "latitude": 36.0625583,
    "longitude": -115.0604006,
    "rating": 5.0,
    "reviews": 3,
    "place_id": "ChIJzXbJSoPRyIAROucs4Q6ArNY"
  },
  {
    "name": "Davenport Tax Preparation",
    "category": "Tax preparation service",
    "phone": "+1 702-900-9523",
    "website": "https://www.davenporttaxprep.com/",
    "address": "6275 Boulder Hwy #1028, Las Vegas, NV 89122",
    "city": "Las Vegas",
    "state": "Nevada",
    "state_code": "NV",
    "postal_code": "89122",
    "latitude": 36.0880851,
    "longitude": -115.0333927,
    "rating": 5.0,
    "reviews": 1,
    "place_id": "ChIJ18IYg0rRyIARCJv9u0FS6co"
  },
  {
    "name": "Meridian Financial",
    "category": "Tax preparation",
    "phone": "+1 702-966-8204",
    "website": "https://meridianfinancialpro.com/",
    "address": "1489 W Warm Springs Rd # 110, Henderson, NV 89014",
    "city": "Henderson",
    "state": "Nevada",
    "state_code": "NV",
    "postal_code": "89014",
    "latitude": 36.0546431,
    "longitude": -115.0501671,
    "rating": 5.0,
    "reviews": 3,
    "place_id": "ChIJISyNDfrRyIARkEovkM7bn1I"
  },
  {
    "name": "Jackson Hewitt Tax Service",
    "category": "Tax preparation",
    "phone": "+1 702-444-3255",
    "website": "https://office.jacksonhewitt.com/tax-preparation-services-locations/en/nv/las-vegas/5060-boulder-highway/19028%3Futm_source%3Dgoogle%26utm_medium%3Dlocal%26utm_campaign%3Dlocal%26utm_content%3D19028",
    "address": "5060 Boulder Hwy Ste 110, Las Vegas, NV 89122",
    "city": "Las Vegas",
    "state": "Nevada",
    "state_code": "NV",
    "postal_code": "89122",
    "latitude": 36.1109352,
    "longitude": -115.0634071,
    "rating": 4.7,
    "reviews": 67,
    "place_id": "ChIJedhnEezayIARjgOTj3pr-xw"
  },
  {
    "name": "Cooper and Associates Inc.",
    "category": "Tax preparation service",
    "phone": "+1 702-719-1560",
    "website": "http://coopertaxservice.com/",
    "address": "321 W Lake Mead Pkwy, Henderson, NV 89015",
    "city": "Henderson",
    "state": "Nevada",
    "state_code": "NV",
    "postal_code": "89015",
    "latitude": 36.0357741,
    "longitude": -114.9935259,
    "rating": 4.6,
    "reviews": 51,
    "place_id": "ChIJTcorAbTWyIARd6CNjOSnhGA"
  },
  {
    "name": "Jackson Hewitt Tax Service",
    "category": "Tax preparation",
    "phone": "+1 702-444-3256",
    "website": "https://office.jacksonhewitt.com/tax-preparation-services-locations/en/nv/las-vegas/5198-boulder-highway/53350%3Futm_source%3Dgoogle%26utm_medium%3Dlocal%26utm_campaign%3Dlocal%26utm_content%3D53350",
    "address": "5198 Boulder Hwy, Las Vegas, NV 89122",
    "city": "Las Vegas",
    "state": "Nevada",
    "state_code": "NV",
    "postal_code": "89122",
    "latitude": 36.108576,
    "longitude": -115.063083,
    "rating": 4.4,
    "reviews": 78,
    "place_id": "ChIJJchmAezayIARuwUO3kWUn-Y"
  },
  {
    "name": "H&R Block",
    "category": "Tax preparation service",
    "phone": "+1 702-214-3867",
    "website": "https://www.hrblock.com/tax-office-near-me/nevada/las-vegas/27865/%3Fotppartnerid%3D9308%26campaignid%3Dpw_mcm_9308_9762%26utm_medium%3Dlocal",
    "address": "5466 Boulder Hwy Ste A-1, Las Vegas, NV 89122",
    "city": "Las Vegas",
    "state": "Nevada",
    "state_code": "NV",
    "postal_code": "89122",
    "latitude": 36.1023047,
    "longitude": -115.0544403,
    "rating": 4.7,
    "reviews": 193,
    "place_id": "ChIJ-xr7no7ayIARr5jYCfr4TS8"
  },
  {
    "name": "Alta Business & Tax Services",
    "category": "Tax preparation service",
    "phone": "+1 702-877-0870",
    "website": "",
    "address": "4525 S Sandhill Rd, Las Vegas, NV 89121",
    "city": "Las Vegas",
    "state": "Nevada",
    "state_code": "NV",
    "postal_code": "89121",
    "latitude": 36.1074435,
    "longitude": -115.0920269,
    "rating": 5.0,
    "reviews": 4,
    "place_id": "ChIJOUfGh3LByIARG-lFcyfADFU"
  },
  {
    "name": "H&R Block",
    "category": "Tax preparation service",
    "phone": "+1 702-458-4611",
    "website": "https://www.hrblock.com/tax-office-near-me/nevada/henderson/27879/%3Fotppartnerid%3D9308%26campaignid%3Dpw_mcm_9308_9762%26utm_medium%3Dlocal",
    "address": "633 N Stephanie St, Henderson, NV 89014",
    "city": "Henderson",
    "state": "Nevada",
    "state_code": "NV",
    "postal_code": "89014",
    "latitude": 36.066551,
    "longitude": -115.0479793,
    "rating": 4.6,
    "reviews": 288,
    "place_id": "ChIJM0uTnP7QyIARD0_qlal598I"
  },
  {
    "name": "Pacific Bookkeeping Service Inc.",
    "category": "Tax preparation service",
    "phone": "+1 702-451-1871",
    "website": "",
    "address": "3310 S Nellis Blvd #22, Las Vegas, NV 89121",
    "city": "Las Vegas",
    "state": "Nevada",
    "state_code": "NV",
    "postal_code": "89121",
    "latitude": 36.128765,
    "longitude": -115.0643545,
    "rating": 5.0,
    "reviews": 4,
    "place_id": "ChIJjS4jdB7byIARbLc4LjeQdhs"
  },
  {
    "name": "Nevada Tax Services",
    "category": "Tax preparation",
    "phone": "+1 833-585-1110",
    "website": "https://www.nvtaxservices.com/",
    "address": "410 S Rampart Blvd, Las Vegas, NV 89145",
    "city": "Las Vegas",
    "state": "Nevada",
    "state_code": "NV",
    "postal_code": "89145",
    "latitude": 36.1672755,
    "longitude": -115.2862345,
    "rating": 5.0,
    "reviews": 1,
    "place_id": null
  },
  {
    "name": "Get Em Done Income Tax Services",
    "category": "Tax preparation service",
    "phone": "+1 702-496-0552",
    "website": "https://getemdonetax.com/",
    "address": "112 S Water St Suite 111, Henderson, NV 89015",
    "city": "Henderson",
    "state": "Nevada",
    "state_code": "NV",
    "postal_code": "89015",
    "latitude": 36.0331876,
    "longitude": -114.9840497,
    "rating": 5.0,
    "reviews": 16,
    "place_id": "ChIJN3JfeOAy32cRCkhKlz_h_Ec"
  },
  {
    "name": "Kondler & Associates CPAs",
    "category": "Tax preparation service",
    "phone": "+1 702-433-7075",
    "website": "http://kondlercpa.com/",
    "address": "8475 W Sunset Rd UNIT 201, Las Vegas, NV 89113",
    "city": "Las Vegas",
    "state": "Nevada",
    "state_code": "NV",
    "postal_code": "89113",
    "latitude": 36.0701356,
    "longitude": -115.2760504,
    "rating": 4.9,
    "reviews": 123,
    "place_id": "ChIJM8c89nu4yIARTFb5OMyPn18"
  },
  {
    "name": "Liberty Tax",
    "category": "Tax preparation",
    "phone": "+1 702-359-4190",
    "website": "https://www.libertytax.com/10661",
    "address": "4650 E Sunset Rd C, Henderson, NV 89014",
    "city": "Henderson",
    "state": "Nevada",
    "state_code": "NV",
    "postal_code": "89014",
    "latitude": 36.0712577,
    "longitude": -115.0722458,
    "rating": 4.7,
    "reviews": 42,
    "place_id": "ChIJ69eLHWvQyIARfdp2D0Y5-4U"
  },
  {
    "name": "H&R Block",
    "category": "Tax preparation service",
    "phone": "+1 702-458-3939",
    "website": "https://www.hrblock.com/tax-office-near-me/nevada/las-vegas/64115/%3Fotppartnerid%3D9308%26campaignid%3Dpw_mcm_9308_9762%26utm_medium%3Dlocal",
    "address": "4693 E Flamingo Rd, Las Vegas, NV 89121",
    "city": "Las Vegas",
    "state": "Nevada",
    "state_code": "NV",
    "postal_code": "89121",
    "latitude": 36.1146659,
    "longitude": -115.0716909,
    "rating": 4.8,
    "reviews": 46,
    "place_id": "ChIJCTvgl77ayIAR9mBKIOfLaQ8"
  },
  {
    "name": "H&R Block",
    "category": "Tax preparation service",
    "phone": "+1 702-369-0117",
    "website": "https://www.hrblock.com/tax-office-near-me/nevada/las-vegas/27857/%3Fotppartnerid%3D9308%26campaignid%3Dpw_mcm_9308_9762%26utm_medium%3Dlocal",
    "address": "3870 E Flamingo Rd, Las Vegas, NV 89121",
    "city": "Las Vegas",
    "state": "Nevada",
    "state_code": "NV",
    "postal_code": "89121",
    "latitude": 36.11575819999999,
    "longitude": -115.0898752,
    "rating": 4.6,
    "reviews": 91,
    "place_id": "ChIJqfimYMTEyIARg9WFaysG_pI"
  },
  {
    "name": "Liberty Tax",
    "category": "Tax preparation",
    "phone": "+1 702-930-8135",
    "website": "https://www.libertytax.com/14424",
    "address": "4762 E Flamingo Rd, Las Vegas, NV 89121",
    "city": "Las Vegas",
    "state": "Nevada",
    "state_code": "NV",
    "postal_code": "89121",
    "latitude": 36.11584,
    "longitude": -115.069929,
    "rating": 4.7,
    "reviews": 63,
    "place_id": "ChIJy73ZD-jayIAR592_qzlQ7GI"
  },
  {
    "name": "Alliance Income Tax and Services",
    "category": "Tax preparation service",
    "phone": "+1 702-945-7672",
    "website": "",
    "address": "2300 E Desert Inn Rd UNIT 5, Las Vegas, NV 89169",
    "city": "Las Vegas",
    "state": "Nevada",
    "state_code": "NV",
    "postal_code": "89169",
    "latitude": 36.1302609,
    "longitude": -115.1195721,
    "rating": 4.8,
    "reviews": 41,
    "place_id": "ChIJQe5d9JbGyIARmX6PgPAcJiQ"
  },
  {
    "name": "Montti Income Tax Service, Las Vegas",
    "category": "Tax preparation service",
    "phone": "+1 702-606-5253",
    "website": "https://monttitaxes.com/",
    "address": "2290 E Flamingo Rd # G, Las Vegas, NV 89119",
    "city": "Las Vegas",
    "state": "Nevada",
    "state_code": "NV",
    "postal_code": "89119",
    "latitude": 36.1151657,
    "longitude": -115.1206436,
    "rating": 4.8,
    "reviews": 64,
    "place_id": "ChIJ17-HLeDEyIARbJsl67vBWsQ"
  },
  {
    "name": "VERONA TAX SERVICES",
    "category": "Tax preparation service",
    "phone": "+1 702-800-4333",
    "website": "https://www.veronatax.com/",
    "address": "1830 E Sahara Ave 2nd floor ste 208, Las Vegas, NV 89104",
    "city": "Las Vegas",
    "state": "Nevada",
    "state_code": "NV",
    "postal_code": "89104",
    "latitude": 36.1455397,
    "longitude": -115.1241448,
    "rating": 5.0,
    "reviews": 156,
    "place_id": "ChIJDU_tlD_byIAR9n-KBSVrAW8"
  },
  {
    "name": "Sonia's Tax Services",
    "category": "Tax preparation service",
    "phone": "+1 702-685-1111",
    "website": "https://soniastaxservices.vegas/",
    "address": "2801 S Valley View Blvd Suite 6, Las Vegas, NV 89102",
    "city": "Las Vegas",
    "state": "Nevada",
    "state_code": "NV",
    "postal_code": "89102",
    "latitude": 36.1406529,
    "longitude": -115.1911116,
    "rating": 5.0,
    "reviews": 144,
    "place_id": "ChIJQWXawKnGyIARaVEbh2d_czA"
  },
  {
    "name": "American Dream Tax Services",
    "category": "Tax preparation",
    "phone": "+1 702-758-2537",
    "website": "https://www.servicesbyamericandreamtax.com/",
    "address": "3430 E Flamingo Rd Ste 108, Las Vegas, NV 89121",
    "city": "Las Vegas",
    "state": "Nevada",
    "state_code": "NV",
    "postal_code": "89121",
    "latitude": 36.1156225,
    "longitude": -115.100522,
    "rating": 4.9,
    "reviews": 93,
    "place_id": "ChIJWfFK5b_FyIARzKfufCiAbPc"
  },
  {
    "name": "Amazon Tax Services",
    "category": "Tax preparation service",
    "phone": "+1 702-292-3529",
    "website": "",
    "address": "3620 E Flamingo Rd #2, Las Vegas, NV 89121",
    "city": "Las Vegas",
    "state": "Nevada",
    "state_code": "NV",
    "postal_code": "89121",
    "latitude": 36.115836,
    "longitude": -115.0961299,
    "rating": 5.0,
    "reviews": 20,
    "place_id": "ChIJlceJEdXFyIARK5MQUmmfMco"
  },
  {
    "name": "E File Tax Services of Nevada, Inc",
    "category": "Tax preparation service",
    "phone": "+1 702-696-9549",
    "website": "http://www.efilenevada.com/",
    "address": "3300 E Flamingo Rd # 11, Las Vegas, NV 89121",
    "city": "Las Vegas",
    "state": "Nevada",
    "state_code": "NV",
    "postal_code": "89121",
    "latitude": 36.1165627,
    "longitude": -115.1038923,
    "rating": 4.7,
    "reviews": 24,
    "place_id": "ChIJN9YNWNPayIAR578dMHTzuuE"
  },
  {
    "name": "The Professional Multiservices",
    "category": "Tax preparation service",
    "phone": "+1 702-366-9818",
    "website": "https://www.theprofessionalmultiservices.com/",
    "address": "2590 E Bonanza Rd, Las Vegas, NV 89101",
    "city": "Las Vegas",
    "state": "Nevada",
    "state_code": "NV",
    "postal_code": "89101",
    "latitude": 36.1741202,
    "longitude": -115.1133504,
    "rating": 5.0,
    "reviews": 1215,
    "place_id": "ChIJ49TJk0HDyIAR-2uijR7ViVg"
  },
  {
    "name": "SILVA TAXES & INSURANCE LLC",
    "category": "Tax preparation service",
    "phone": "+1 702-238-6971",
    "website": "",
    "address": "Charland Square, 1239 E Charleston Blvd, Las Vegas, NV 89104",
    "city": "Las Vegas",
    "state": "Nevada",
    "state_code": "NV",
    "postal_code": "89104",
    "latitude": 36.1594066,
    "longitude": -115.1356371,
    "rating": 4.9,
    "reviews": 363,
    "place_id": "ChIJ9_TSdnnDyIARguPsRSLAbAw"
  },
  {
    "name": "INCOME TAX PREPARATION",
    "category": "Tax preparation service",
    "phone": "+1 702-333-1273",
    "website": "https://business.google.com/site/l/02582412353902715513?hl=en_US",
    "address": "1500 S Maryland Pkwy, Las Vegas, NV 89104",
    "city": "Las Vegas",
    "state": "Nevada",
    "state_code": "NV",
    "postal_code": "89104",
    "latitude": 36.152894,
    "longitude": -115.137324,
    "rating": 4.9,
    "reviews": 181,
    "place_id": "ChIJJ1I-QX7DyIAR7ICVud8RAeY"
  },
  {
    "name": "TaxPlanners Inc",
    "category": "Tax preparation service",
    "phone": "+1 702-734-7134",
    "website": "http://www.taxplannersinc.com/",
    "address": "4314 W Cheyenne Ave, North Las Vegas, NV 89032",
    "city": "North Las Vegas",
    "state": "Nevada",
    "state_code": "NV",
    "postal_code": "89032",
    "latitude": 36.2183566,
    "longitude": -115.1979033,
    "rating": 4.8,
    "reviews": 20,
    "place_id": "ChIJiXqDm_7ByIARFHlHH0JyV1Q"
  },
  {
    "name": "M & B Professional Services LLC",
    "category": "Tax preparation service",
    "phone": "+1 702-445-6198",
    "website": "",
    "address": "1805 S Eastern Ave #120, Las Vegas, NV 89104",
    "city": "Las Vegas",
    "state": "Nevada",
    "state_code": "NV",
    "postal_code": "89104",
    "latitude": 36.149787,
    "longitude": -115.118514,
    "rating": 4.9,
    "reviews": 167,
    "place_id": "ChIJoyLgr5jEyIARoyDUKErWLoQ"
  },
  {
    "name": "National Income Tax Services",
    "category": "Tax preparation service",
    "phone": "+1 702-560-8832",
    "website": "https://nationalitaxes.square.site/",
    "address": "4420 E Charleston Blvd Ste. 3, Las Vegas, NV 89104",
    "city": "Las Vegas",
    "state": "Nevada",
    "state_code": "NV",
    "postal_code": "89104",
    "latitude": 36.1602637,
    "longitude": -115.0796757,
    "rating": 4.9,
    "reviews": 29,
    "place_id": "ChIJFTx2d1nbyIARDID1ecC0bW8"
  },
  {
    "name": "Fantaxtic Services LLC",
    "category": "Tax preparation service",
    "phone": "+1 702-463-3687",
    "website": "https://www.fantaxticservices.com/",
    "address": "1205 S Eastern Ave, Las Vegas, NV 89104",
    "city": "Las Vegas",
    "state": "Nevada",
    "state_code": "NV",
    "postal_code": "89104",
    "latitude": 36.1564697,
    "longitude": -115.1186365,
    "rating": 4.8,
    "reviews": 86,
    "place_id": "ChIJzX-dEWDDyIARtv90TYKX9Yo"
  },
  {
    "name": "Iris Taxes and More",
    "category": "Tax preparation service",
    "phone": "+1 702-998-1711",
    "website": "http://www.iristaxesandmore.com/",
    "address": "3910 Pecos-McLeod Interconnect Suite C 120, Las Vegas, NV 89121",
    "city": "Las Vegas",
    "state": "Nevada",
    "state_code": "NV",
    "postal_code": "89121",
    "latitude": 36.1185417,
    "longitude": -115.0997772,
    "rating": 4.8,
    "reviews": 21,
    "place_id": "ChIJlUjYH9bEyIAR5c7i-nRuFxY"
  },
  {
    "name": "Reliable Tax Services",
    "category": "Tax preparation service",
    "phone": "+1 702-310-6733",
    "website": "",
    "address": "1105 S 8th St STE B, Las Vegas, NV 89104",
    "city": "Las Vegas",
    "state": "Nevada",
    "state_code": "NV",
    "postal_code": "89104",
    "latitude": 36.1584358,
    "longitude": -115.1430742,
    "rating": 4.7,
    "reviews": 35,
    "place_id": "ChIJN-lSVoLDyIARPgvj6y2tflo"
  },
  {
    "name": "Family Tax Services",
    "category": "Tax preparation service",
    "phone": "+1 702-273-9151",
    "website": "http://famtaxnv.com/",
    "address": "3430 E Flamingo Rd #218, Las Vegas, NV 89121",
    "city": "Las Vegas",
    "state": "Nevada",
    "state_code": "NV",
    "postal_code": "89121",
    "latitude": 36.1157192,
    "longitude": -115.1004374,
    "rating": 5.0,
    "reviews": 8,
    "place_id": "ChIJSTdmTkTEyIARiueorsEYKWA"
  },
  {
    "name": "Castro Tax Services",
    "category": "Tax preparation service",
    "phone": "+1 702-581-4895",
    "website": "",
    "address": "1700 E Desert Inn Rd Suite 108-B, Las Vegas, NV 89169",
    "city": "Las Vegas",
    "state": "Nevada",
    "state_code": "NV",
    "postal_code": "89169",
    "latitude": 36.1301172,
    "longitude": -115.1286836,
    "rating": 4.5,
    "reviews": 8,
    "place_id": "ChIJXy3faMzFyIARZDAQnhz0EMU"
  },
  {
    "name": "Supertax & Services Llc",
    "category": "Tax preparation service",
    "phone": "+1 702-202-1500",
    "website": "https://supertaxsvc.com/",
    "address": "3230 E Charleston Blvd Suite 111, Las Vegas, NV 89104",
    "city": "Las Vegas",
    "state": "Nevada",
    "state_code": "NV",
    "postal_code": "89104",
    "latitude": 36.1594719,
    "longitude": -115.1016894,
    "rating": 4.8,
    "reviews": 29,
    "place_id": "ChIJGWBxI1bDyIARl85fw75_CQk"
  },
  {
    "name": "Central Express",
    "category": "Tax preparation service",
    "phone": "+1 702-405-0033",
    "website": "",
    "address": "1901 S Eastern Ave, Las Vegas, NV 89104",
    "city": "Las Vegas",
    "state": "Nevada",
    "state_code": "NV",
    "postal_code": "89104",
    "latitude": 36.1491092,
    "longitude": -115.1185086,
    "rating": 4.7,
    "reviews": 31,
    "place_id": "ChIJaeuJl5jEyIARV-Hb3EmAGUQ"
  },
  {
    "name": "Go Tax Multi Services LLC",
    "category": "Tax preparation service",
    "phone": "+1 702-383-0530",
    "website": "http://www.gotaxlasvegas.com/",
    "address": "1944 E Charleston Blvd, Las Vegas, NV 89104",
    "city": "Las Vegas",
    "state": "Nevada",
    "state_code": "NV",
    "postal_code": "89104",
    "latitude": 36.1586393,
    "longitude": -115.1218497,
    "rating": 4.6,
    "reviews": 39,
    "place_id": "ChIJb2QZP2HDyIARs8NEKFUk0NA"
  },
  {
    "name": "Latino Business Services of Nevada",
    "category": "Tax preparation service",
    "phone": "+1 702-685-9111",
    "website": "https://latinobusinessnv.com/",
    "address": "601 S 10th St Suite 202, Las Vegas, NV 89101",
    "city": "Las Vegas",
    "state": "Nevada",
    "state_code": "NV",
    "postal_code": "89101",
    "latitude": 36.1605749,
    "longitude": -115.1386351,
    "rating": 5.0,
    "reviews": 2,
    "place_id": "ChIJ9e-r3TPDyIARFjWEt9cGHL8"
  },
  {
    "name": "Leaders Tax & Services",
    "category": "Tax preparation service",
    "phone": "+1 702-202-1930",
    "website": "https://www.leaderslv.com/",
    "address": "2305 E Sahara Ave ste d, Las Vegas, NV 89104",
    "city": "Las Vegas",
    "state": "Nevada",
    "state_code": "NV",
    "postal_code": "89104",
    "latitude": 36.143894,
    "longitude": -115.120441,
    "rating": 4.0,
    "reviews": 66,
    "place_id": "ChIJkRx5d5fEyIARrhhu6y9-rhI"
  },
  {
    "name": "Takamura Services",
    "category": "Tax preparation service",
    "phone": "+1 702-399-3700",
    "website": "https://www.facebook.com/TAKAMURASERVICES",
    "address": "1809 S Eastern Ave, Las Vegas, NV 89104",
    "city": "Las Vegas",
    "state": "Nevada",
    "state_code": "NV",
    "postal_code": "89104",
    "latitude": 36.1496501,
    "longitude": -115.1185879,
    "rating": 4.6,
    "reviews": 52,
    "place_id": "ChIJtc0iu5jEyIARo7QomUXJSjQ"
  },
  {
    "name": "SUS Amigos Income Tax Services",
    "category": "Tax preparation service",
    "phone": "+1 702-457-4800",
    "website": "",
    "address": "2307 S Eastern Ave, Las Vegas, NV 89104",
    "city": "Las Vegas",
    "state": "Nevada",
    "state_code": "NV",
    "postal_code": "89104",
    "latitude": 36.145615,
    "longitude": -115.1180965,
    "rating": 4.5,
    "reviews": 31,
    "place_id": "ChIJg0nLFpjEyIARj5--L7T8L34"
  },
  {
    "name": "SUNFLOWER MULTI-SERVICES LLC",
    "category": "Tax preparation service",
    "phone": "+1 702-403-6265",
    "website": "http://www.sunflowermultiservices.com/",
    "address": "1720 E Charleston Blvd SPACE F8-C, Las Vegas, NV 89104",
    "city": "Las Vegas",
    "state": "Nevada",
    "state_code": "NV",
    "postal_code": "89104",
    "latitude": 36.1572461,
    "longitude": -115.125476,
    "rating": 5.0,
    "reviews": 4,
    "place_id": "ChIJD0h775a1c0sRzHZKz7Rfaxg"
  },
  {
    "name": "Mar-Tax Inc",
    "category": "Tax preparation service",
    "phone": "+1 702-731-0077",
    "website": "",
    "address": "3160 E Desert Inn Rd UNIT 15, Las Vegas, NV 89121",
    "city": "Las Vegas",
    "state": "Nevada",
    "state_code": "NV",
    "postal_code": "89121",
    "latitude": 36.1305206,
    "longitude": -115.1060212,
    "rating": 4.9,
    "reviews": 29,
    "place_id": "ChIJV4jle8XEyIARdu0liGTmk5s"
  },
  {
    "name": "Diana's Tax Services",
    "category": "Tax preparation service",
    "phone": "+1 702-272-1111",
    "website": "https://www.dianastax.com/",
    "address": "2204 E Charleston Blvd, Las Vegas, NV 89104",
    "city": "Las Vegas",
    "state": "Nevada",
    "state_code": "NV",
    "postal_code": "89104",
    "latitude": 36.1585375,
    "longitude": -115.1180208,
    "rating": 4.0,
    "reviews": 27,
    "place_id": "ChIJH5gSg2DDyIARXQKK2kuJJCc"
  },
  {
    "name": "Y&F Premium Multiservices",
    "category": "Tax preparation service",
    "phone": "+1 702-490-0206",
    "website": "https://www.facebook.com/YF-Premium-Multiservices-131249094347138/%3Fref%3Dbookmarks",
    "address": "1912 E Charleston Blvd, Las Vegas, NV 89104",
    "city": "Las Vegas",
    "state": "Nevada",
    "state_code": "NV",
    "postal_code": "89104",
    "latitude": 36.1586073,
    "longitude": -115.1227812,
    "rating": 5.0,
    "reviews": 30,
    "place_id": "ChIJk354QmHDyIAR-N4_CPwG0bg"
  },
  {
    "name": "Latino Services",
    "category": "Tax preparation service",
    "phone": "+1 702-431-5888",
    "website": "https://latinoservicestax.com/",
    "address": "1916 S Eastern Ave, Las Vegas, NV 89104",
    "city": "Las Vegas",
    "state": "Nevada",
    "state_code": "NV",
    "postal_code": "89104",
    "latitude": 36.1486046,
    "longitude": -115.1191256,
    "rating": 3.2,
    "reviews": 62,
    "place_id": "ChIJs9OAkpjEyIAR1juEOjyBGHI"
  },
  {
    "name": "Rony Tax Multiservices",
    "category": "Tax preparation",
    "phone": "+1 702-685-0427",
    "website": "",
    "address": "1431 E Charleston Blvd Ste.1, Las Vegas, NV 89104",
    "city": "Las Vegas",
    "state": "Nevada",
    "state_code": "NV",
    "postal_code": "89104",
    "latitude": 36.1590426,
    "longitude": -115.1330766,
    "rating": 4.5,
    "reviews": 111,
    "place_id": "ChIJW0ZNr3vDyIARwPhjpTjflEs"
  },
  {
    "name": "TIGER TAX MULTI-SERVICES / LAS VEGAS",
    "category": "Tax preparation service",
    "phone": "+1 702-531-1140",
    "website": "",
    "address": "1940 E Sahara Ave a, Las Vegas, NV 89104",
    "city": "Las Vegas",
    "state": "Nevada",
    "state_code": "NV",
    "postal_code": "89104",
    "latitude": 36.144613,
    "longitude": -115.1211068,
    "rating": 4.5,
    "reviews": 11,
    "place_id": "ChIJ_em_fpfEyIARMgV26nY6nGM"
  },
  {
    "name": "USA Tax Services Inc",
    "category": "Tax preparation",
    "phone": "+1 702-776-6166",
    "website": "",
    "address": "1709 S Eastern Ave, Las Vegas, NV 89104",
    "city": "Las Vegas",
    "state": "Nevada",
    "state_code": "NV",
    "postal_code": "89104",
    "latitude": 36.1505924,
    "longitude": -115.1185679,
    "rating": 5.0,
    "reviews": 1,
    "place_id": "ChIJuaNakp_EyIARA3D5nr-eKpc"
  },
  {
    "name": "Smart Tax Services",
    "category": "Tax preparation service",
    "phone": "+1 702-980-6502",
    "website": "",
    "address": "1333 S Eastern Ave, Las Vegas, NV 89104",
    "city": "Las Vegas",
    "state": "Nevada",
    "state_code": "NV",
    "postal_code": "89104",
    "latitude": 36.1535769,
    "longitude": -115.1185898,
    "rating": 5.0,
    "reviews": 1,
    "place_id": "ChIJV2uVmp_EyIARN67RUGQsZHs"
  },
  {
    "name": "Reliable & Rapid Tax Services",
    "category": "Tax preparation service",
    "phone": "+1 702-997-1092",
    "website": "http://www.vegastaxpro.com/",
    "address": "2870 S Maryland Pkwy STE 210, Las Vegas, NV 89109",
    "city": "Las Vegas",
    "state": "Nevada",
    "state_code": "NV",
    "postal_code": "89109",
    "latitude": 36.1378331,
    "longitude": -115.1362494,
    "rating": 5.0,
    "reviews": 1,
    "place_id": "ChIJZT75DS5H5oYR0Yo-yd5UM-I"
  },
  {
    "name": "GREEN CORNER TAX SERVICE",
    "category": "Tax preparation service",
    "phone": "+1 702-987-1114",
    "website": "",
    "address": "4220 S Maryland Pkwy 2nd Floor - Suite 200, Las Vegas, NV 89119",
    "city": "Las Vegas",
    "state": "Nevada",
    "state_code": "NV",
    "postal_code": "89119",
    "latitude": 36.1135456,
    "longitude": -115.1221164,
    "rating": 4.6,
    "reviews": 11,
    "place_id": "ChIJ2QcIWHzByIARDKlBDjHT68c"
  },
  {
    "name": "Jackson Hewitt Tax Service",
    "category": "Tax preparation",
    "phone": "+1 702-444-3276",
    "website": "https://office.jacksonhewitt.com/tax-preparation-services-locations/en/nv/las-vegas/3160-e-desert-inn-road/12111%3Futm_source%3Dgoogle%26utm_medium%3Dlocal%26utm_campaign%3Dlocal%26utm_content%3D12111",
    "address": "3160 E Desert Inn Rd Ste 1, Las Vegas, NV 89121",
    "city": "Las Vegas",
    "state": "Nevada",
    "state_code": "NV",
    "postal_code": "89121",
    "latitude": 36.1299721,
    "longitude": -115.1063588,
    "rating": 4.8,
    "reviews": 181,
    "place_id": "ChIJP21NecXEyIARcWduxQDMXsA"
  },
  {
    "name": "Laroye Taxes",
    "category": "Tax preparation",
    "phone": "+1 702-741-1565",
    "website": "https://laroyetaxes.com/",
    "address": "2000 S Eastern Ave SUITE A, Las Vegas, NV 89104",
    "city": "Las Vegas",
    "state": "Nevada",
    "state_code": "NV",
    "postal_code": "89104",
    "latitude": 36.1478908,
    "longitude": -115.1192857,
    "rating": 5.0,
    "reviews": 20,
    "place_id": "ChIJWWbqfZHFyIAR9whmZGUzzjY"
  },
  {
    "name": "Super Tax & Services",
    "category": "Tax preparation service",
    "phone": "+1 702-405-9800",
    "website": "https://supertaxsvc.com/",
    "address": "2017 E Charleston Blvd, Las Vegas, NV 89104",
    "city": "Las Vegas",
    "state": "Nevada",
    "state_code": "NV",
    "postal_code": "89104",
    "latitude": 36.1591471,
    "longitude": -115.1208562,
    "rating": 3.7,
    "reviews": 3,
    "place_id": "ChIJK3A2zPnDyIARfK47tm7b8No"
  },
  {
    "name": "H&R Block",
    "category": "Tax preparation service",
    "phone": "+1 702-795-0302",
    "website": "https://www.hrblock.com/tax-office-near-me/nevada/las-vegas/27867/%3Fotppartnerid%3D9308%26campaignid%3Dpw_mcm_9308_9762%26utm_medium%3Dlocal",
    "address": "5905 S Eastern Ave Ste 103, Las Vegas, NV 89119",
    "city": "Las Vegas",
    "state": "Nevada",
    "state_code": "NV",
    "postal_code": "89119",
    "latitude": 36.0820937,
    "longitude": -115.1196827,
    "rating": 4.6,
    "reviews": 103,
    "place_id": "ChIJRdWtiqLFyIARsFKB_8gGdXk"
  },
  {
    "name": "Platinum Multi Services Llc",
    "category": "Tax preparation service",
    "phone": "+1 702-776-8500",
    "website": "http://www.platinummultiservices.com/",
    "address": "1615 S Maryland Pkwy, Las Vegas, NV 89104",
    "city": "Las Vegas",
    "state": "Nevada",
    "state_code": "NV",
    "postal_code": "89104",
    "latitude": 36.15179,
    "longitude": -115.1367362,
    "rating": 4.3,
    "reviews": 20,
    "place_id": null
  },
  {
    "name": "Watanabe & Nakagawa Tax Service",
    "category": "Tax preparation service",
    "phone": "+1 725-304-3321",
    "website": "http://www.nevada-tax.com/",
    "address": "4276 Spring Mountain Rd STE 213, Las Vegas, NV 89102",
    "city": "Las Vegas",
    "state": "Nevada",
    "state_code": "NV",
    "postal_code": "89102",
    "latitude": 36.1279717,
    "longitude": -115.1972321,
    "rating": 3.0,
    "reviews": 2,
    "place_id": "ChIJHXb1wLfGyIARKn5tqz__uwk"
  },
  {
    "name": "Jackson Hewitt Tax Service",
    "category": "Tax preparation",
    "phone": "+1 702-444-3251",
    "website": "https://office.jacksonhewitt.com/tax-preparation-services-locations/en/nv/las-vegas/1350-e-flamingo-road/12112%3Futm_source%3Dgoogle%26utm_medium%3Dlocal%26utm_campaign%3Dlocal%26utm_content%3D12112",
    "address": "1350 E Flamingo Rd Ste 15, Las Vegas, NV 89119",
    "city": "Las Vegas",
    "state": "Nevada",
    "state_code": "NV",
    "postal_code": "89119",
    "latitude": 36.1156459,
    "longitude": -115.1353458,
    "rating": 4.7,
    "reviews": 107,
    "place_id": "ChIJrQxeUfnEyIAR090BUN0CEco"
  },
  {
    "name": "Morena Brizuela Office",
    "category": "Tax preparation service",
    "phone": "+1 702-788-0364",
    "website": "",
    "address": "1630 E Sahara Ave #2, Las Vegas, NV 89104",
    "city": "Las Vegas",
    "state": "Nevada",
    "state_code": "NV",
    "postal_code": "89104",
    "latitude": 36.1447008,
    "longitude": -115.1292386,
    "rating": 5.0,
    "reviews": 16,
    "place_id": "ChIJHwWfzprEyIARwO_r6PWRFkk"
  },
  {
    "name": "Adriana's Tax Services",
    "category": "Tax preparation service",
    "phone": "+1 702-489-5000",
    "website": "https://www.instagram.com/adrianastaxservice/",
    "address": "2412 E Ogden Ave, Las Vegas, NV 89101",
    "city": "Las Vegas",
    "state": "Nevada",
    "state_code": "NV",
    "postal_code": "89101",
    "latitude": 36.164388,
    "longitude": -115.1163247,
    "rating": 4.0,
    "reviews": 8,
    "place_id": "ChIJb2FQbV3DyIARBzWBaEG6nHw"
  },
  {
    "name": "Tax Solutions",
    "category": "Tax preparation service",
    "phone": "+1 702-386-9318",
    "website": "",
    "address": "3511 Buena Vista Dr, Las Vegas, NV 89121",
    "city": "Las Vegas",
    "state": "Nevada",
    "state_code": "NV",
    "postal_code": "89121",
    "latitude": 36.1258521,
    "longitude": -115.1183251,
    "rating": 5.0,
    "reviews": 1,
    "place_id": "ChIJJ8ACG-jEyIARdKtJldn2oSw"
  },
  {
    "name": "LATINOAMERICA TAX SERVICES",
    "category": "Tax preparation service",
    "phone": "+1 702-586-9100",
    "website": "",
    "address": "4187 S Pecos Rd, Las Vegas, NV 89121",
    "city": "Las Vegas",
    "state": "Nevada",
    "state_code": "NV",
    "postal_code": "89121",
    "latitude": 36.1135231,
    "longitude": -115.1015041,
    "rating": 4.0,
    "reviews": 4,
    "place_id": "ChIJw8F2PCPFyIARWCboC39fe4s"
  },
  {
    "name": "QUANTUM TAX MULTISERVICES",
    "category": "Tax preparation",
    "phone": "+1 702-273-4022",
    "website": "",
    "address": "1800 S Eastern Ave, Las Vegas, NV 89104",
    "city": "Las Vegas",
    "state": "Nevada",
    "state_code": "NV",
    "postal_code": "89104",
    "latitude": 36.1501595,
    "longitude": -115.1190836,
    "rating": 5.0,
    "reviews": 50,
    "place_id": "ChIJVzpZ6OTbyIAR1cqnOBC9jUo"
  },
  {
    "name": "Jackson Hewitt Tax Service",
    "category": "Tax preparation",
    "phone": "+1 702-723-9542",
    "website": "https://office.jacksonhewitt.com/tax-preparation-services-locations/en/nv/las-vegas/1205-e-sahara-avenue/14303%3Futm_source%3Dgoogle%26utm_medium%3Dlocal%26utm_campaign%3Dlocal%26utm_content%3D14303",
    "address": "1205 E Sahara Ave, Las Vegas, NV 89104",
    "city": "Las Vegas",
    "state": "Nevada",
    "state_code": "NV",
    "postal_code": "89104",
    "latitude": 36.1454011,
    "longitude": -115.1364777,
    "rating": 4.9,
    "reviews": 206,
    "place_id": "ChIJP5uJAabFyIARxrsNcZqVXpE"
  },
  {
    "name": "DH Financial",
    "category": "Tax preparation",
    "phone": "+1 725-777-5127",
    "website": "https://dhfinancialsolutions.com/",
    "address": "1600 E Desert Inn Rd # 270, Las Vegas, NV 89169",
    "city": "Las Vegas",
    "state": "Nevada",
    "state_code": "NV",
    "postal_code": "89169",
    "latitude": 36.1301693,
    "longitude": -115.1304881,
    "rating": 4.3,
    "reviews": 6,
    "place_id": "ChIJi2DvmBDFyIARdp-0GIRyd3k"
  },
  {
    "name": "All-N-One Tax Prep & Training Center",
    "category": "Tax consultant",
    "phone": "+1 702-353-8776",
    "website": "",
    "address": "1120 Almond Tree Ln, Las Vegas, NV 89104",
    "city": "Las Vegas",
    "state": "Nevada",
    "state_code": "NV",
    "postal_code": "89104",
    "latitude": 36.1457027,
    "longitude": -115.1391215,
    "rating": 4.5,
    "reviews": 17,
    "place_id": "ChIJVQG5C9bDyIAR2otDPMef9Ic"
  },
  {
    "name": "PRO-TAX SERVICES",
    "category": "Tax preparation service",
    "phone": "+1 702-821-5544",
    "website": "",
    "address": "2016 E Charleston Blvd, Las Vegas, NV 89104",
    "city": "Las Vegas",
    "state": "Nevada",
    "state_code": "NV",
    "postal_code": "89104",
    "latitude": 36.1585496,
    "longitude": -115.1204445,
    "rating": 5.0,
    "reviews": 4,
    "place_id": "ChIJfTNrS4HDyIARfnDNqpzCofE"
  },
  {
    "name": "S & C Tax Services",
    "category": "Tax preparation service",
    "phone": "+1 702-366-9605",
    "website": "",
    "address": "1650 E Sahara Ave #1, Las Vegas, NV 89104",
    "city": "Las Vegas",
    "state": "Nevada",
    "state_code": "NV",
    "postal_code": "89104",
    "latitude": 36.14464359999999,
    "longitude": -115.1287589,
    "rating": 4.0,
    "reviews": 3,
    "place_id": null
  },
  {
    "name": "C & A Professional Tax Services",
    "category": "Tax preparation service",
    "phone": "+1 702-431-7100",
    "website": "",
    "address": "1605 E Charleston Blvd, Las Vegas, NV 89104",
    "city": "Las Vegas",
    "state": "Nevada",
    "state_code": "NV",
    "postal_code": "89104",
    "latitude": 36.1592481,
    "longitude": -115.1309367,
    "rating": 3.6,
    "reviews": 17,
    "place_id": "ChIJpfyaQ0DDyIARRLsytAU0oX4"
  },
  {
    "name": "City of Tax & Multiservices",
    "category": "Tax preparation service",
    "phone": "+1 702-708-5305",
    "website": "https://splinternetmarketing.com/local-pros/nevada/las-vegas/city-of-tax-multiservices/",
    "address": "1610 E Charleston Blvd, Las Vegas, NV 89104",
    "city": "Las Vegas",
    "state": "Nevada",
    "state_code": "NV",
    "postal_code": "89104",
    "latitude": 36.1585756,
    "longitude": -115.1302174,
    "rating": 5.0,
    "reviews": 1,
    "place_id": "ChIJddmP3J3DyIARUWSsv4Jvr-8"
  },
  {
    "name": "ROSSANA SERVICES",
    "category": "Tax preparation service",
    "phone": "+1 702-406-4593",
    "website": "",
    "address": "1212 S Eastern Ave, Las Vegas, NV 89104",
    "city": "Las Vegas",
    "state": "Nevada",
    "state_code": "NV",
    "postal_code": "89104",
    "latitude": 36.155614,
    "longitude": -115.119119,
    "rating": 3.0,
    "reviews": 2,
    "place_id": null
  },
  {
    "name": "Aces Tax",
    "category": "Tax preparation service",
    "phone": "+1 702-735-8448",
    "website": "",
    "address": "2797 S Maryland Pkwy #26, Las Vegas, NV 89109",
    "city": "Las Vegas",
    "state": "Nevada",
    "state_code": "NV",
    "postal_code": "89109",
    "latitude": 36.13927109999999,
    "longitude": -115.1378097,
    "rating": 4.1,
    "reviews": 9,
    "place_id": "ChIJ3xhhQH3EyIAR53ByKS-di2o"
  },
  {
    "name": "Frank Canales Income Tax & Notary Service",
    "category": "Tax preparation service",
    "phone": "+1 702-380-3000",
    "website": "http://www.frankcanales.com/",
    "address": "1911 E Charleston Blvd, Las Vegas, NV 89104",
    "city": "Las Vegas",
    "state": "Nevada",
    "state_code": "NV",
    "postal_code": "89104",
    "latitude": 36.159233,
    "longitude": -115.122495,
    "rating": 5.0,
    "reviews": 5,
    "place_id": "ChIJS2yzS2HDyIARAQIQys2hTqw"
  },
  {
    "name": "F & T Professional Services",
    "category": "Tax preparation service",
    "phone": "+1 702-778-3787",
    "website": "",
    "address": "1201 S Eastern Ave, Las Vegas, NV 89104",
    "city": "Las Vegas",
    "state": "Nevada",
    "state_code": "NV",
    "postal_code": "89104",
    "latitude": 36.1570399,
    "longitude": -115.1186707,
    "rating": 5.0,
    "reviews": 1,
    "place_id": "ChIJAZrEJT3DyIARwgZLlgfZglg"
  },
  {
    "name": "Dollar Symphony Group",
    "category": "Tax preparation service",
    "phone": "+1 702-483-5180",
    "website": "",
    "address": "1380 E Sahara Ave B, Las Vegas, NV 89104",
    "city": "Las Vegas",
    "state": "Nevada",
    "state_code": "NV",
    "postal_code": "89104",
    "latitude": 36.1445935,
    "longitude": -115.1341798,
    "rating": 4.6,
    "reviews": 98,
    "place_id": "ChIJMcRyNYTEyIAREq0PKmgfKZQ"
  },
  {
    "name": "La Raza Income Tax LLC",
    "category": "Tax preparation service",
    "phone": "+1 702-410-4164",
    "website": "http://www.larazaincometax.com/",
    "address": "1810 E Sahara Ave Suite 222, Las Vegas, NV 89104",
    "city": "Las Vegas",
    "state": "Nevada",
    "state_code": "NV",
    "postal_code": "89104",
    "latitude": 36.1451522,
    "longitude": -115.1248533,
    "rating": 4.1,
    "reviews": 7,
    "place_id": "ChIJIWIy-RTbyIARVQWKNNyf68M"
  },
  {
    "name": "Tax 1",
    "category": "Tax preparation service",
    "phone": "+1 702-485-4900",
    "website": "",
    "address": "1540 E Sahara Ave, Las Vegas, NV 89104",
    "city": "Las Vegas",
    "state": "Nevada",
    "state_code": "NV",
    "postal_code": "89104",
    "latitude": 36.1446908,
    "longitude": -115.1313107,
    "rating": 5.0,
    "reviews": 7,
    "place_id": "ChIJk6a5JerEyIARP6Sy3-Nw0vM"
  },
  {
    "name": "Jackson Hewitt",
    "category": "Tax preparation service",
    "phone": "+1 702-477-0057",
    "website": "https://www.jacksonhewitt.com/",
    "address": "1121 Palm St UNIT 18, Las Vegas, NV 89104",
    "city": "Las Vegas",
    "state": "Nevada",
    "state_code": "NV",
    "postal_code": "89104",
    "latitude": 36.1563677,
    "longitude": -115.1014723,
    "rating": 3.7,
    "reviews": 6,
    "place_id": "ChIJnd22DKnEyIARG3xNya-xqEk"
  },
  {
    "name": "H&R Block",
    "category": "Tax preparation service",
    "phone": "+1 702-382-4285",
    "website": "https://www.hrblock.com/tax-office-near-me/nevada/las-vegas/27858/%3Fotppartnerid%3D9308%26campaignid%3Dpw_mcm_9308_9762%26utm_medium%3Dlocal",
    "address": "1866 E Charleston Blvd, Las Vegas, NV 89104",
    "city": "Las Vegas",
    "state": "Nevada",
    "state_code": "NV",
    "postal_code": "89104",
    "latitude": 36.1584808,
    "longitude": -115.1238039,
    "rating": 4.6,
    "reviews": 110,
    "place_id": "ChIJWxaxWWHDyIAR9fPH8E9py3w"
  },
  {
    "name": "H&R Block",
    "category": "Tax preparation service",
    "phone": "+1 702-737-6699",
    "website": "https://www.hrblock.com/tax-office-near-me/nevada/las-vegas/27862/%3Fotppartnerid%3D9308%26campaignid%3Dpw_mcm_9308_9762%26utm_medium%3Dlocal",
    "address": "1159 E Twain Ave Ste 108, Las Vegas, NV 89109",
    "city": "Las Vegas",
    "state": "Nevada",
    "state_code": "NV",
    "postal_code": "89109",
    "latitude": 36.121196,
    "longitude": -115.1379227,
    "rating": 4.5,
    "reviews": 192,
    "place_id": "ChIJPRwIoPbEyIARbY7JiubH3hI"
  },
  {
    "name": "Yorda's Tax Service",
    "category": "Tax preparation service",
    "phone": "+1 702-438-1040",
    "website": "",
    "address": "3547 S Maryland Pkwy E, Las Vegas, NV 89169",
    "city": "Las Vegas",
    "state": "Nevada",
    "state_code": "NV",
    "postal_code": "89169",
    "latitude": 36.1250792,
    "longitude": -115.1378045,
    "rating": 4.7,
    "reviews": 12,
    "place_id": "ChIJ90dLkPbEyIAR0bW0UjFrCmQ"
  },
  {
    "name": "Tax Prep & Bookkeeping Services",
    "category": "Tax preparation service",
    "phone": "+1 775-746-3200",
    "website": "https://www.taxprepbooks.com/",
    "address": "875 Roberta Ln Ste 102, Sparks, NV 89431",
    "city": "Sparks",
    "state": "Nevada",
    "state_code": "NV",
    "postal_code": "89431",
    "latitude": 39.5540826,
    "longitude": -119.7541404,
    "rating": 5.0,
    "reviews": 16,
    "place_id": "ChIJ5X627C0_mYARODkWjXhINw4"
  },
  {
    "name": "Monica's Tax Preparation LLC",
    "category": "Tax preparation service",
    "phone": "+1 775-351-2277",
    "website": "",
    "address": "1855 Sullivan Ln #105, Sparks, NV 89431",
    "city": "Sparks",
    "state": "Nevada",
    "state_code": "NV",
    "postal_code": "89431",
    "latitude": 39.5495986,
    "longitude": -119.7716751,
    "rating": 4.4,
    "reviews": 26,
    "place_id": "ChIJP7okJ7o4mYARNi8e9Y35Qhw"
  },
  {
    "name": "Quality Tax Service Sparks \"Laura Gonzalez\"",
    "category": "Tax preparation service",
    "phone": "+1 775-224-8381",
    "website": "https://facebook.com/laura.gonzalez.505",
    "address": "3180 Vickie Ln, Sparks, NV 89431",
    "city": "Sparks",
    "state": "Nevada",
    "state_code": "NV",
    "postal_code": "89431",
    "latitude": 39.55853219999999,
    "longitude": -119.741538,
    "rating": 5.0,
    "reviews": 6,
    "place_id": "ChIJGS3IRbY5mYARQtzmEeSGmFA"
  },
  {
    "name": "Truckee Meadows Tax Services",
    "category": "Tax preparation",
    "phone": "+1 775-674-6691",
    "website": "https://www.facebook.com/share/15sT1tAZBm/%3Fmibextid%3DwwXIfr",
    "address": "1321 N McCarran Blvd #104, Sparks, NV 89431",
    "city": "Sparks",
    "state": "Nevada",
    "state_code": "NV",
    "postal_code": "89431",
    "latitude": 39.5456381,
    "longitude": -119.7342855,
    "rating": 4.0,
    "reviews": 9,
    "place_id": "ChIJIRFpky0_mYARNH-lK4EQqG4"
  },
  {
    "name": "Jackson Hewitt Tax Service",
    "category": "Tax preparation",
    "phone": "+1 775-339-3300",
    "website": "https://office.jacksonhewitt.com/tax-preparation-services-locations/en/nv/sparks/673-n-mccarran-blvd/11861%3Futm_source%3Dgoogle%26utm_medium%3Dlocal%26utm_campaign%3Dlocal%26utm_content%3D11861",
    "address": "673 N McCarran Blvd, Sparks, NV 89431",
    "city": "Sparks",
    "state": "Nevada",
    "state_code": "NV",
    "postal_code": "89431",
    "latitude": 39.53981599999999,
    "longitude": -119.7346007,
    "rating": 4.8,
    "reviews": 63,
    "place_id": "ChIJkT6SV9A-mYAROGbgQA9SpSo"
  },
  {
    "name": "Jackson Hewitt Tax Service",
    "category": "Tax preparation",
    "phone": "+1 775-339-3294",
    "website": "https://office.jacksonhewitt.com/tax-preparation-services-locations/en/nv/sparks/1215-baring-blvd/13840%3Futm_source%3Dgoogle%26utm_medium%3Dlocal%26utm_campaign%3Dlocal%26utm_content%3D13840",
    "address": "1215 Baring Blvd, Sparks, NV 89434",
    "city": "Sparks",
    "state": "Nevada",
    "state_code": "NV",
    "postal_code": "89434",
    "latitude": 39.55494119999999,
    "longitude": -119.7234215,
    "rating": 4.9,
    "reviews": 114,
    "place_id": "ChIJbV4lJDQ5mYAR_eIEPIA3npc"
  },
  {
    "name": "Tax Plus",
    "category": "Tax preparation service",
    "phone": "+1 775-853-2356",
    "website": "http://taxplusinc.com/",
    "address": "979 Pyramid Way, Sparks, NV 89431",
    "city": "Sparks",
    "state": "Nevada",
    "state_code": "NV",
    "postal_code": "89431",
    "latitude": 39.5428384,
    "longitude": -119.7529756,
    "rating": 4.2,
    "reviews": 5,
    "place_id": "ChIJO47tRi0_mYARviZasFz1o2k"
  },
  {
    "name": "Hartmann Professional Services",
    "category": "Tax preparation service",
    "phone": "+1 775-331-2378",
    "website": "http://hpsinv.com/profile/",
    "address": "1055 Roberta Ln #100, Sparks, NV 89431",
    "city": "Sparks",
    "state": "Nevada",
    "state_code": "NV",
    "postal_code": "89431",
    "latitude": 39.5549633,
    "longitude": -119.7570807,
    "rating": 5.0,
    "reviews": 7,
    "place_id": "ChIJ17tBycw4mYARYVbV1RpLHHw"
  },
  {
    "name": "Jackson Hewitt Tax Service",
    "category": "Tax preparation",
    "phone": "+1 775-339-3018",
    "website": "https://office.jacksonhewitt.com/tax-preparation-services-locations/en/nv/sparks/1570-sullivan-lane/14121%3Futm_source%3Dgoogle%26utm_medium%3Dlocal%26utm_campaign%3Dlocal%26utm_content%3D14121",
    "address": "1570 Sullivan Ln, Sparks, NV 89431",
    "city": "Sparks",
    "state": "Nevada",
    "state_code": "NV",
    "postal_code": "89431",
    "latitude": 39.5469395,
    "longitude": -119.7711281,
    "rating": 4.9,
    "reviews": 366,
    "place_id": "ChIJ3RuV77A4mYARosxvW5Lj0bw"
  },
  {
    "name": "Irma\u2019s Tax Notary & Therapeutic Beds",
    "category": "Tax preparation",
    "phone": "+1 775-433-1636",
    "website": "",
    "address": "1105 Rock Blvd, Sparks, NV 89431",
    "city": "Sparks",
    "state": "Nevada",
    "state_code": "NV",
    "postal_code": "89431",
    "latitude": 39.543381,
    "longitude": -119.764874,
    "rating": 4.4,
    "reviews": 14,
    "place_id": "ChIJjaWvPMg5mYARMtTW_Au3QSg"
  },
  {
    "name": "Liberty Tax",
    "category": "Tax preparation",
    "phone": "+1 775-420-5008",
    "website": "https://www.libertytax.com/19673",
    "address": "660 E Prater Way, Sparks, NV 89431",
    "city": "Sparks",
    "state": "Nevada",
    "state_code": "NV",
    "postal_code": "89431",
    "latitude": 39.5427544,
    "longitude": -119.7346546,
    "rating": 4.8,
    "reviews": 59,
    "place_id": "ChIJpXVxA9E-mYARPPfe9w9Pje4"
  },
  {
    "name": "Liberty Tax",
    "category": "Tax preparation",
    "phone": "+1 775-336-3533",
    "website": "https://www.libertytax.com/10336",
    "address": "2275 Oddie Blvd, Sparks, NV 89431",
    "city": "Sparks",
    "state": "Nevada",
    "state_code": "NV",
    "postal_code": "89431",
    "latitude": 39.5442405,
    "longitude": -119.7750619,
    "rating": 4.7,
    "reviews": 77,
    "place_id": "ChIJf-wnQrA4mYARhy8X9QLk4H8"
  },
  {
    "name": "Hispanic Center",
    "category": "Tax preparation service",
    "phone": "+1 775-313-5094",
    "website": "http://hispanic-center.com/",
    "address": "742 F St, Sparks, NV 89431",
    "city": "Sparks",
    "state": "Nevada",
    "state_code": "NV",
    "postal_code": "89431",
    "latitude": 39.5389584,
    "longitude": -119.7526688,
    "rating": 4.9,
    "reviews": 37,
    "place_id": "ChIJS9qn2C0_mYARhfu6_TtS1nk"
  },
  {
    "name": "Jackson Hewitt Tax Service",
    "category": "Tax preparation",
    "phone": "+1 775-339-3295",
    "website": "https://office.jacksonhewitt.com/tax-preparation-services-locations/en/nv/sparks/5065-pyramid-lake-road/53729%3Futm_source%3Dgoogle%26utm_medium%3Dlocal%26utm_campaign%3Dlocal%26utm_content%3D53729",
    "address": "5065 Pyramid Lake Road, Sparks, NV 89436",
    "city": "Sparks",
    "state": "Nevada",
    "state_code": "NV",
    "postal_code": "89436",
    "latitude": 39.584376,
    "longitude": -119.746455,
    "rating": 4.9,
    "reviews": 124,
    "place_id": "ChIJb4nW5fw4mYARn20TqlDaKQE"
  },
  {
    "name": "C Latina Tax & Notary Services",
    "category": "Tax preparation service",
    "phone": "+1 775-453-1011",
    "website": "",
    "address": "1949 Prater Wy, Sparks, NV 89431",
    "city": "Sparks",
    "state": "Nevada",
    "state_code": "NV",
    "postal_code": "89431",
    "latitude": 39.5368098,
    "longitude": -119.7696547,
    "rating": 5.0,
    "reviews": 4,
    "place_id": "ChIJlftV1GM_mYARnCIweeDjwec"
  },
  {
    "name": "H&R Block",
    "category": "Tax preparation service",
    "phone": "+1 775-359-6396",
    "website": "https://www.hrblock.com/tax-office-near-me/nevada/sparks/27618/%3Fotppartnerid%3D9308%26campaignid%3Dpw_mcm_9308_9762%26utm_medium%3Dlocal",
    "address": "1450 E Prater Way Ste 108, Sparks, NV 89434",
    "city": "Sparks",
    "state": "Nevada",
    "state_code": "NV",
    "postal_code": "89434",
    "latitude": 39.5434946,
    "longitude": -119.7173824,
    "rating": 4.8,
    "reviews": 121,
    "place_id": "ChIJfT80yThtbIcRDSGHAAdLvOM"
  },
  {
    "name": "Hartmann & Associates",
    "category": "Tax preparation service",
    "phone": "+1 775-358-6649",
    "website": "https://www.hartmannandassociates.com/",
    "address": "1311 N McCarran Blvd #105, Sparks, NV 89431",
    "city": "Sparks",
    "state": "Nevada",
    "state_code": "NV",
    "postal_code": "89431",
    "latitude": 39.545785,
    "longitude": -119.73473,
    "rating": 4.3,
    "reviews": 6,
    "place_id": null
  },
  {
    "name": "H&R Block",
    "category": "Tax preparation service",
    "phone": "+1 775-284-4986",
    "website": "https://www.hrblock.com/tax-office-near-me/nevada/sparks/27798/%3Fotppartnerid%3D9308%26campaignid%3Dpw_mcm_9308_9762%26utm_medium%3Dlocal",
    "address": "1280 Disc Dr, Sparks, NV 89436",
    "city": "Sparks",
    "state": "Nevada",
    "state_code": "NV",
    "postal_code": "89436",
    "latitude": 39.5775574,
    "longitude": -119.7220563,
    "rating": 4.8,
    "reviews": 170,
    "place_id": "ChIJU7aHnhM5mYARB4BkEiIrHMA"
  },
  {
    "name": "H&R Block",
    "category": "Tax preparation service",
    "phone": "+1 775-359-2036",
    "website": "https://www.hrblock.com/tax-office-near-me/nevada/sparks/27611/%3Fotppartnerid%3D9308%26campaignid%3Dpw_mcm_9308_9762%26utm_medium%3Dlocal",
    "address": "802 Holman Way, Sparks, NV 89431",
    "city": "Sparks",
    "state": "Nevada",
    "state_code": "NV",
    "postal_code": "89431",
    "latitude": 39.5500232,
    "longitude": -119.7530871,
    "rating": 4.8,
    "reviews": 173,
    "place_id": "ChIJw2Z0xtE4mYARoex1DBr8seU"
  },
  {
    "name": "Amanda Williams & Associates",
    "category": "Tax preparation",
    "phone": "+1 775-355-8822",
    "website": "http://williamstaxprep.biz/",
    "address": "4650 Wedekind Rd Suite 3, Sparks, NV 89431",
    "city": "Sparks",
    "state": "Nevada",
    "state_code": "NV",
    "postal_code": "89431",
    "latitude": 39.556983,
    "longitude": -119.7649399,
    "rating": 5.0,
    "reviews": 1,
    "place_id": "ChIJxc0UB6M5mYAR2pyOLto1s2w"
  },
  {
    "name": "H&R Block",
    "category": "Tax preparation service",
    "phone": "+1 775-331-1040",
    "website": "https://www.hrblock.com/tax-office-near-me/nevada/sparks/27619/%3Fotppartnerid%3D9308%26campaignid%3Dpw_mcm_9308_9762%26utm_medium%3Dlocal",
    "address": "2217 and 2219 Oddie Blvd, Sparks, NV 89431",
    "city": "Sparks",
    "state": "Nevada",
    "state_code": "NV",
    "postal_code": "89431",
    "latitude": 39.5451275,
    "longitude": -119.774572,
    "rating": 4.8,
    "reviews": 233,
    "place_id": "ChIJO0jV8LA4mYARBBMlf-0Cfl8"
  },
  {
    "name": "Precision Tax and Immigration Services, LLC",
    "category": "Tax preparation service",
    "phone": "+1 775-338-2486",
    "website": "http://precisiontaxservices.org/",
    "address": "1005 Terminal Wy Suite 251, Reno, NV 89502",
    "city": "Reno",
    "state": "Nevada",
    "state_code": "NV",
    "postal_code": "89502",
    "latitude": 39.5155519,
    "longitude": -119.7782959,
    "rating": 4.5,
    "reviews": 8,
    "place_id": "ChIJjQegfEw_mYARRP1G-zzeoxs"
  },
  {
    "name": "Reno Tax & Bookkeeping Service",
    "category": "Tax preparation service",
    "phone": "+1 775-323-2520",
    "website": "https://www.renotaxbookkeepingservice.com/",
    "address": "1417 E 4th St, Reno, NV 89512",
    "city": "Reno",
    "state": "Nevada",
    "state_code": "NV",
    "postal_code": "89512",
    "latitude": 39.5338363,
    "longitude": -119.794815,
    "rating": 4.4,
    "reviews": 13,
    "place_id": "ChIJPfk0fVNHmYARiaCttuoyFRs"
  },
  {
    "name": "Berge & Company CPA",
    "category": "Tax preparation service",
    "phone": "+1 775-298-6693",
    "website": "",
    "address": "223 Marsh Ave, Reno, NV 89509",
    "city": "Reno",
    "state": "Nevada",
    "state_code": "NV",
    "postal_code": "89509",
    "latitude": 39.5192474,
    "longitude": -119.8132799,
    "rating": 4.5,
    "reviews": 39,
    "place_id": "ChIJ93ZdG7k-mYARhq53FidVYCA"
  },
  {
    "name": "MAX TAX LLC",
    "category": "Tax preparation service",
    "phone": "+1 775-327-4408",
    "website": "https://www.maxtaxreno.com/",
    "address": "460 E Plumb Ln STE B, Reno, NV 89502",
    "city": "Reno",
    "state": "Nevada",
    "state_code": "NV",
    "postal_code": "89502",
    "latitude": 39.5053507,
    "longitude": -119.7971094,
    "rating": 5.0,
    "reviews": 55,
    "place_id": "ChIJM3cBYrpAmYAReBj41h0NTuo"
  },
  {
    "name": "H&R Block",
    "category": "Tax preparation service",
    "phone": "+1 775-331-1003",
    "website": "https://www.hrblock.com/local-tax-offices/nevada/sparks/pyramid-park-shopping-center/27611/%3Fotppartnerid%3D9308%26campaignid%3Dpw_mcm_9308_9762%26utm_medium%3Dlocal%26utm_source%3Dgoogle%26utm_campaign%3Dyext%26y_source%3D1_MzU5Njg1Ni03MTUtbG9jYXRpb24ud2Vic2l0ZQ%253D%253D",
    "address": "742 F St, Sparks, NV 89431",
    "city": "Sparks",
    "state": "Nevada",
    "state_code": "NV",
    "postal_code": "89431",
    "latitude": 39.5390289,
    "longitude": -119.7526992,
    "rating": 4.5,
    "reviews": 54,
    "place_id": "ChIJh-zFki8_mYARvVJuzY6ZmWQ"
  },
  {
    "name": "LATIN TAX PRO",
    "category": "Tax preparation service",
    "phone": "+1 775-410-9795",
    "website": "http://www.latintaxes.pro/",
    "address": "1502 N Carson St #4, Carson City, NV 89703",
    "city": "Carson City",
    "state": "Nevada",
    "state_code": "NV",
    "postal_code": "89703",
    "latitude": 39.1736418,
    "longitude": -119.7673064,
    "rating": 5.0,
    "reviews": 97,
    "place_id": "ChIJVVLmnwkLmYARorbCaPhu2hY"
  },
  {
    "name": "Jackson Hewitt Tax Service",
    "category": "Tax preparation",
    "phone": "+1 775-339-3299",
    "website": "https://office.jacksonhewitt.com/tax-preparation-services-locations/en/nv/carson-city/1978-east-williams-st/12796%3Futm_source%3Dgoogle%26utm_medium%3Dlocal%26utm_campaign%3Dlocal%26utm_content%3D12796",
    "address": "1978 E William St, Carson City, NV 89701",
    "city": "Carson City",
    "state": "Nevada",
    "state_code": "NV",
    "postal_code": "89701",
    "latitude": 39.1742417,
    "longitude": -119.7460675,
    "rating": 4.8,
    "reviews": 252,
    "place_id": "ChIJhaYG94YKmYARVoODa3PpNpY"
  },
  {
    "name": "Jackson Hewitt Tax Service",
    "category": "Tax preparation",
    "phone": "+1 775-339-3297",
    "website": "https://office.jacksonhewitt.com/tax-preparation-services-locations/en/nv/carson-city/3200-market-street/53408%3Futm_source%3Dgoogle%26utm_medium%3Dlocal%26utm_campaign%3Dlocal%26utm_content%3D53408",
    "address": "3200 Market St, Carson City, NV 89706",
    "city": "Carson City",
    "state": "Nevada",
    "state_code": "NV",
    "postal_code": "89706",
    "latitude": 39.187152,
    "longitude": -119.757582,
    "rating": 4.9,
    "reviews": 132,
    "place_id": "ChIJnQoTj-4KmYARA0amu99pZkE"
  },
  {
    "name": "Jackson Hewitt Tax Service",
    "category": "Tax preparation",
    "phone": "+1 775-856-8327",
    "website": "https://office.jacksonhewitt.com/tax-preparation-services-locations/en/nv/carson-city/3953-s-carson-st/14699%3Futm_source%3Dgoogle%26utm_medium%3Dlocal%26utm_campaign%3Dlocal%26utm_content%3D14699",
    "address": "3953 S Carson St, Carson City, NV 89701",
    "city": "Carson City",
    "state": "Nevada",
    "state_code": "NV",
    "postal_code": "89701",
    "latitude": 39.130221,
    "longitude": -119.7696226,
    "rating": 5.0,
    "reviews": 1,
    "place_id": "ChIJARq_xrehmYARt8RK8wpGsbM"
  },
  {
    "name": "H&R Block",
    "category": "Tax preparation service",
    "phone": "+1 775-888-8288",
    "website": "https://www.hrblock.com/tax-office-near-me/nevada/carson-city/27697/%3Fotppartnerid%3D9308%26campaignid%3Dpw_mcm_9308_9762%26utm_medium%3Dlocal",
    "address": "3823 S Carson St Suite 24, Carson City, NV 89701",
    "city": "Carson City",
    "state": "Nevada",
    "state_code": "NV",
    "postal_code": "89701",
    "latitude": 39.1325729,
    "longitude": -119.7690911,
    "rating": 4.6,
    "reviews": 86,
    "place_id": "ChIJVwovvjmgmYARQ9OW2iwFTu8"
  },
  {
    "name": "Bertrand & Associates LLC",
    "category": "Tax preparation service",
    "phone": "+1 775-882-8892",
    "website": "http://www.bertrandcpa.com/",
    "address": "777 E William St # 206, Carson City, NV 89701",
    "city": "Carson City",
    "state": "Nevada",
    "state_code": "NV",
    "postal_code": "89701",
    "latitude": 39.1701725,
    "longitude": -119.7615039,
    "rating": 3.9,
    "reviews": 7,
    "place_id": "ChIJye8AuHugmYAR7aUtZBkpwvQ"
  },
  {
    "name": "Jackson Hewitt Tax Service",
    "category": "Tax preparation",
    "phone": "+1 775-339-3035",
    "website": "https://office.jacksonhewitt.com/tax-preparation-services-locations/en/nv/carson-city/3770-us-hwy-395-s/51648%3Futm_source%3Dgoogle%26utm_medium%3Dlocal%26utm_campaign%3Dlocal%26utm_content%3D51648",
    "address": "3770 US Hwy 395 S, Carson City, NV 89705",
    "city": "Carson City",
    "state": "Nevada",
    "state_code": "NV",
    "postal_code": "89705",
    "latitude": 39.111599,
    "longitude": -119.778485,
    "rating": 4.8,
    "reviews": 131,
    "place_id": "ChIJw72lINChmYARmMQP5o2TZHI"
  },
  {
    "name": "Ken Brown Ltd",
    "category": "Tax preparation service",
    "phone": "+1 775-888-2008",
    "website": "",
    "address": "1049 S Carson St, Carson City, NV 89701",
    "city": "Carson City",
    "state": "Nevada",
    "state_code": "NV",
    "postal_code": "89701",
    "latitude": 39.1580311,
    "longitude": -119.7664019,
    "rating": 5.0,
    "reviews": 3,
    "place_id": "ChIJeSq1PAugmYARUbfDve2vg_I"
  },
  {
    "name": "Executive Financial Consultants",
    "category": "Tax preparation service",
    "phone": "+1 775-883-9621",
    "website": "",
    "address": "1893 E Long St, Carson City, NV 89706",
    "city": "Carson City",
    "state": "Nevada",
    "state_code": "NV",
    "postal_code": "89706",
    "latitude": 39.1743976,
    "longitude": -119.7466304,
    "rating": 4.0,
    "reviews": 4,
    "place_id": "ChIJaeCyOIYKmYARXAxeqO7Aybk"
  },
  {
    "name": "H&R Block",
    "category": "Tax preparation service",
    "phone": "+1 775-882-4996",
    "website": "https://www.hrblock.com/tax-office-near-me/nevada/carson-city/27613/%3Fotppartnerid%3D9308%26campaignid%3Dpw_mcm_9308_9762%26utm_medium%3Dlocal",
    "address": "1426 E William St Ste 5, Carson City, NV 89701",
    "city": "Carson City",
    "state": "Nevada",
    "state_code": "NV",
    "postal_code": "89701",
    "latitude": 39.1722123,
    "longitude": -119.7527832,
    "rating": 4.6,
    "reviews": 164,
    "place_id": "ChIJ57H1DcAKmYARrzU1G_gp3vY"
  },
  {
    "name": "John R Whitesides, Enrolled Agent",
    "category": "Tax preparation service",
    "phone": "+1 888-501-8899",
    "website": "https://whitesidesea.com/",
    "address": "710 S Division St, Carson City, NV 89703",
    "city": "Carson City",
    "state": "Nevada",
    "state_code": "NV",
    "postal_code": "89703",
    "latitude": 39.1594953,
    "longitude": -119.7697638,
    "rating": 4.0,
    "reviews": 1,
    "place_id": "ChIJHzcjdAqgmYARhfLsz6qrcx0"
  },
  {
    "name": "Strong Mc Pherson & Co",
    "category": "Tax preparation service",
    "phone": "+1 775-882-4460",
    "website": "",
    "address": "202 S Pratt Ave, Carson City, NV 89701",
    "city": "Carson City",
    "state": "Nevada",
    "state_code": "NV",
    "postal_code": "89701",
    "latitude": 39.1629235,
    "longitude": -119.7601315,
    "rating": 4.0,
    "reviews": 3,
    "place_id": "ChIJ5Tnz_Z0KmYARRPSwHbaPtOw"
  },
  {
    "name": "Carlos Torres Agency",
    "category": "Tax preparation service",
    "phone": "+1 775-690-1632",
    "website": "",
    "address": "675 Fairview Dr Ste. 224, Carson City, NV 89701",
    "city": "Carson City",
    "state": "Nevada",
    "state_code": "NV",
    "postal_code": "89701",
    "latitude": 39.1494554,
    "longitude": -119.7614118,
    "rating": 3.7,
    "reviews": 3,
    "place_id": "ChIJ7x_1R2ygmYARXmlEUNlI4gg"
  },
  {
    "name": "H&R Block",
    "category": "Tax preparation service",
    "phone": "+1 775-888-9935",
    "website": "https://www.hrblock.com/tax-office-near-me/nevada/carson-city/64039/%3Fotppartnerid%3D9308%26campaignid%3Dpw_mcm_9308_9762%26utm_medium%3Dlocal",
    "address": "3790 N Hwy 395 Ste 302, Carson City, NV 89705",
    "city": "Carson City",
    "state": "Nevada",
    "state_code": "NV",
    "postal_code": "89705",
    "latitude": 39.112886,
    "longitude": -119.774941,
    "rating": 4.6,
    "reviews": 40,
    "place_id": "ChIJTa1vGIUKmYARkkmT-yFMAA8"
  },
  {
    "name": "Jackson Hewitt Tax Service",
    "category": "Tax preparation",
    "phone": "+1 702-346-7378",
    "website": "https://office.jacksonhewitt.com/tax-preparation-services-locations/en/nv/mesquite/355-w-mesquite-blvd/10760%3Futm_source%3Dgoogle%26utm_medium%3Dlocal%26utm_campaign%3Dlocal%26utm_content%3D10760",
    "address": "355 W Mesquite Blvd C50, Mesquite, NV 89027",
    "city": "Mesquite",
    "state": "Nevada",
    "state_code": "NV",
    "postal_code": "89027",
    "latitude": 36.8048086,
    "longitude": -114.0739293,
    "rating": 4.6,
    "reviews": 45,
    "place_id": "ChIJV7mC6zgryoARNgBzTpxO3jQ"
  },
  {
    "name": "Jackson Hewitt Tax Service",
    "category": "Tax preparation",
    "phone": "+1 702-622-0264",
    "website": "https://office.jacksonhewitt.com/tax-preparation-services-locations/en/nv/mesquite/1120-west-pioneer-boulevard/53847%3Futm_source%3Dgoogle%26utm_medium%3Dlocal%26utm_campaign%3Dlocal%26utm_content%3D53847",
    "address": "1120 W Pioneer Blvd, Mesquite, NV 89027",
    "city": "Mesquite",
    "state": "Nevada",
    "state_code": "NV",
    "postal_code": "89027",
    "latitude": 36.8050272,
    "longitude": -114.1071981,
    "rating": 4.5,
    "reviews": 19,
    "place_id": "ChIJd7yIxOcqyoARjDC_PRZtNY0"
  },
  {
    "name": "H&R Block",
    "category": "Tax preparation service",
    "phone": "+1 702-346-5797",
    "website": "https://www.hrblock.com/tax-office-near-me/nevada/mesquite/64096/%3Fotppartnerid%3D9308%26campaignid%3Dpw_mcm_9308_9762%26utm_medium%3Dlocal",
    "address": "483 W Mesquite Blvd, Mesquite, NV 89027",
    "city": "Mesquite",
    "state": "Nevada",
    "state_code": "NV",
    "postal_code": "89027",
    "latitude": 36.8042981,
    "longitude": -114.0798881,
    "rating": 4.8,
    "reviews": 96,
    "place_id": "ChIJ3dmA7TsryoARCOr-4-eo3qQ"
  },
  {
    "name": "JD Higley Company",
    "category": "Tax preparation service",
    "phone": "+1 702-293-2323",
    "website": "http://www.jdhigley.com/",
    "address": "1234 Wyoming St, Boulder City, NV 89005",
    "city": "Boulder City",
    "state": "Nevada",
    "state_code": "NV",
    "postal_code": "89005",
    "latitude": 35.9769392,
    "longitude": -114.8361226,
    "rating": 4.7,
    "reviews": 3,
    "place_id": "ChIJhU5jSzQryYARgVmp8s8N1w4"
  },
  {
    "name": "H&R Block",
    "category": "Tax preparation service",
    "phone": "+1 702-294-0648",
    "website": "https://www.hrblock.com/tax-office-near-me/nevada/boulder-city/27877/%3Fotppartnerid%3D9308%26campaignid%3Dpw_mcm_9308_9762%26utm_medium%3Dlocal",
    "address": "806 Buchanan Blvd Ste 107, Boulder City, NV 89005",
    "city": "Boulder City",
    "state": "Nevada",
    "state_code": "NV",
    "postal_code": "89005",
    "latitude": 35.9721737,
    "longitude": -114.8458929,
    "rating": 4.5,
    "reviews": 68,
    "place_id": "ChIJFywQWy0ryYARq23Hz3IQwfw"
  },
  {
    "name": "H&R Block",
    "category": "Tax preparation service",
    "phone": "+1 775-782-3960",
    "website": "https://www.hrblock.com/tax-office-near-me/nevada/minden/27617/%3Fotppartnerid%3D9308%26campaignid%3Dpw_mcm_9308_9762%26utm_medium%3Dlocal",
    "address": "1758 N Hwy 395 Unit H, Minden, NV 89423",
    "city": "Minden",
    "state": "Nevada",
    "state_code": "NV",
    "postal_code": "89423",
    "latitude": 38.9622932,
    "longitude": -119.7811554,
    "rating": 4.8,
    "reviews": 161,
    "place_id": "ChIJT2vAsHm9mYARTm27FUBv0RQ"
  },
  {
    "name": "Richard J Peters Jr & Co",
    "category": "Tax preparation service",
    "phone": "+1 775-782-2253",
    "website": "",
    "address": "1643 Esmeralda Ave, Minden, NV 89423",
    "city": "Minden",
    "state": "Nevada",
    "state_code": "NV",
    "postal_code": "89423",
    "latitude": 38.9557744,
    "longitude": -119.7695271,
    "rating": 5.0,
    "reviews": 1,
    "place_id": "ChIJGQJDkJa9mYAR2rW9lEjxxss"
  },
  {
    "name": "Premier Tax & Insurance Multi Services",
    "category": "Tax preparation service",
    "phone": "+1 702-834-4155",
    "website": "",
    "address": "845 N Eastern Ave, Las Vegas, NV 89101",
    "city": "Las Vegas",
    "state": "Nevada",
    "state_code": "NV",
    "postal_code": "89101",
    "latitude": 36.17947729999999,
    "longitude": -115.1157848,
    "rating": 4.9,
    "reviews": 233,
    "place_id": "ChIJY__9RT7DyIAR9de9CTB1Jk8"
  },
  {
    "name": "Paramount Tax & Accounting of Las Vegas Central",
    "category": "Tax preparation",
    "phone": "+1 702-983-0115",
    "website": "https://paramount.tax/las-vegas%3Flocation%3Dlasvegascentral",
    "address": "8170 W Sahara Ave Suite 200-201, Las Vegas, NV 89117",
    "city": "Las Vegas",
    "state": "Nevada",
    "state_code": "NV",
    "postal_code": "89117",
    "latitude": 36.1449735,
    "longitude": -115.269358,
    "rating": 4.8,
    "reviews": 62,
    "place_id": "ChIJVVWlBpfAyIAR5LBcZr7YxBs"
  },
  {
    "name": "Paramount Tax & Accounting of Las Vegas West",
    "category": "Tax preparation",
    "phone": "+1 702-343-9257",
    "website": "https://paramount.tax/las-vegas%3Flocation%3Dvegaswest",
    "address": "8430 W Lake Mead Blvd # 100, Las Vegas, NV 89128",
    "city": "Las Vegas",
    "state": "Nevada",
    "state_code": "NV",
    "postal_code": "89128",
    "latitude": 36.1987703,
    "longitude": -115.2792446,
    "rating": 4.8,
    "reviews": 95,
    "place_id": "ChIJ2zbTbsPByIAR0AaOjTkN43o"
  },
  {
    "name": "iQTAXX Tax Services Las Vegas",
    "category": "Tax preparation",
    "phone": "+1 702-871-7884",
    "website": "http://www.iqtaxx.com/",
    "address": "6332 S Rainbow Blvd #100, Las Vegas, NV 89118",
    "city": "Las Vegas",
    "state": "Nevada",
    "state_code": "NV",
    "postal_code": "89118",
    "latitude": 36.0737053,
    "longitude": -115.2420965,
    "rating": 4.7,
    "reviews": 149,
    "place_id": "ChIJIzxAWSfHyIAReYoG-_EN_SQ"
  },
  {
    "name": "Premium Tax & Services LLC",
    "category": "Tax preparation service",
    "phone": "+1 702-386-0962",
    "website": "https://www.irs.gov/affordable-care-act/individuals-and-families/the-premium-tax-credit-the-basics-0",
    "address": "730 N Eastern Ave # 140, Las Vegas, NV 89101",
    "city": "Las Vegas",
    "state": "Nevada",
    "state_code": "NV",
    "postal_code": "89101",
    "latitude": 36.1768052,
    "longitude": -115.1153278,
    "rating": 4.9,
    "reviews": 34,
    "place_id": "ChIJRXHPiD_DyIARa_GqPIXFvrQ"
  },
  {
    "name": "TurboTax - Downtown, Las Vegas",
    "category": "Tax preparation",
    "phone": "+1 702-425-3964",
    "website": "https://turbotax.intuit.com/local-tax-offices/nv/las-vegas/4f472589ecb54b32a3c009ca4c1efecf/",
    "address": "300 S 4th St #681 6th Floor, Office 680, Las Vegas, NV 89101",
    "city": "Las Vegas",
    "state": "Nevada",
    "state_code": "NV",
    "postal_code": "89101",
    "latitude": 36.1672535,
    "longitude": -115.1439209,
    "rating": 4.8,
    "reviews": 140,
    "place_id": "ChIJ2btUm2rDyIARoLGI9XoF9oY"
  },
  {
    "name": "Compass Taxes",
    "category": "Tax preparation service",
    "phone": "+1 702-410-9000",
    "website": "http://compasstaxes.com/",
    "address": "224 S Jones Blvd, Las Vegas, NV 89107",
    "city": "Las Vegas",
    "state": "Nevada",
    "state_code": "NV",
    "postal_code": "89107",
    "latitude": 36.1703092,
    "longitude": -115.2237094,
    "rating": 4.9,
    "reviews": 324,
    "place_id": "ChIJUSWWUCHHyIARn2TikU1a08o"
  },
  {
    "name": "The Professional Multiservices",
    "category": "Tax preparation service",
    "phone": "+1 702-531-0330",
    "website": "https://www.theprofessionalmultiservices.com/",
    "address": "60 N 25th St. Eastern Ave. Suite #140, 60 N 25th St, Las Vegas, NV 89101",
    "city": "Las Vegas",
    "state": "Nevada",
    "state_code": "NV",
    "postal_code": "89101",
    "latitude": 36.1612256,
    "longitude": -115.1154736,
    "rating": 5.0,
    "reviews": 409,
    "place_id": "ChIJUfkzeF7DyIAR-I9-zt8B-Ck"
  },
  {
    "name": "American Tax Service | IRS Help & Tax Services",
    "category": "Tax preparation service",
    "phone": "+1 800-213-0699",
    "website": "https://americantaxservice.com/",
    "address": "101 Convention Center Dr #1200, Las Vegas, NV 89109",
    "city": "Las Vegas",
    "state": "Nevada",
    "state_code": "NV",
    "postal_code": "89109",
    "latitude": 36.131931,
    "longitude": -115.160451,
    "rating": 3.2,
    "reviews": 44,
    "place_id": "ChIJD8Sci0bFyIARuwsxSs4RJ6o"
  },
  {
    "name": "United Tax & Multiservices LLC",
    "category": "Tax preparation service",
    "phone": "+1 702-846-1743",
    "website": "",
    "address": "1720 E Charleston Blvd, Las Vegas, NV 89104",
    "city": "Las Vegas",
    "state": "Nevada",
    "state_code": "NV",
    "postal_code": "89104",
    "latitude": 36.1572077,
    "longitude": -115.127494,
    "rating": 5.0,
    "reviews": 13,
    "place_id": "ChIJG-g_8AzDyIARYawxo3RPBHM"
  },
  {
    "name": "Ingles Income Tax Services LLC",
    "category": "Tax preparation service",
    "phone": "+1 702-371-8869",
    "website": "https://iits.tax/",
    "address": "3230 S Buffalo Dr #105, Las Vegas, NV 89117",
    "city": "Las Vegas",
    "state": "Nevada",
    "state_code": "NV",
    "postal_code": "89117",
    "latitude": 36.130446,
    "longitude": -115.260286,
    "rating": 4.8,
    "reviews": 21,
    "place_id": "ChIJs-v29qnGyIARK3gQ40X9M38"
  },
  {
    "name": "Rainbow Tax Service, Inc.",
    "category": "Tax preparation service",
    "phone": "+1 702-802-0705",
    "website": "https://localtaxpreparationlasvegasnv.com/",
    "address": "777 N Rainbow Blvd #145, Las Vegas, NV 89107",
    "city": "Las Vegas",
    "state": "Nevada",
    "state_code": "NV",
    "postal_code": "89107",
    "latitude": 36.1803783,
    "longitude": -115.2435753,
    "rating": 3.8,
    "reviews": 10,
    "place_id": "ChIJgbJ_bk7AyIAR2AfRDuHXyYc"
  },
  {
    "name": "Aztec Tax Solutions",
    "category": "Tax preparation service",
    "phone": "+1 844-593-2509",
    "website": "https://ivon.aztectaxsolutions.com/tax-planning",
    "address": "4855 W Desert Inn Rd #102 B, Las Vegas, NV 89102",
    "city": "Las Vegas",
    "state": "Nevada",
    "state_code": "NV",
    "postal_code": "89102",
    "latitude": 36.1297504,
    "longitude": -115.2070176,
    "rating": 4.9,
    "reviews": 224,
    "place_id": "ChIJ9eWWM_XEyIARt-6kV2i9jy4"
  },
  {
    "name": "Valerio Tax Services, DMV Services & Insurance",
    "category": "Tax preparation service",
    "phone": "+1 702-220-8721",
    "website": "https://valerioinsuranceservices.com/",
    "address": "4583 W Desert Inn Rd, Las Vegas, NV 89102",
    "city": "Las Vegas",
    "state": "Nevada",
    "state_code": "NV",
    "postal_code": "89102",
    "latitude": 36.1297055,
    "longitude": -115.2034346,
    "rating": 4.7,
    "reviews": 166,
    "place_id": "ChIJY3cfs6_GyIARV3AFB2PIXoI"
  },
  {
    "name": "QualityTax",
    "category": "Tax preparation service",
    "phone": "+1 702-331-9636",
    "website": "",
    "address": "3201 W Sahara Ave A, Las Vegas, NV 89102",
    "city": "Las Vegas",
    "state": "Nevada",
    "state_code": "NV",
    "postal_code": "89102",
    "latitude": 36.1439486,
    "longitude": -115.1846039,
    "rating": 5.0,
    "reviews": 28,
    "place_id": "ChIJHZ4c5v7DyIARPwptVzX3biE"
  },
  {
    "name": "Jenny's Tax Multiservices",
    "category": "Tax preparation service",
    "phone": "+1 702-331-7100",
    "website": "",
    "address": "513 S Decatur Blvd Suite A, Las Vegas, NV 89107",
    "city": "Las Vegas",
    "state": "Nevada",
    "state_code": "NV",
    "postal_code": "89107",
    "latitude": 36.1654177,
    "longitude": -115.205661,
    "rating": 3.9,
    "reviews": 32,
    "place_id": "ChIJF6rWXX_ByIAR1F38IbzbDCk"
  },
  {
    "name": "Nevada Tax Solutions",
    "category": "Tax preparation service",
    "phone": "+1 702-227-9057",
    "website": "",
    "address": "4840 Spring Mountain Rd UNIT 5, Las Vegas, NV 89102",
    "city": "Las Vegas",
    "state": "Nevada",
    "state_code": "NV",
    "postal_code": "89102",
    "latitude": 36.1266648,
    "longitude": -115.2059267,
    "rating": 4.0,
    "reviews": 59,
    "place_id": "ChIJr1Z8urDGyIART_CUgO-IVhI"
  },
  {
    "name": "BD TAX GROUP",
    "category": "Tax preparation service",
    "phone": "+1 702-247-1373",
    "website": "https://bdtaxgroup.info/",
    "address": "2475 S Jones Blvd #9, Las Vegas, NV 89146",
    "city": "Las Vegas",
    "state": "Nevada",
    "state_code": "NV",
    "postal_code": "89146",
    "latitude": 36.1455791,
    "longitude": -115.2258636,
    "rating": 5.0,
    "reviews": 72,
    "place_id": "ChIJYyzUf97ByIAR2VaJ9C5qAnM"
  },
  {
    "name": "Lv Tax Services",
    "category": "Tax preparation service",
    "phone": "+1 702-358-7107",
    "website": "",
    "address": "1810 E Sahara Ave APT 229, Las Vegas, NV 89104",
    "city": "Las Vegas",
    "state": "Nevada",
    "state_code": "NV",
    "postal_code": "89104",
    "latitude": 36.1451522,
    "longitude": -115.1248533,
    "rating": 5.0,
    "reviews": 2,
    "place_id": "ChIJheWRY8fFyIARhee0nzIgT1U"
  },
  {
    "name": "GM NATIONAL TAX SERVICES LLC",
    "category": "Tax preparation service",
    "phone": "+1 702-459-0408",
    "website": "",
    "address": "4375 Stewart Ave, Las Vegas, NV 89110",
    "city": "Las Vegas",
    "state": "Nevada",
    "state_code": "NV",
    "postal_code": "89110",
    "latitude": 36.1669566,
    "longitude": -115.0814068,
    "rating": 4.8,
    "reviews": 43,
    "place_id": "ChIJtXiPzKfcyIARDUyLXMylazY"
  },
  {
    "name": "Tax Samaritan",
    "category": "Tax preparation service",
    "phone": "+1 775-305-1040",
    "website": "https://www.taxsamaritan.com/",
    "address": "6616 N Ruddock Dr, North Las Vegas, NV 89084",
    "city": "North Las Vegas",
    "state": "Nevada",
    "state_code": "NV",
    "postal_code": "89084",
    "latitude": 36.2802199,
    "longitude": -115.1897667,
    "rating": 4.8,
    "reviews": 127,
    "place_id": "ChIJgbusYjfqyIAR2oCX0jq3unI"
  },
  {
    "name": "Integrity Income Tax",
    "category": "Tax preparation service",
    "phone": "+1 702-675-4560",
    "website": "",
    "address": "4425 Stewart Ave, Las Vegas, NV 89110",
    "city": "Las Vegas",
    "state": "Nevada",
    "state_code": "NV",
    "postal_code": "89110",
    "latitude": 36.167066,
    "longitude": -115.0796653,
    "rating": 5.0,
    "reviews": 14,
    "place_id": "ChIJc8FRrqfcyIARh9kbbgpF0ZE"
  },
  {
    "name": "Las Vegas Business Services",
    "category": "Tax preparation service",
    "phone": "+1 702-255-7467",
    "website": "",
    "address": "3230 S Buffalo Dr #104, Las Vegas, NV 89117",
    "city": "Las Vegas",
    "state": "Nevada",
    "state_code": "NV",
    "postal_code": "89117",
    "latitude": 36.13045779999999,
    "longitude": -115.2602154,
    "rating": 4.7,
    "reviews": 13,
    "place_id": "ChIJhYLDnDDHyIARHoojSEhOGn8"
  },
  {
    "name": "A & A Taxes",
    "category": "Tax preparation service",
    "phone": "+1 702-635-1984",
    "website": "",
    "address": "2980 S Rainbow Blvd 110 K, Las Vegas, NV 89146",
    "city": "Las Vegas",
    "state": "Nevada",
    "state_code": "NV",
    "postal_code": "89146",
    "latitude": 36.135209,
    "longitude": -115.2424517,
    "rating": 4.2,
    "reviews": 47,
    "place_id": "ChIJoVfHK9HAyIARXT3A_2qIYGA"
  },
  {
    "name": "XPCzone Income Tax Services",
    "category": "Tax preparation service",
    "phone": "+1 702-800-5804",
    "website": "https://incometaxservices.us/",
    "address": "3305 Spring Mountain Rd UNIT 68, Las Vegas, NV 89102",
    "city": "Las Vegas",
    "state": "Nevada",
    "state_code": "NV",
    "postal_code": "89102",
    "latitude": 36.125331,
    "longitude": -115.1835165,
    "rating": 5.0,
    "reviews": 163,
    "place_id": "ChIJbckLNsnPwoARjKYoynIN90s"
  },
  {
    "name": "AMERICAS TAX SERVICES",
    "category": "Tax preparation service",
    "phone": "+1 702-256-5510",
    "website": "",
    "address": "ONE LOCATION, 2700 E Lake Mead Blvd ste 2, North Las Vegas, NV 89030",
    "city": "North Las Vegas",
    "state": "Nevada",
    "state_code": "NV",
    "postal_code": "89030",
    "latitude": 36.1964812,
    "longitude": -115.1118818,
    "rating": 4.6,
    "reviews": 27,
    "place_id": "ChIJxw5rEaLDyIAR81XuLYWCn0A"
  },
  {
    "name": "Nevada Free Taxes Coalition",
    "category": "Tax preparation",
    "phone": "+1 702-987-4625",
    "website": "http://nvfreetaxes.org/",
    "address": "4825 S Rainbow Blvd, Las Vegas, NV 89103",
    "city": "Las Vegas",
    "state": "Nevada",
    "state_code": "NV",
    "postal_code": "89103",
    "latitude": 36.1009443,
    "longitude": -115.2443576,
    "rating": 4.3,
    "reviews": 99,
    "place_id": "ChIJhxuxaBTGyIARCBhbswd30Qk"
  },
  {
    "name": "Miss Tax LLC",
    "category": "Tax preparation service",
    "phone": "+1 702-292-2264",
    "website": "https://splinternetmarketing.com/local-pros/nevada/las-vegas/miss-tax-llc/",
    "address": "6747 Segura Dr, Las Vegas, NV 89103",
    "city": "Las Vegas",
    "state": "Nevada",
    "state_code": "NV",
    "postal_code": "89103",
    "latitude": 36.1199956,
    "longitude": -115.2395209,
    "rating": 4.8,
    "reviews": 32,
    "place_id": "ChIJlc-K9ijHyIARiZt9sTYHU94"
  },
  {
    "name": "Nevada Tax Solutions Corporation",
    "category": "Tax preparation service",
    "phone": "+1 702-448-2506",
    "website": "",
    "address": "Parking lot, 4441 E Bonanza Rd # 130, Las Vegas, NV 89110",
    "city": "Las Vegas",
    "state": "Nevada",
    "state_code": "NV",
    "postal_code": "89110",
    "latitude": 36.1729354,
    "longitude": -115.0784759,
    "rating": 4.3,
    "reviews": 19,
    "place_id": "ChIJbY9o76TcyIARlLh1VxiHdwU"
  },
  {
    "name": "LP Tax Services, LLC",
    "category": "Tax preparation service",
    "phone": "+1 702-758-2174",
    "website": "",
    "address": "4550 W Oakey Blvd, Las Vegas, NV 89102",
    "city": "Las Vegas",
    "state": "Nevada",
    "state_code": "NV",
    "postal_code": "89102",
    "latitude": 36.1523556,
    "longitude": -115.2034773,
    "rating": 4.7,
    "reviews": 25,
    "place_id": "ChIJPWAFrtLEyIAR-8PKL9elkPA"
  },
  {
    "name": "I Can Help Tax & Bookkeeping",
    "category": "Tax preparation service",
    "phone": "+1 702-878-6595",
    "website": "",
    "address": "101 S Rainbow Blvd #13, Las Vegas, NV 89145",
    "city": "Las Vegas",
    "state": "Nevada",
    "state_code": "NV",
    "postal_code": "89145",
    "latitude": 36.1721266,
    "longitude": -115.2429793,
    "rating": 4.7,
    "reviews": 12,
    "place_id": "ChIJA0YKRF3AyIARf_OuT_ATwfI"
  },
  {
    "name": "Jackson Hewitt Tax Service",
    "category": "Tax preparation",
    "phone": "+1 702-420-2492",
    "website": "https://office.jacksonhewitt.com/tax-preparation-services-locations/en/nv/las-vegas/4750-west-sahara-avenue/19908%3Futm_source%3Dgoogle%26utm_medium%3Dlocal%26utm_campaign%3Dlocal%26utm_content%3D19908",
    "address": "4750 W Sahara Ave Suite 1, Las Vegas, NV 89102",
    "city": "Las Vegas",
    "state": "Nevada",
    "state_code": "NV",
    "postal_code": "89102",
    "latitude": 36.1451281,
    "longitude": -115.206603,
    "rating": 4.8,
    "reviews": 164,
    "place_id": "ChIJ954CU0_ByIARN66Wn27I7qo"
  },
  {
    "name": "Jack's Tax Service",
    "category": "Tax preparation service",
    "phone": "+1 702-642-6131",
    "website": "https://www.jacks-tax.com/",
    "address": "2535 W Craig Rd Ste 103, North Las Vegas, NV 89032",
    "city": "North Las Vegas",
    "state": "Nevada",
    "state_code": "NV",
    "postal_code": "89032",
    "latitude": 36.23847629999999,
    "longitude": -115.176606,
    "rating": 4.4,
    "reviews": 36,
    "place_id": "ChIJXy77uyLDyIARAPKt7blDBM4"
  },
  {
    "name": "Toro Taxes 840 RAINBOW",
    "category": "Tax preparation service",
    "phone": "+1 702-675-8238",
    "website": "https://torotaxes.com/locations/nv840",
    "address": "840 N Rainbow Blvd, Las Vegas, NV 89107",
    "city": "Las Vegas",
    "state": "Nevada",
    "state_code": "NV",
    "postal_code": "89107",
    "latitude": 36.180768,
    "longitude": -115.2413307,
    "rating": 4.5,
    "reviews": 44,
    "place_id": "ChIJg4TT103AyIARHMbcvyFWg5c"
  },
  {
    "name": "Targeted Tax Relief",
    "category": "Tax consultant",
    "phone": "+1 702-852-1636",
    "website": "http://targetedtaxrelief.com/",
    "address": "2580 N Buffalo Dr #100, Las Vegas, NV 89128",
    "city": "Las Vegas",
    "state": "Nevada",
    "state_code": "NV",
    "postal_code": "89128",
    "latitude": 36.2072381,
    "longitude": -115.2602613,
    "rating": 5.0,
    "reviews": 31,
    "place_id": "ChIJ6dvsecnryIARv7DJ9LuPq3E"
  },
  {
    "name": "TD TAX GROUP, LLC",
    "category": "Tax preparation",
    "phone": "+1 702-247-1373",
    "website": "",
    "address": "2475 S Jones Blvd #9, Las Vegas, NV 89146",
    "city": "Las Vegas",
    "state": "Nevada",
    "state_code": "NV",
    "postal_code": "89146",
    "latitude": 36.1455791,
    "longitude": -115.2258636,
    "rating": 4.9,
    "reviews": 9,
    "place_id": "ChIJ-XiLvyTByIARub6tVXsXxB0"
  },
  {
    "name": "Tax Man, Inc.",
    "category": "Tax preparation service",
    "phone": "+1 702-364-2520",
    "website": "http://taxmaninc.com/",
    "address": "8925 W Russell Rd suite 145, Las Vegas, NV 89148",
    "city": "Las Vegas",
    "state": "Nevada",
    "state_code": "NV",
    "postal_code": "89148",
    "latitude": 36.0837587,
    "longitude": -115.2863699,
    "rating": 5.0,
    "reviews": 12,
    "place_id": "ChIJmeErSoK4yIARMHiaxdbr4V4"
  },
  {
    "name": "Jackson Hewitt Tax Service",
    "category": "Tax preparation",
    "phone": "+1 702-829-3688",
    "website": "https://office.jacksonhewitt.com/tax-preparation-services-locations/en/nv/north-las-vegas/1807-w-craig-rd/52592%3Futm_source%3Dgoogle%26utm_medium%3Dlocal%26utm_campaign%3Dlocal%26utm_content%3D52592",
    "address": "1807 W Craig Rd, North Las Vegas, NV 89032",
    "city": "North Las Vegas",
    "state": "Nevada",
    "state_code": "NV",
    "postal_code": "89032",
    "latitude": 36.23657,
    "longitude": -115.167971,
    "rating": 4.9,
    "reviews": 353,
    "place_id": "ChIJj4xliMLpyIARgLrEwk-gQFg"
  },
  {
    "name": "Perfect Tax - El Mayor Reembolso",
    "category": "Tax preparation",
    "phone": "+1 702-910-2584",
    "website": "",
    "address": "2500 E Tonopah Ave, North Las Vegas, NV 89030",
    "city": "North Las Vegas",
    "state": "Nevada",
    "state_code": "NV",
    "postal_code": "89030",
    "latitude": 36.1923807,
    "longitude": -115.1159554,
    "rating": 4.6,
    "reviews": 23,
    "place_id": "ChIJRWnkjSHDyIARExNZHXVh9QY"
  },
  {
    "name": "Lino's Tax Service",
    "category": "Tax preparation service",
    "phone": "+1 702-568-2000",
    "website": "",
    "address": "552 N Eastern Ave, Las Vegas, NV 89101",
    "city": "Las Vegas",
    "state": "Nevada",
    "state_code": "NV",
    "postal_code": "89101",
    "latitude": 36.1721715,
    "longitude": -115.1156111,
    "rating": 4.3,
    "reviews": 87,
    "place_id": "ChIJ7XhitkHDyIARkdQONECKr2k"
  },
  {
    "name": "Azucena Tax & Multiservices",
    "category": "Tax preparation service",
    "phone": "+1 702-752-4161",
    "website": "https://azucenataxes.my.canva.site/",
    "address": "1829 E Charleston Blvd Suite Unit 104, Las Vegas, NV 89104",
    "city": "Las Vegas",
    "state": "Nevada",
    "state_code": "NV",
    "postal_code": "89104",
    "latitude": 36.1592219,
    "longitude": -115.1236386,
    "rating": 5.0,
    "reviews": 5,
    "place_id": "ChIJ77izbhzDyIARSMsmPjcRHDw"
  },
  {
    "name": "I-Taxes",
    "category": "Tax preparation service",
    "phone": "+1 702-940-9662",
    "website": "",
    "address": "4532 W Charleston Blvd, Las Vegas, NV 89102",
    "city": "Las Vegas",
    "state": "Nevada",
    "state_code": "NV",
    "postal_code": "89102",
    "latitude": 36.1593211,
    "longitude": -115.2032959,
    "rating": 4.7,
    "reviews": 161,
    "place_id": "ChIJ9a6UVmjByIARcD4wCtW3_C8"
  },
  {
    "name": "Anaya Multiservice LLC",
    "category": "Income tax help association",
    "phone": "+1 702-724-1600",
    "website": "",
    "address": "235 N Eastern Ave #110, Las Vegas, NV 89101",
    "city": "Las Vegas",
    "state": "Nevada",
    "state_code": "NV",
    "postal_code": "89101",
    "latitude": 36.1657881,
    "longitude": -115.1168044,
    "rating": 4.7,
    "reviews": 81,
    "place_id": "ChIJHa17dl7DyIARmawL5vO-g2o"
  },
  {
    "name": "ServiTax West Charleston",
    "category": "Tax preparation service",
    "phone": "+1 702-362-5814",
    "website": "",
    "address": "4522 W Charleston Blvd, Las Vegas, NV 89102",
    "city": "Las Vegas",
    "state": "Nevada",
    "state_code": "NV",
    "postal_code": "89102",
    "latitude": 36.1593523,
    "longitude": -115.202788,
    "rating": 4.4,
    "reviews": 9,
    "place_id": "ChIJ34KcAavGyIARYFXXdIBXNxI"
  },
  {
    "name": "Maxi Tax & Book Keeping",
    "category": "Tax preparation service",
    "phone": "+1 702-733-4900",
    "website": "",
    "address": "5600 Spring Mountain Rd #107, Las Vegas, NV 89146",
    "city": "Las Vegas",
    "state": "Nevada",
    "state_code": "NV",
    "postal_code": "89146",
    "latitude": 36.1265084,
    "longitude": -115.2182851,
    "rating": 5.0,
    "reviews": 2,
    "place_id": "ChIJ_V2VM8nGyIARacdPHEYR_M8"
  },
  {
    "name": "Trans Pacific Multiservice LLC",
    "category": "Tax preparation service",
    "phone": "+1 702-944-9716",
    "website": "http://transpacificmultiservice.com/%3Futm_source%3Dgmb%26utm_medium%3Dreferral",
    "address": "5440 W Sahara Ave #109, Las Vegas, NV 89146",
    "city": "Las Vegas",
    "state": "Nevada",
    "state_code": "NV",
    "postal_code": "89146",
    "latitude": 36.145196,
    "longitude": -115.215517,
    "rating": 4.4,
    "reviews": 13,
    "place_id": "ChIJKUscy6rByIARoTKuOc-2SbY"
  },
  {
    "name": "Tax and Wealth Group",
    "category": "Tax consultant",
    "phone": "+1 702-202-0733",
    "website": "",
    "address": "2380 N Buffalo Dr Ste 125, Las Vegas, NV 89128",
    "city": "Las Vegas",
    "state": "Nevada",
    "state_code": "NV",
    "postal_code": "89128",
    "latitude": 36.2031099,
    "longitude": -115.2602202,
    "rating": 5.0,
    "reviews": 14,
    "place_id": "ChIJl8Rk0jzAyIARigowPMwXqWo"
  },
  {
    "name": "CHAVEZ Tax Services",
    "category": "Tax preparation service",
    "phone": "+1 702-982-1177",
    "website": "",
    "address": "869 N Eastern Ave, Las Vegas, NV 89101",
    "city": "Las Vegas",
    "state": "Nevada",
    "state_code": "NV",
    "postal_code": "89101",
    "latitude": 36.18062949999999,
    "longitude": -115.1156888,
    "rating": 5.0,
    "reviews": 34,
    "place_id": "ChIJ_W-nQe3DyIARgeDDyPHICQE"
  },
  {
    "name": "IMG Tax Business Services",
    "category": "Tax preparation service",
    "phone": "+1 702-759-7820",
    "website": "",
    "address": "535 S 10th St, Las Vegas, NV 89101",
    "city": "Las Vegas",
    "state": "Nevada",
    "state_code": "NV",
    "postal_code": "89101",
    "latitude": 36.1610678,
    "longitude": -115.1383498,
    "rating": 5.0,
    "reviews": 4,
    "place_id": "ChIJpZU8K3jDyIARhy3uW2opsCQ"
  },
  {
    "name": "Desert Multiservice LLC",
    "category": "Tax preparation service",
    "phone": "+1 833-375-3934",
    "website": "http://www.desertmultiservice.com/",
    "address": "2801 S Valley View Blvd Suite 4, Las Vegas, NV 89102",
    "city": "Las Vegas",
    "state": "Nevada",
    "state_code": "NV",
    "postal_code": "89102",
    "latitude": 36.1405369,
    "longitude": -115.1911274,
    "rating": 5.0,
    "reviews": 27,
    "place_id": "ChIJZemddADByIARDHiO21tHFoo"
  },
  {
    "name": "Taxlink Service",
    "category": "Tax preparation service",
    "phone": "+1 702-272-0548",
    "website": "http://taxlinkservice.com/",
    "address": "4170 S Decatur Blvd D4, Las Vegas, NV 89103",
    "city": "Las Vegas",
    "state": "Nevada",
    "state_code": "NV",
    "postal_code": "89103",
    "latitude": 36.1139385,
    "longitude": -115.2071179,
    "rating": 5.0,
    "reviews": 11,
    "place_id": "ChIJWzu2-nHHyIARDm47w7NUJ-Q"
  },
  {
    "name": "Extra Multiservices Ltd",
    "category": "Tax preparation service",
    "phone": "+1 702-907-6000",
    "website": "",
    "address": "1229 S Eastern Ave, Las Vegas, NV 89104",
    "city": "Las Vegas",
    "state": "Nevada",
    "state_code": "NV",
    "postal_code": "89104",
    "latitude": 36.155416,
    "longitude": -115.1186161,
    "rating": 5.0,
    "reviews": 291,
    "place_id": "ChIJzSO0tZjEyIAR7K7JF2AZuVQ"
  },
  {
    "name": "Toro Taxes",
    "category": "Tax preparation service",
    "phone": "+1 702-380-5000",
    "website": "https://torotaxes.com/locations/nv2320",
    "address": "2320 E Bonanza Rd, Las Vegas, NV 89101",
    "city": "Las Vegas",
    "state": "Nevada",
    "state_code": "NV",
    "postal_code": "89101",
    "latitude": 36.1732867,
    "longitude": -115.1179259,
    "rating": 4.1,
    "reviews": 33,
    "place_id": "ChIJnYzpj2rDyIARUPVEt1dwkMQ"
  },
  {
    "name": "REEF Tax Group",
    "category": "Tax preparation",
    "phone": "+1 702-744-7074",
    "website": "http://reeftaxgroup.com/",
    "address": "7456 W Sahara Ave #102, Las Vegas, NV 89117",
    "city": "Las Vegas",
    "state": "Nevada",
    "state_code": "NV",
    "postal_code": "89117",
    "latitude": 36.1451081,
    "longitude": -115.2549971,
    "rating": 5.0,
    "reviews": 16,
    "place_id": "ChIJabhv48HAyIARRJkonxeNPlg"
  },
  {
    "name": "Kuya Income Tax Service",
    "category": "Tax preparation",
    "phone": "+1 213-662-5563",
    "website": "",
    "address": "1 S Main St, Las Vegas, NV 89101",
    "city": "Las Vegas",
    "state": "Nevada",
    "state_code": "NV",
    "postal_code": "89101",
    "latitude": 36.1721156,
    "longitude": -115.1469038,
    "rating": 5.0,
    "reviews": 2,
    "place_id": "ChIJy8BVWRPDyIARipFf77CMAXE"
  },