[
  {
    "name": "BrenTax Corporation",
    "category": "Tax preparation service",
    "phone": "+1 506-849-4040",
    "website": "http://www.brentax.com/",
    "address": "38 Marr Rd, Rothesay, NB E2E 3K6",
    "city": "Rothesay",
    "state": "New Brunswick",
    "state_code": "",
    "postal_code": "E2E 3K6",
    "latitude": 45.3938299,
    "longitude": -65.9769361,
    "rating": 4.0,
    "reviews": 29,
    "place_id": "ChIJDQ-wXpOsp0wRY8xBcmTVImA"
  },
  {
    "name": "H&R Block",
    "category": "Tax preparation service",
    "phone": "+1 506-847-9166",
    "website": "https://www.hrblock.ca/stores/52-marr-rd/",
    "address": "52 Marr Rd, Rothesay, NB E2E 3K6",
    "city": "Rothesay",
    "state": "New Brunswick",
    "state_code": "",
    "postal_code": "E2E 3K6",
    "latitude": 45.392567,
    "longitude": -65.9739496,
    "rating": 4.6,
    "reviews": 19,
    "place_id": "ChIJT-ZceJWsp0wR_6JyydAAlY0"
  },
  {
    "name": "Lifetime Tax Services",
    "category": "Tax preparation service",
    "phone": "+1 506-386-3909",
    "website": "https://lifetimetax.ca/",
    "address": "334 Coverdale Rd, Riverview, NB E1B 3J3",
    "city": "Riverview",
    "state": "New Brunswick",
    "state_code": "",
    "postal_code": "E1B 3J3",
    "latitude": 46.06758629999999,
    "longitude": -64.7947306,
    "rating": 4.8,
    "reviews": 94,
    "place_id": "ChIJ06x29wq5oEwR-Eoi0En4VJE"
  },
  {
    "name": "Riverview Tax & Accounting Ltd",
    "category": "Tax preparation service",
    "phone": "+1 506-387-3333",
    "website": "http://t4sandmore.com/",
    "address": "26 Trites Rd, Riverview, NB E1B 2V6",
    "city": "Riverview",
    "state": "New Brunswick",
    "state_code": "",
    "postal_code": "E1B 2V6",
    "latitude": 46.0585628,
    "longitude": -64.8190575,
    "rating": 4.2,
    "reviews": 13,
    "place_id": "ChIJU8U807G5oEwR9tSdjHfNMRc"
  },
  {
    "name": "H&R Block",
    "category": "Tax preparation service",
    "phone": "+1 506-387-4000",
    "website": "https://www.hrblock.ca/stores/424-coverdale-rd-4/",
    "address": "424 Coverdale Rd #4, Riverview, NB E1B 3J9",
    "city": "Riverview",
    "state": "New Brunswick",
    "state_code": "",
    "postal_code": "E1B 3J9",
    "latitude": 46.0644678,
    "longitude": -64.80014899999999,
    "rating": 3.7,
    "reviews": 24,
    "place_id": "ChIJ-4tV95-5oEwRxhBRW8Zeqx4"
  },
  {
    "name": "Tax Pros",
    "category": "Tax preparation service",
    "phone": "+1 506-735-3348",
    "website": "http://www.mcservicescomptables.ca/",
    "address": "8 de l'\u00c9cole-Cormier St, Edmundston, NB E3V 1X6",
    "city": "Edmundston",
    "state": "New Brunswick",
    "state_code": "",
    "postal_code": "E3V 1X6",
    "latitude": 47.3671362,
    "longitude": -68.3272447,
    "rating": 5.0,
    "reviews": 2,
    "place_id": "ChIJSctYsI6pvUwR0beB1e7waHs"
  },
  {
    "name": "ProFile",
    "category": "Income tax help association",
    "phone": "+1 506-740-4348",
    "website": "",
    "address": "5 Laurier-L\u00e9vesque Ave, Saint-Jacques, NB E7B 1K9",
    "city": "Saint-Jacques",
    "state": "New Brunswick",
    "state_code": "",
    "postal_code": "E7B 1K9",
    "latitude": 47.4270104,
    "longitude": -68.3856156,
    "rating": 5.0,
    "reviews": 2,
    "place_id": "ChIJq7l5p9GvvUwRaATjMEy79yE"
  },
  {
    "name": "Liberty Tax",
    "category": "Tax preparation",
    "phone": "+1 506-804-3015",
    "website": "https://www.libertytaxcanada.ca/70155",
    "address": "291 Restigouche Rd, Oromocto, NB E2V 2H2",
    "city": "Oromocto",
    "state": "New Brunswick",
    "state_code": "",
    "postal_code": "E2V 2H2",
    "latitude": 45.8428056,
    "longitude": -66.5058816,
    "rating": 5.0,
    "reviews": 255,
    "place_id": "ChIJGZpShqCdpkwRWcU7EShMve4"
  },
  {
    "name": "H&R Block",
    "category": "Tax preparation service",
    "phone": "+1 506-357-3343",
    "website": "https://www.hrblock.ca/stores/1198-onondaga-st/",
    "address": "1198 Onondaga St, Oromocto, NB E2V 1B8",
    "city": "Oromocto",
    "state": "New Brunswick",
    "state_code": "",
    "postal_code": "E2V 1B8",
    "latitude": 45.8521392,
    "longitude": -66.4742141,
    "rating": 3.3,
    "reviews": 21,
    "place_id": "ChIJI0BhQLCepkwRjX9dKLr3gxA"
  },
  {
    "name": "Reid's Accounting",
    "category": "Tax preparation service",
    "phone": "+1 506-832-7964",
    "website": "https://reidsaccounting.ca/",
    "address": "88 Hilltop Dr, Hampton, NB E5N 5P2",
    "city": "Hampton",
    "state": "New Brunswick",
    "state_code": "",
    "postal_code": "E5N 5P2",
    "latitude": 45.5285817,
    "longitude": -65.8363055,
    "rating": 5.0,
    "reviews": 11,
    "place_id": "ChIJTUMgZZoBp0wRPQUXjq_tpuo"
  },
  {
    "name": "Fournier et Associ\u00e9s",
    "category": "Tax preparation service",
    "phone": "+1 506-726-1198",
    "website": "http://www.fournieretassocies.ca/contact",
    "address": "81 W St Peter Blvd, Caraquet, NB E1W 1B9",
    "city": "Caraquet",
    "state": "New Brunswick",
    "state_code": "",
    "postal_code": "E1W 1B9",
    "latitude": 47.7920738,
    "longitude": -64.9477734,
    "rating": 5.0,
    "reviews": 8,
    "place_id": "ChIJ3yjeAPrTmEwRvx_GyJYl7Bs"
  },
  {
    "name": "H&R Block",
    "category": "Tax preparation service",
    "phone": "+1 506-395-5077",
    "website": "https://www.hrblock.ca/stores/3400-rue-principale-d/",
    "address": "3400 Rue Principale D, Tracadie-Sheila, NB E1X 1C8",
    "city": "Tracadie-Sheila",
    "state": "New Brunswick",
    "state_code": "",
    "postal_code": "E1X 1C8",
    "latitude": 47.5219574,
    "longitude": -64.9098786,
    "rating": 4.9,
    "reviews": 75,
    "place_id": "ChIJHYp5CMRJn0wR5i_z1WIHxck"
  },
  {
    "name": "Comtaxe",
    "category": "Tax preparation service",
    "phone": "+1 506-876-4200",
    "website": "",
    "address": "10541 Rue Principale, Saint-Louis de Kent, NB E4X 1E7",
    "city": "Saint-Louis de Kent",
    "state": "New Brunswick",
    "state_code": "",
    "postal_code": "E4X 1E7",
    "latitude": 46.73779709999999,
    "longitude": -64.97309,
    "rating": 5.0,
    "reviews": 1,
    "place_id": "ChIJ17xNFzSwoUwRFO4eoTJ0tZs"
  },
  {
    "name": "Taxaction - The Branch Company Limited",
    "category": "Tax preparation service",
    "phone": "+1 506-523-2700",
    "website": "",
    "address": "9550 Main St, Richibucto, NB E4W 5N5",
    "city": "Richibucto",
    "state": "New Brunswick",
    "state_code": "",
    "postal_code": "E4W 5N5",
    "latitude": 46.6952276,
    "longitude": -64.8714287,
    "rating": 4.5,
    "reviews": 4,
    "place_id": "ChIJ47A_Z36toUwRLXTRXGMP9sA"
  },
  {
    "name": "Normand Vautour Tax & Acctg",
    "category": "Tax preparation service",
    "phone": "+1 506-743-6040",
    "website": "",
    "address": "8 Rue Colette, Bouctouche, NB E4S 2Z2",
    "city": "Bouctouche",
    "state": "New Brunswick",
    "state_code": "",
    "postal_code": "E4S 2Z2",
    "latitude": 46.4808543,
    "longitude": -64.75707109999999,
    "rating": 5.0,
    "reviews": 1,
    "place_id": "ChIJ6-_tlLv3oEwRPv9Jc-X16nE"
  },
  {
    "name": "H&R Block",
    "category": "Tax preparation service",
    "phone": "+1 506-523-2700",
    "website": "https://www.hrblock.ca/stores/9550-main-st-3/",
    "address": "9550 Main St #3, Richibucto, NB E4W 4E4",
    "city": "Richibucto",
    "state": "New Brunswick",
    "state_code": "",
    "postal_code": "E4W 4E4",
    "latitude": 46.5863125,
    "longitude": -64.99854429999999,
    "rating": 4.0,
    "reviews": 4,
    "place_id": "ChIJqRhxVPmtoUwRv1BqX11IGxs"
  },
  {
    "name": "Liberty Tax",
    "category": "Tax preparation",
    "phone": "+1 506-804-4359",
    "website": "https://www.libertytaxcanada.ca/70737",
    "address": "136 Bd Broadway UNIT 11, Grand Falls, NB E3Z 2J9",
    "city": "Grand Falls",
    "state": "New Brunswick",
    "state_code": "",
    "postal_code": "E3Z 2J9",
    "latitude": 47.0492173,
    "longitude": -67.7384431,
    "rating": 5.0,
    "reviews": 10,
    "place_id": "ChIJl0QtJ_rRvEwRYLr9hrWF7cI"
  },
  {
    "name": "H&R Block",
    "category": "Tax preparation service",
    "phone": "+1 506-240-7051",
    "website": "https://www.hrblock.ca/stores/166-broadway-blvd/",
    "address": "166 Bd Broadway, Grand-Sault, NB E3Z 2J9",
    "city": "Grand Falls",
    "state": "New Brunswick",
    "state_code": "",
    "postal_code": "E3Z 2J9",
    "latitude": 47.04883299999999,
    "longitude": -67.7390181,
    "rating": 5.0,
    "reviews": 2,
    "place_id": "ChIJi4wmUx3RvEwRXQr3JvBy2E4"
  },
  {
    "name": "H&R Block",
    "category": "Tax preparation service",
    "phone": "+1 506-248-8079",
    "website": "https://www.hrblock.ca/stores/81c-roseberry-street/",
    "address": "81C Roseberry St, Campbellton, NB E3N 1B6",
    "city": "Campbellton",
    "state": "New Brunswick",
    "state_code": "",
    "postal_code": "E3N 1B6",
    "latitude": 48.00433,
    "longitude": -66.679523,
    "rating": 3.3,
    "reviews": 26,
    "place_id": "ChIJa-Nh8ichmEwRdLXSm37b5E4"
  },
  {
    "name": "James C. Douglass Tax Service Inc.",
    "category": "Tax preparation service",
    "phone": "+1 506-328-8037",
    "website": "",
    "address": "343A Connell St, Woodstock, NB E7M 5G5",
    "city": "Woodstock",
    "state": "New Brunswick",
    "state_code": "",
    "postal_code": "E7M 5G5",
    "latitude": 46.1669033,
    "longitude": -67.5970483,
    "rating": 4.6,
    "reviews": 9,
    "place_id": "ChIJu1eXOdeSpEwRc_t23ewVDOg"
  },
  {
    "name": "Liberty Tax",
    "category": "Tax preparation",
    "phone": "+1 506-804-4398",
    "website": "https://www.libertytaxcanada.ca/70738",
    "address": "401 Connell St Unit 4, Woodstock, NB E7M 5G5",
    "city": "Woodstock",
    "state": "New Brunswick",
    "state_code": "",
    "postal_code": "E7M 5G5",
    "latitude": 46.1708363,
    "longitude": -67.6029253,
    "rating": 4.5,
    "reviews": 101,
    "place_id": "ChIJsf_ibBGTpEwRwTIegNtXtTE"
  },
  {
    "name": "H&R Block",
    "category": "Tax preparation service",
    "phone": "+1 506-243-0309",
    "website": "https://www.hrblock.ca/stores/110-gallop-court/",
    "address": "110 Gallop Ct, Woodstock, NB E7M 3P2",
    "city": "Woodstock",
    "state": "New Brunswick",
    "state_code": "",
    "postal_code": "E7M 3P2",
    "latitude": 46.171492,
    "longitude": -67.604417,
    "rating": 4.1,
    "reviews": 29,
    "place_id": "ChIJZTz5WSaTpEwRKjffMUZCka4"
  },
  {
    "name": "Liberty Tax",
    "category": "Tax preparation",
    "phone": "+1 506-799-0235",
    "website": "https://www.libertytaxcanada.ca/70167",
    "address": "281 Queen St, Fredericton, NB E3B 1A9",
    "city": "Fredericton",
    "state": "New Brunswick",
    "state_code": "",
    "postal_code": "E3B 1A9",
    "latitude": 45.9643702,
    "longitude": -66.6457423,
    "rating": 5.0,
    "reviews": 300,
    "place_id": "ChIJl6MDftsZpEwR5RlIwgbEMo4"
  },
  {
    "name": "Dee Davis Income Tax Services",
    "category": "Tax preparation",
    "phone": "+1 506-208-0180",
    "website": "",
    "address": "2383 NB-102, Lincoln, NB E3A 8G4",
    "city": "Lincoln",
    "state": "New Brunswick",
    "state_code": "",
    "postal_code": "E3A 8G4",
    "latitude": 45.8847621,
    "longitude": -66.54783139999999,
    "rating": 5.0,
    "reviews": 2,
    "place_id": "ChIJlwPDxCWepkwRFpo7QbPC_UE"
  },
  {
    "name": "H&R Block",
    "category": "Tax preparation service",
    "phone": "+1 506-453-1030",
    "website": "https://www.hrblock.ca/stores/81-regent-st-102b/",
    "address": "81 Regent St #102B, Fredericton, NB E3B 3W4",
    "city": "Fredericton",
    "state": "New Brunswick",
    "state_code": "",
    "postal_code": "E3B 3W4",
    "latitude": 45.9607014,
    "longitude": -66.639378,
    "rating": 4.1,
    "reviews": 34,
    "place_id": "ChIJrw1BQqEYpEwRIdQCurdhBsc"
  },
  {
    "name": "H&R Block",
    "category": "Tax preparation service",
    "phone": "+1 506-443-4357",
    "website": "https://www.hrblock.ca/stores/10-av-trinity-2/",
    "address": "10 Trinity Ave #2, Fredericton, NB E3C 0B8",
    "city": "Fredericton",
    "state": "New Brunswick",
    "state_code": "",
    "postal_code": "E3C 0B8",
    "latitude": 45.9318552,
    "longitude": -66.66306329999999,
    "rating": 3.5,
    "reviews": 36,
    "place_id": "ChIJr2T1ADoipEwR0BnORiT2TGA"
  },
  {
    "name": "A L L Accounting Services Ltd",
    "category": "Tax preparation service",
    "phone": "+1 506-452-7687",
    "website": "https://www.allaccountingservices.ca/",
    "address": "496 New Maryland Hwy, New Maryland, NB E3C 1G9",
    "city": "New Maryland",
    "state": "New Brunswick",
    "state_code": "",
    "postal_code": "E3C 1G9",
    "latitude": 45.8860663,
    "longitude": -66.6886571,
    "rating": 3.0,
    "reviews": 4,
    "place_id": "ChIJveU6aAckpEwR28qPNF2CV8U"
  },
  {
    "name": "H&R Block",
    "category": "Tax preparation service",
    "phone": "+1 506-453-9320",
    "website": "https://www.hrblock.ca/stores/102-main-st-13a/",
    "address": "102 Main St #13A, Fredericton, NB E3A 1R8",
    "city": "Fredericton",
    "state": "New Brunswick",
    "state_code": "",
    "postal_code": "E3A 1R8",
    "latitude": 45.9784419,
    "longitude": -66.6580199,
    "rating": 3.2,
    "reviews": 21,
    "place_id": "ChIJ0S5KsIoYpEwRs_vobN7lqY0"
  },
  {
    "name": "Jacob Income Tax Services",
    "category": "Tax preparation service",
    "phone": "+1 506-854-8213",
    "website": "",
    "address": "18a Victoria St, Shediac, NB E4P 8T6",
    "city": "Shediac",
    "state": "New Brunswick",
    "state_code": "",
    "postal_code": "E4P 8T6",
    "latitude": 46.2192557,
    "longitude": -64.5414534,
    "rating": 5.0,
    "reviews": 2,
    "place_id": "ChIJ5Q-mvRu8oEwRLwnkWAd3niY"
  },
  {
    "name": "Avantage Accounting and Tax Services Ltd.",
    "category": "Tax preparation",
    "phone": "+1 506-232-5293",
    "website": "https://www.avantageaccounting.ca/",
    "address": "3471 NB-134, Shediac Cape, NB E4P 3G6",
    "city": "Shediac Cape",
    "state": "New Brunswick",
    "state_code": "",
    "postal_code": "E4P 3G6",
    "latitude": 46.2410277,
    "longitude": -64.5688261,
    "rating": 5.0,
    "reviews": 9,
    "place_id": "ChIJv81HrjmRoEwRMo4QGuNNj8o"
  },
  {
    "name": "H&R Block",
    "category": "Tax preparation service",
    "phone": "+1 506-532-9160",
    "website": "https://www.hrblock.ca/stores/342-main-st/",
    "address": "342 Main St, Shediac, NB E4P 0P2",
    "city": "Shediac",
    "state": "New Brunswick",
    "state_code": "",
    "postal_code": "E4P 0P2",
    "latitude": 46.220513,
    "longitude": -64.5439447,
    "rating": 4.5,
    "reviews": 12,
    "place_id": "ChIJlSYTC8-QoEwRT0SHlnryY2I"
  },
  {
    "name": "Atlantic Canada Taxman",
    "category": "Tax preparation",
    "phone": "+1 506-857-9630",
    "website": "http://www.taxman.ca/",
    "address": "150 Edmonton Ave #3B, Moncton, NB E1C 3B9",
    "city": "Moncton",
    "state": "New Brunswick",
    "state_code": "",
    "postal_code": "E1C 3B9",
    "latitude": 46.095613,
    "longitude": -64.801748,
    "rating": 3.6,
    "reviews": 14,
    "place_id": "ChIJy9qeaDq5oEwRXiwAjfaDHdE"
  },
  {
    "name": "Moncton Tax / Imp\u00f4t Moncton",
    "category": "Tax preparation service",
    "phone": "+1 506-204-6829",
    "website": "",
    "address": "270 Mill Rd, Moncton, NB E1A 4B1",
    "city": "Moncton",
    "state": "New Brunswick",
    "state_code": "",
    "postal_code": "E1A 4B1",
    "latitude": 46.1126707,
    "longitude": -64.7713687,
    "rating": 3.8,
    "reviews": 26,
    "place_id": "ChIJO-4EdFTHoEwREp9fiNNGy-w"
  },
  {
    "name": "G & G Accounting Services",
    "category": "Tax preparation service",
    "phone": "+1 506-859-9901",
    "website": "http://www.gandgaccounting.ca/",
    "address": "383 Baig Blvd, Moncton, NB E1E 4H8",
    "city": "Moncton",
    "state": "New Brunswick",
    "state_code": "",
    "postal_code": "E1E 4H8",
    "latitude": 46.0740113,
    "longitude": -64.8331851,
    "rating": 5.0,
    "reviews": 5,
    "place_id": "ChIJo1Tqn_K4oEwRxmIDo8oCvkw"
  },
  {
    "name": "T4's And More Inc.",
    "category": "Tax preparation service",
    "phone": "+1 506-388-8818",
    "website": "http://www.t4sandmore.com/",
    "address": "270 Mill Rd, Moncton, NB E1A 4B1",
    "city": "Moncton",
    "state": "New Brunswick",
    "state_code": "",
    "postal_code": "E1A 4B1",
    "latitude": 46.1126528,
    "longitude": -64.7714098,
    "rating": 3.8,
    "reviews": 33,
    "place_id": "ChIJH9o6ClW5oEwR-HqGID4WceQ"
  },
  {
    "name": "Aucoin Tax Consultant",
    "category": "Tax preparation service",
    "phone": "+1 506-384-8225",
    "website": "http://t4sandmore.com/",
    "address": "3 Karen Dr, Moncton, NB E1C 9B1",
    "city": "Moncton",
    "state": "New Brunswick",
    "state_code": "",
    "postal_code": "E1C 9B1",
    "latitude": 46.1115034,
    "longitude": -64.8239545,
    "rating": 4.0,
    "reviews": 4,
    "place_id": "ChIJzc7IdLO4oEwRNuumwkEVBuA"
  },
  {
    "name": "H&R Block",
    "category": "Tax preparation service",
    "phone": "+1 506-855-4357",
    "website": "https://www.hrblock.ca/stores/537-mountain-rd/",
    "address": "537 Mountain Rd, Moncton, NB E1C 2N6",
    "city": "Moncton",
    "state": "New Brunswick",
    "state_code": "",
    "postal_code": "E1C 2N6",
    "latitude": 46.0981025,
    "longitude": -64.79725979999999,
    "rating": 3.8,
    "reviews": 120,
    "place_id": "ChIJEYyolte4oEwRz1Wpohrusyk"
  },
  {
    "name": "Bachmann Wood & Associates Accountants, Moncton",
    "category": "Tax preparation service",
    "phone": "+1 506-853-3084",
    "website": "https://bachmannwood.ca/",
    "address": "1699 Mountain Rd, Moncton, NB E1G 1A7",
    "city": "Moncton",
    "state": "New Brunswick",
    "state_code": "",
    "postal_code": "E1G 1A7",
    "latitude": 46.1192624,
    "longitude": -64.8428151,
    "rating": 4.0,
    "reviews": 8,
    "place_id": "ChIJNaTYHzu5oEwR8d7wQYLSbog"
  },
  {
    "name": "AB Tax & Accounting Services",
    "category": "Tax preparation service",
    "phone": "+1 506-269-2878",
    "website": "",
    "address": "42 Francfort Cres, Moncton, NB E1G 5W6",
    "city": "Moncton",
    "state": "New Brunswick",
    "state_code": "",
    "postal_code": "E1G 5W6",
    "latitude": 46.1100076,
    "longitude": -64.8699539,
    "rating": 5.0,
    "reviews": 3,
    "place_id": "ChIJ8SlPPzrHoEwRCL582GNRUF8"
  },
  {
    "name": "Taxes 4 Less",
    "category": "Tax preparation service",
    "phone": "+1 506-961-0469",
    "website": "",
    "address": "255 Rue Cousteau, Dieppe, NB E1A 5W3",
    "city": "Dieppe",
    "state": "New Brunswick",
    "state_code": "",
    "postal_code": "E1A 5W3",
    "latitude": 46.0970409,
    "longitude": -64.74643329999999,
    "rating": 5.0,
    "reviews": 9,
    "place_id": "ChIJQUP2tja8oEwRlg8X2FmflqE"
  },
  {
    "name": "H&R Block",
    "category": "Tax preparation service",
    "phone": "+1 506-801-5154",
    "website": "https://www.hrblock.ca/stores/1380-mountain-rd-22/",
    "address": "1380 Mountain Rd #22, Moncton, NB E1C 2T8",
    "city": "Moncton",
    "state": "New Brunswick",
    "state_code": "",
    "postal_code": "E1C 2T8",
    "latitude": 46.1088539,
    "longitude": -64.8315363,
    "rating": 3.6,
    "reviews": 28,
    "place_id": "ChIJlxGp8LG4oEwRJH4Ci-ZwCIA"
  },
  {
    "name": "Tax-Aid - C&B Tax Services",
    "category": "Tax preparation service",
    "phone": "+1 506-635-1234",
    "website": "http://tax-aid.ca/",
    "address": "229 Churchill Blvd, Saint John, NB E2K 3E2",
    "city": "Saint John",
    "state": "New Brunswick",
    "state_code": "",
    "postal_code": "E2K 3E2",
    "latitude": 45.2865371,
    "longitude": -66.0792435,
    "rating": 5.0,
    "reviews": 3,
    "place_id": "ChIJ2QPI7kSzp0wR6z7bkZorfyg"
  },
  {
    "name": "Tax-Aid",
    "category": "Tax preparation",
    "phone": "+1 506-653-1234",
    "website": "http://www.tax-aid.ca/",
    "address": "212 McAllister Dr, Saint John, NB E2J 2S5",
    "city": "Saint John",
    "state": "New Brunswick",
    "state_code": "",
    "postal_code": "E2J 2S5",
    "latitude": 45.3099746,
    "longitude": -66.0178069,
    "rating": 5.0,
    "reviews": 11,
    "place_id": "ChIJu-DVFviyp0wRuCogk8pXvrU"
  },
  {
    "name": "Atlantic Tax & Accounting Svc",
    "category": "Tax preparation service",
    "phone": "+1 506-693-1651",
    "website": "",
    "address": "131 Charlotte St, Saint John, NB E2L 1K5",
    "city": "Saint John",
    "state": "New Brunswick",
    "state_code": "",
    "postal_code": "E2L 1K5",
    "latitude": 45.2717965,
    "longitude": -66.0576821,
    "rating": 5.0,
    "reviews": 3,
    "place_id": "ChIJvQ1k1n2zp0wRP_HlhylGYbU"
  },
  {
    "name": "Teed Saunders Doyle & Co.",
    "category": "Tax preparation service",
    "phone": "+1 506-636-9220",
    "website": "http://www.teedsaundersdoyle.com/",
    "address": "39 Canterbury St, Saint John, NB E2L 4S1",
    "city": "Saint John",
    "state": "New Brunswick",
    "state_code": "",
    "postal_code": "E2L 4S1",
    "latitude": 45.2719008,
    "longitude": -66.0612798,
    "rating": 4.5,
    "reviews": 8,
    "place_id": "ChIJBfmwvX2zp0wR2zpolUrNwiw"
  },
  {
    "name": "H&R Block",
    "category": "Tax preparation service",
    "phone": "+1 506-693-8584",
    "website": "https://www.hrblock.ca/stores/519-westmorland-rd/",
    "address": "519 Westmorland Rd, Saint John, NB E2J 3W9",
    "city": "Saint John",
    "state": "New Brunswick",
    "state_code": "",
    "postal_code": "E2J 3W9",
    "latitude": 45.3067629,
    "longitude": -66.01564119999999,
    "rating": 4.4,
    "reviews": 28,
    "place_id": "ChIJUZmSmviyp0wRG9QiBEnLPe4"
  },
  {
    "name": "H&R Block",
    "category": "Tax preparation service",
    "phone": "+1 506-636-8716",
    "website": "https://www.hrblock.ca/stores/87-lansdowne-avenue-p/",
    "address": "87 Lansdowne Ave P, Saint John, NB E2K 3A1",
    "city": "Saint John",
    "state": "New Brunswick",
    "state_code": "",
    "postal_code": "E2K 3A1",
    "latitude": 45.2772748,
    "longitude": -66.0792424,
    "rating": 4.6,
    "reviews": 27,
    "place_id": "ChIJSxDVq3Czp0wR60ZGbrUSYeU"
  },
  {
    "name": "H&R Block",
    "category": "Tax preparation service",
    "phone": "+1 506-652-1212",
    "website": "https://www.hrblock.ca/stores/30-plaza-ave-12a/",
    "address": "30 Plaza Ave #12A, Saint John, NB E2M 0C3",
    "city": "Saint John",
    "state": "New Brunswick",
    "state_code": "",
    "postal_code": "E2M 0C3",
    "latitude": 45.2475378,
    "longitude": -66.1019577,
    "rating": 3.5,
    "reviews": 15,
    "place_id": "ChIJv_bWe920p0wRxRbBgNWQkmQ"
  },
  {
    "name": "H&R Block",
    "category": "Tax preparation service",
    "phone": "+1 506-693-1212",
    "website": "https://www.hrblock.ca/stores/149-mcallister-dr-6b/",
    "address": "149 McAllister Dr #6B, Saint John, NB E2J 2S6",
    "city": "Saint John",
    "state": "New Brunswick",
    "state_code": "",
    "postal_code": "E2J 2S6",
    "latitude": 45.3119088,
    "longitude": -66.017554,
    "rating": 3.6,
    "reviews": 39,
    "place_id": "ChIJ6_bvRPeyp0wRlA9cwtZzWyk"
  },
  {
    "name": "H&R Block",
    "category": "Tax preparation service",
    "phone": "+1 506-636-8686",
    "website": "https://www.hrblock.ca/stores/30-charlotte-st/",
    "address": "30 Charlotte St, Saint John, NB E2L 2H4",
    "city": "Saint John",
    "state": "New Brunswick",
    "state_code": "",
    "postal_code": "E2L 2H4",
    "latitude": 45.2744787,
    "longitude": -66.0590758,
    "rating": 3.5,
    "reviews": 26,
    "place_id": "ChIJew64b3yzp0wRylZTlNT6XJs"
  },
  {
    "name": "H&R Block",
    "category": "Tax preparation service",
    "phone": "+1 506-636-8714",
    "website": "https://www.hrblock.ca/stores/unit-235-120-mcdonald-st/",
    "address": "120 McDonald St #235, Saint John, NB E2J 1L6",
    "city": "Saint John",
    "state": "New Brunswick",
    "state_code": "",
    "postal_code": "E2J 1L6",
    "latitude": 45.2870154,
    "longitude": -66.02899049999999,
    "rating": 5.0,
    "reviews": 2,
    "place_id": "ChIJpxAYX6Gzp0wRV_BTTHvBmlY"
  },
  {
    "name": "Kelly's Virtual Income Tax and Accounting Service",
    "category": "Tax preparation",
    "phone": "+1 506-625-5811",
    "website": "",
    "address": "313 Beaumont Ave, Miramichi, NB E1V 1E4",
    "city": "Miramichi",
    "state": "New Brunswick",
    "state_code": "",
    "postal_code": "E1V 1E4",
    "latitude": 47.0070127,
    "longitude": -65.5737932,
    "rating": 5.0,
    "reviews": 1,
    "place_id": "ChIJe3tKDjkhokwRfVRqAvugpY8"
  },
  {
    "name": "Court Carleton's Accounting & Tax Service",
    "category": "Tax preparation service",
    "phone": "+1 506-622-2558",
    "website": "https://www.facebook.com/courtcarletonaccounting/",
    "address": "237 Pleasant St, Miramichi, NB E1V 1Y5",
    "city": "Miramichi",
    "state": "New Brunswick",
    "state_code": "",
    "postal_code": "E1V 1Y5",
    "latitude": 47.0000084,
    "longitude": -65.5672628,
    "rating": 3.7,
    "reviews": 10,
    "place_id": "ChIJ9XXVcnUgokwRO1ATMU5PtOM"
  },
  {
    "name": "H&R Block",
    "category": "Tax preparation service",
    "phone": "+1 506-778-1994",
    "website": "https://www.hrblock.ca/stores/2436-king-george-hwy/",
    "address": "2436 King George Hwy, Miramichi, NB E1V 6V9",
    "city": "Miramichi",
    "state": "New Brunswick",
    "state_code": "",
    "postal_code": "E1V 6V9",
    "latitude": 47.02838999999999,
    "longitude": -65.4937885,
    "rating": 4.8,
    "reviews": 16,
    "place_id": "ChIJUZ0Gqxf1oUwR06qU2J_MJp4"
  },
  {
    "name": "H&R Block",
    "category": "Tax preparation service",
    "phone": "+1 506-622-2562",
    "website": "https://www.hrblock.ca/stores/447-king-george-hwy/",
    "address": "447 King George Hwy, Miramichi, NB E1V 3M2",
    "city": "Miramichi",
    "state": "New Brunswick",
    "state_code": "",
    "postal_code": "E1V 3M2",
    "latitude": 46.995566,
    "longitude": -65.5722859,
    "rating": 4.4,
    "reviews": 21,
    "place_id": "ChIJ-e7qrniKoUwR2csE34WLJiE"
  },
  {
    "name": "Liberty Tax",
    "category": "Tax preparation",
    "phone": "+1 506-804-4379",
    "website": "https://www.libertytaxcanada.ca/",
    "address": "994 St Peter Ave, Bathurst, NB E2A 2Z4",
    "city": "Bathurst",
    "state": "New Brunswick",
    "state_code": "",
    "postal_code": "E2A 2Z4",
    "latitude": 47.63502889999999,
    "longitude": -65.6731746,
    "rating": 3.1,
    "reviews": 18,
    "place_id": "ChIJ5RFoiyWTmEwRcwQzJwAgZvI"
  },
  {
    "name": "H&R Block",
    "category": "Tax preparation service",
    "phone": "+1 506-548-3002",
    "website": "https://www.hrblock.ca/stores/230-laurier-st-1/",
    "address": "230 Laurier St #1, Bathurst, NB E2A 3H1",
    "city": "Bathurst",
    "state": "New Brunswick",
    "state_code": "",
    "postal_code": "E2A 3H1",
    "latitude": 47.6309563,
    "longitude": -65.6683815,
    "rating": 4.2,
    "reviews": 32,
    "place_id": "ChIJe3NmFuGTmEwRh7GXBpu48BQ"
  },
  {
    "name": "H&R Block",
    "category": "Tax preparation service",
    "phone": "+1 506-384-4743",
    "website": "https://www.hrblock.ca/stores/40-rue-champlain-7/",
    "address": "40 Champlain St #7, Dieppe, NB E1A 1N3",
    "city": "Dieppe",
    "state": "New Brunswick",
    "state_code": "",
    "postal_code": "E1A 1N3",
    "latitude": 46.0927207,
    "longitude": -64.757527,
    "rating": 3.5,
    "reviews": 30,
    "place_id": "ChIJn64iD0y5oEwRnx8Hf1uJfyE"
  },
  {
    "name": "H&R Block",
    "category": "Tax preparation service",
    "phone": "+1 506-386-8229",
    "website": "https://www.hrblock.ca/stores/477-rue-paul-m002/",
    "address": "477 Paul St M002, Dieppe, NB E1A 4X5",
    "city": "Dieppe",
    "state": "New Brunswick",
    "state_code": "",
    "postal_code": "E1A 4X5",
    "latitude": 46.0959844,
    "longitude": -64.7609492,
    "rating": 4.2,
    "reviews": 17,
    "place_id": "ChIJb_9P_0q5oEwRTnAQ8xt94l0"
  }
]