[
  {
    "name": "Tax Smart, Inc.",
    "category": "Tax preparation service",
    "phone": "+1 902-444-3431",
    "website": "http://www.taxsmart.net/",
    "address": "99 Main St Unit 4, Dartmouth, NS B2X 1R4",
    "city": "Dartmouth",
    "state": "Nova Scotia",
    "state_code": "",
    "postal_code": "B2X 1R4",
    "latitude": 44.68181,
    "longitude": -63.54261469999999,
    "rating": 4.8,
    "reviews": 18,
    "place_id": "ChIJwx0Pd8UmWksReT7qOo6hLuU"
  },
  {
    "name": "Arneso Bookkeeping, Accounting, Payroll And Tax Services Ltd.",
    "category": "Tax preparation",
    "phone": "+1 902-579-5524",
    "website": "https://arneso.ca/",
    "address": "112 Woodlawn Rd Unit 302, Dartmouth, NS B2W 2S7",
    "city": "Dartmouth",
    "state": "Nova Scotia",
    "state_code": "",
    "postal_code": "B2W 2S7",
    "latitude": 44.6733701,
    "longitude": -63.5307954,
    "rating": 5.0,
    "reviews": 226,
    "place_id": "ChIJdUUWod8jWksRQD79N8EKRIs"
  },
  {
    "name": "H&R Block",
    "category": "Tax preparation service",
    "phone": "+1 902-464-1526",
    "website": "https://www.hrblock.ca/stores/172-wyse-rd-130/",
    "address": "172 Wyse Rd #130, Dartmouth, NS B3A 1M6",
    "city": "Dartmouth",
    "state": "Nova Scotia",
    "state_code": "",
    "postal_code": "B3A 1M6",
    "latitude": 44.67189279999999,
    "longitude": -63.5796133,
    "rating": 4.0,
    "reviews": 53,
    "place_id": "ChIJH9f_AFwhWksRQpjAQel-6dI"
  },
  {
    "name": "H&R Block",
    "category": "Tax preparation service",
    "phone": "+1 902-462-1526",
    "website": "https://www.hrblock.ca/stores/50-tacoma-dr-22b/",
    "address": "50 Tacoma Dr #22B, Dartmouth, NS B2W 3E5",
    "city": "Dartmouth",
    "state": "Nova Scotia",
    "state_code": "",
    "postal_code": "B2W 3E5",
    "latitude": 44.6796256,
    "longitude": -63.539603,
    "rating": 4.3,
    "reviews": 41,
    "place_id": "ChIJYzgRQwkkWksR1N2ssoh7cps"
  },
  {
    "name": "H&R Block",
    "category": "Tax preparation service",
    "phone": "+1 902-435-8590",
    "website": "https://www.hrblock.ca/stores/114-woodlawn-rd-17c/",
    "address": "114 Woodlawn Rd #17C, Dartmouth, NS B2W 2S7",
    "city": "Dartmouth",
    "state": "Nova Scotia",
    "state_code": "",
    "postal_code": "B2W 2S7",
    "latitude": 44.6731025,
    "longitude": -63.5329341,
    "rating": 4.3,
    "reviews": 51,
    "place_id": "ChIJYxOGSoojWksRu0U7aEolK78"
  },
  {
    "name": "H&R Block",
    "category": "Tax preparation service",
    "phone": "+1 902-463-9170",
    "website": "https://www.hrblock.ca/stores/21-micmac-blvd-295b/",
    "address": "21 Micmac Blvd #295B, Dartmouth, NS B3A 4N3",
    "city": "Dartmouth",
    "state": "Nova Scotia",
    "state_code": "",
    "postal_code": "B3A 4N3",
    "latitude": 44.68634549999999,
    "longitude": -63.5594474,
    "rating": 4.2,
    "reviews": 34,
    "place_id": "ChIJq6qqOqomWksR_yHfnogt520"
  },
  {
    "name": "H&R Block",
    "category": "Tax preparation service",
    "phone": "+1 902-435-2195",
    "website": "https://www.hrblock.ca/stores/275-baker-dr-3/",
    "address": "275 Baker Dr #3, Dartmouth, NS B2W 0L6",
    "city": "Dartmouth",
    "state": "Nova Scotia",
    "state_code": "",
    "postal_code": "B2W 0L6",
    "latitude": 44.6547813,
    "longitude": -63.5286293,
    "rating": 3.5,
    "reviews": 19,
    "place_id": "ChIJB6NONp8jWksRM8yNYvjTVg0"
  },
  {
    "name": "Tax Depot",
    "category": "Tax preparation service",
    "phone": "+1 902-454-2459",
    "website": "http://www.halifaxincometax.ca/",
    "address": "6074 Quinpool Rd, Halifax, NS B3L 1A1",
    "city": "Halifax",
    "state": "Nova Scotia",
    "state_code": "",
    "postal_code": "B3L 1A1",
    "latitude": 44.6465647,
    "longitude": -63.5925947,
    "rating": 4.4,
    "reviews": 39,
    "place_id": "ChIJoW5JPCoiWksRMsqx03mEDE0"
  },
  {
    "name": "Professional Tax Services",
    "category": "Tax preparation service",
    "phone": "+1 902-800-1843",
    "website": "http://tax.bcccanada.ca/",
    "address": "2608 Windsor St, Halifax, NS B3K 5C8",
    "city": "Halifax",
    "state": "Nova Scotia",
    "state_code": "",
    "postal_code": "B3K 5C8",
    "latitude": 44.6521667,
    "longitude": -63.5986537,
    "rating": 4.7,
    "reviews": 13,
    "place_id": "ChIJjZ5nOTEiWksRspI6eS-5-Dc"
  },
  {
    "name": "FBC Farm and Small Business Tax Consultants",
    "category": "Tax preparation service",
    "phone": "+1 902-334-0117",
    "website": "https://fbc.ca/",
    "address": "202 Brownlow Ave #205, Burnside, NS B3B 1T5",
    "city": "Burnside",
    "state": "Nova Scotia",
    "state_code": "",
    "postal_code": "B3B 1T5",
    "latitude": 44.6991381,
    "longitude": -63.58249189999999,
    "rating": 4.0,
    "reviews": 20,
    "place_id": "ChIJq6p6FsYmWksRUZW7z_Dt8cQ"
  },
  {
    "name": "Liberty Tax",
    "category": "Tax preparation",
    "phone": "+1 902-420-9641",
    "website": "https://www.libertytaxcanada.ca/70475",
    "address": "6169 Quinpool Rd #110, Halifax, NS B3L 4P8",
    "city": "Halifax",
    "state": "Nova Scotia",
    "state_code": "",
    "postal_code": "B3L 4P8",
    "latitude": 44.646211,
    "longitude": -63.59531209999999,
    "rating": 4.2,
    "reviews": 47,
    "place_id": "ChIJfxvSrDAjWksR01Gu_2mSCMM"
  },
  {
    "name": "Liberty Tax",
    "category": "Tax preparation",
    "phone": "+1 902-708-0412",
    "website": "https://www.libertytaxcanada.ca/70312",
    "address": "138 NS-303, Conway, NS B0V 1A0",
    "city": "Conway",
    "state": "Nova Scotia",
    "state_code": "",
    "postal_code": "B0V 1A0",
    "latitude": 44.613973,
    "longitude": -65.7676472,
    "rating": 5.0,
    "reviews": 52,
    "place_id": "ChIJRUj6rCEdqEwRahpTtipACZo"
  },
  {
    "name": "H&R Block",
    "category": "Tax preparation service",
    "phone": "+1 902-245-5400",
    "website": "https://www.hrblock.ca/stores/21-warwick-st/",
    "address": "21 Warwick St, Digby, NS B0V 1A0",
    "city": "Digby",
    "state": "Nova Scotia",
    "state_code": "",
    "postal_code": "B0V 1A0",
    "latitude": 44.617743,
    "longitude": -65.756587,
    "rating": 3.7,
    "reviews": 3,
    "place_id": "ChIJg8-YAg0dqEwRhQ3JkzhKJyQ"
  },
  {
    "name": "Mike Craig Mobile Tax Services",
    "category": "Tax preparation service",
    "phone": "+1 902-300-1059",
    "website": "http://www.mikesmobiletax.ca/",
    "address": "67 Duncan Ave, Kentville, NS B4N 1N3",
    "city": "Kentville",
    "state": "Nova Scotia",
    "state_code": "",
    "postal_code": "B4N 1N3",
    "latitude": 45.0741304,
    "longitude": -64.5262302,
    "rating": 4.9,
    "reviews": 20,
    "place_id": "ChIJBdI5yL5RWEsRCurG-QIjZA8"
  },
  {
    "name": "New Minas Income Tax & Accounting Inc.",
    "category": "Tax preparation service",
    "phone": "+1 902-681-4600",
    "website": "https://newminasincometax.ca/",
    "address": "8974 Commercial St, New Minas, NS B4N 3E2",
    "city": "New Minas",
    "state": "Nova Scotia",
    "state_code": "",
    "postal_code": "B4N 3E2",
    "latitude": 45.067917,
    "longitude": -64.461545,
    "rating": 4.3,
    "reviews": 27,
    "place_id": "ChIJ2YRFhahWWEsR2b8cl0z0NYc"
  },
  {
    "name": "First Choice Tax Services",
    "category": "Tax preparation service",
    "phone": "+1 902-678-4427",
    "website": "http://www.firstchoicetax.ca/",
    "address": "9202 Commercial St, New Minas, NS B4N 3E8",
    "city": "New Minas",
    "state": "Nova Scotia",
    "state_code": "",
    "postal_code": "B4N 3E8",
    "latitude": 45.0670137,
    "longitude": -64.4471953,
    "rating": 5.0,
    "reviews": 1,
    "place_id": "ChIJw4GMiKhWWEsRDBpZ09DPBMA"
  },
  {
    "name": "Coldwell Accountants Inc",
    "category": "Tax preparation service",
    "phone": "+1 902-681-1617",
    "website": "",
    "address": "9347 Commercial St, New Minas, NS B4N 3G3",
    "city": "New Minas",
    "state": "Nova Scotia",
    "state_code": "",
    "postal_code": "B4N 3G3",
    "latitude": 45.0709161,
    "longitude": -64.4394658,
    "rating": 3.5,
    "reviews": 8,
    "place_id": "ChIJQaRMVadWWEsRwusdzYiGdPA"
  },
  {
    "name": "Jenn's Reliable Taxes",
    "category": "Tax preparation service",
    "phone": "+1 902-452-9617",
    "website": "https://www.reliabletaxes.ca/",
    "address": "49 Sheppards Run, Beechville, NS B3T 2E6",
    "city": "Beechville",
    "state": "Nova Scotia",
    "state_code": "",
    "postal_code": "B3T 2E6",
    "latitude": 44.6351591,
    "longitude": -63.6802951,
    "rating": 5.0,
    "reviews": 3,
    "place_id": "ChIJ0RmGO0MhWksRNcS8cQt6XZg"
  },
  {
    "name": "Taxes On Wheels Inc.",
    "category": "Tax preparation service",
    "phone": "+1 902-430-8880",
    "website": "http://www.taxesonwheels.ca/",
    "address": "Lacewood Dr Box 25014, Halifax, NS B3M 4H4",
    "city": "Halifax",
    "state": "Nova Scotia",
    "state_code": "",
    "postal_code": "B3M 4H4",
    "latitude": 44.6616907,
    "longitude": -63.65468329999999,
    "rating": 4.8,
    "reviews": 42,
    "place_id": "ChIJoQhS1lYgWksRQtsBro5bj3s"
  },
  {
    "name": "A Plus Accounting & Tax Services",
    "category": "Tax preparation service",
    "phone": "+1 902-443-3100",
    "website": "",
    "address": "200 Melrose Ave, Halifax, NS B3N 2E7",
    "city": "Halifax",
    "state": "Nova Scotia",
    "state_code": "",
    "postal_code": "B3N 2E7",
    "latitude": 44.6482803,
    "longitude": -63.64173,
    "rating": 4.0,
    "reviews": 21,
    "place_id": "ChIJXdnfmKghWksRnADmPhS4fwM"
  },
  {
    "name": "Tax Filers",
    "category": "Tax preparation service",
    "phone": "+1 902-481-3453",
    "website": "http://www.taxfilers.ca/",
    "address": "75 Peakview Way, Halifax, NS B3M 0G2",
    "city": "Halifax",
    "state": "Nova Scotia",
    "state_code": "",
    "postal_code": "B3M 0G2",
    "latitude": 44.69785479999999,
    "longitude": -63.6857372,
    "rating": 4.6,
    "reviews": 18,
    "place_id": "ChIJOVOmuI8jWksRRzgj7vbXVWA"
  },
  {
    "name": "H&R Block",
    "category": "Tax preparation service",
    "phone": "+1 902-492-1526",
    "website": "https://www.hrblock.ca/stores/3711-joseph-howe-dr-4/",
    "address": "3711 Joseph Howe Dr. #4, Halifax, NS B3L 4H8",
    "city": "Halifax",
    "state": "Nova Scotia",
    "state_code": "",
    "postal_code": "B3L 4H8",
    "latitude": 44.6595311,
    "longitude": -63.6278965,
    "rating": 3.9,
    "reviews": 180,
    "place_id": "ChIJsfEvBwghWksRLxo7QCDk5rM"
  },
  {
    "name": "H&R Block",
    "category": "Tax preparation service",
    "phone": "+1 902-293-8123",
    "website": "https://www.hrblock.ca/stores/7001-mumford-rd-220/",
    "address": "7001 Mumford Rd Unit 220, Halifax, NS B3L 2N9",
    "city": "Halifax",
    "state": "Nova Scotia",
    "state_code": "",
    "postal_code": "B3L 2N9",
    "latitude": 44.6493029,
    "longitude": -63.618185,
    "rating": 3.7,
    "reviews": 20,
    "place_id": "ChIJszF6pZkhWksRbLM9H5rrM_g"
  },
  {
    "name": "H&R Block",
    "category": "Tax preparation service",
    "phone": "+1 902-493-1526",
    "website": "https://www.hrblock.ca/stores/6061-young-st-4a/",
    "address": "6061 Young St #4A, Halifax, NS B3K 2A3",
    "city": "Halifax",
    "state": "Nova Scotia",
    "state_code": "",
    "postal_code": "B3K 2A3",
    "latitude": 44.6589856,
    "longitude": -63.6045652,
    "rating": 3.2,
    "reviews": 29,
    "place_id": "ChIJp_WErpkhWksRm9qXzpQcx0U"
  },
  {
    "name": "H&R Block",
    "category": "Tax preparation service",
    "phone": "+1 902-420-1526",
    "website": "https://www.hrblock.ca/stores/5201-duke-street-205/",
    "address": "5201 Duke St Suite 205, Halifax, NS B3J 1N9",
    "city": "Halifax",
    "state": "Nova Scotia",
    "state_code": "",
    "postal_code": "B3J 1N9",
    "latitude": 44.6496567,
    "longitude": -63.5756494,
    "rating": 3.1,
    "reviews": 43,
    "place_id": "ChIJ28031_wjWksRH4GzNZS7sgc"
  },
  {
    "name": "Unbordered Tax Inc.",
    "category": "Tax consultant",
    "phone": "+1 888-927-7080",
    "website": "http://www.unbordered.ca/",
    "address": "84 Chain Lake Dr, Halifax, NS B3S 1B4",
    "city": "Halifax",
    "state": "Nova Scotia",
    "state_code": "",
    "postal_code": "B3S 1B4",
    "latitude": 44.63738679999999,
    "longitude": -63.6705079,
    "rating": 5.0,
    "reviews": 7,
    "place_id": "ChIJ6_nHb7IhWksRKBGWUiNPeck"
  },
  {
    "name": "Priority Taxation",
    "category": "Tax preparation service",
    "phone": "+1 902-657-3583",
    "website": "https://www.prioritytax.ca/",
    "address": "34 Maple Ave, Tatamagouche, NS B0K 1V0",
    "city": "Tatamagouche",
    "state": "Nova Scotia",
    "state_code": "",
    "postal_code": "B0K 1V0",
    "latitude": 45.7105,
    "longitude": -63.29137,
    "rating": 4.2,
    "reviews": 10,
    "place_id": "ChIJdR3H8pzGXksRKUAdP4C9EKw"
  },
  {
    "name": "H&R Block",
    "category": "Tax preparation service",
    "phone": "+1 902-422-1526",
    "website": "https://www.hrblock.ca/stores/6265-quinpool-rd/",
    "address": "6265 Quinpool Rd, Halifax, NS B3L 1A4",
    "city": "Halifax",
    "state": "Nova Scotia",
    "state_code": "",
    "postal_code": "B3L 1A4",
    "latitude": 44.6454442,
    "longitude": -63.5977277,
    "rating": 3.4,
    "reviews": 33,
    "place_id": "ChIJ5QaZ7dIjWksRlIj5wyi1b3Q"
  },
  {
    "name": "Liberty Tax",
    "category": "Tax preparation",
    "phone": "+1 902-800-7922",
    "website": "https://www.libertytaxcanada.ca/70809",
    "address": "1462 Bedford Hwy, Bedford, NS B4A 1E4",
    "city": "Bedford",
    "state": "Nova Scotia",
    "state_code": "",
    "postal_code": "B4A 1E4",
    "latitude": 44.7312444,
    "longitude": -63.6608168,
    "rating": 5.0,
    "reviews": 26,
    "place_id": "ChIJD6bYpdOJWUsRynKZoFKBCTE"
  },
  {
    "name": "Aire Tax and Business Solutions Inc.",
    "category": "Tax preparation",
    "phone": "+1 782-234-6152",
    "website": "https://airetax.com/",
    "address": "2 Bluewater Rd unit 236, Bedford, NS B4B 1G7",
    "city": "Bedford",
    "state": "Nova Scotia",
    "state_code": "",
    "postal_code": "B4B 1G7",
    "latitude": 44.7260551,
    "longitude": -63.7068451,
    "rating": 5.0,
    "reviews": 35,
    "place_id": null
  },
  {
    "name": "Taxes On Wheels Inc.",
    "category": "Tax preparation service",
    "phone": "+1 902-430-8880",
    "website": "http://taxesonwheels.ca/",
    "address": "Mill Cove, Bedford Hwy, Bedford, NS B4A 3Z2",
    "city": "Bedford",
    "state": "Nova Scotia",
    "state_code": "",
    "postal_code": "B4A 3Z2",
    "latitude": 44.7159403,
    "longitude": -63.67712359999999,
    "rating": 5.0,
    "reviews": 1,
    "place_id": "ChIJncNfNn-JWUsREliDF3IXMhY"
  },
  {
    "name": "H&R Block",
    "category": "Tax preparation service",
    "phone": "+1 902-832-6931",
    "website": "https://www.hrblock.ca/stores/27-dellridge-lane-102/",
    "address": "27 Dellridge Ln #102, Bedford, NS B4A 0H1",
    "city": "Bedford",
    "state": "Nova Scotia",
    "state_code": "",
    "postal_code": "B4A 0H1",
    "latitude": 44.7019618,
    "longitude": -63.6878068,
    "rating": 3.2,
    "reviews": 18,
    "place_id": "ChIJb-N25BCKWUsRp68GanmhtOE"
  },
  {
    "name": "H&R Block",
    "category": "Tax preparation service",
    "phone": "+1 902-835-1526",
    "website": "https://www.hrblock.ca/stores/1595-bedford-hwy/",
    "address": "1595 Bedford Hwy, Bedford, NS B4A 3Y4",
    "city": "Bedford",
    "state": "Nova Scotia",
    "state_code": "",
    "postal_code": "B4A 3Y4",
    "latitude": 44.7320917,
    "longitude": -63.6551792,
    "rating": 3.6,
    "reviews": 24,
    "place_id": "ChIJq6qq_sSJWUsRMYXrPX34kug"
  },
  {
    "name": "Liberty Tax",
    "category": "Tax preparation",
    "phone": "+1 902-708-0431",
    "website": "https://www.libertytaxcanada.ca/70171",
    "address": "288 Welton St Unit E-F, Sydney, NS B1P 5S4",
    "city": "Sydney",
    "state": "Nova Scotia",
    "state_code": "",
    "postal_code": "B1P 5S4",
    "latitude": 46.1433054,
    "longitude": -60.164339,
    "rating": 4.5,
    "reviews": 14,
    "place_id": "ChIJB6913jXlZ0sRwzDX4KGfW-I"
  },
  {
    "name": "Fastway Taxes & Payroll Inc.",
    "category": "Tax preparation service",
    "phone": "+1 365-804-0210",
    "website": "https://fastwaytaxesandpayroll.com/",
    "address": "440 George St, Sydney, NS B1P 1K3",
    "city": "Sydney",
    "state": "Nova Scotia",
    "state_code": "",
    "postal_code": "B1P 1K3",
    "latitude": 46.1377607,
    "longitude": -60.1927172,
    "rating": 5.0,
    "reviews": 10,
    "place_id": "ChIJFdmTu2j7Z0sRXZK_fQ1Veuk"
  },
  {
    "name": "H&R Block",
    "category": "Tax preparation service",
    "phone": "+1 902-564-0255",
    "website": "https://www.hrblock.ca/stores/465-george-st/",
    "address": "465 George St, Sydney, NS B1P 1K5",
    "city": "Sydney",
    "state": "Nova Scotia",
    "state_code": "",
    "postal_code": "B1P 1K5",
    "latitude": 46.1373747,
    "longitude": -60.1917664,
    "rating": 4.3,
    "reviews": 112,
    "place_id": "ChIJc2D39jD7Z0sR6yeN8e94YhM"
  },
  {
    "name": "H&R Block",
    "category": "Tax preparation service",
    "phone": "+1 902-567-3373",
    "website": "https://www.hrblock.ca/stores/20-sydney-port-access-rd/",
    "address": "20 Sydney Port Access Rd, Sydney, NS B1P 7H2",
    "city": "Sydney",
    "state": "Nova Scotia",
    "state_code": "",
    "postal_code": "B1P 7H2",
    "latitude": 46.1481556,
    "longitude": -60.1434773,
    "rating": 4.7,
    "reviews": 23,
    "place_id": "ChIJIf1-a6PkZ0sRR15RRfVGGaM"
  },
  {
    "name": "H&R Block",
    "category": "Tax preparation service",
    "phone": "+1 902-539-6046",
    "website": "https://www.hrblock.ca/stores/53-keltic-dr/",
    "address": "53 Keltic Dr, Sydney River, NS B1S 1P4",
    "city": "Sydney River",
    "state": "Nova Scotia",
    "state_code": "",
    "postal_code": "B1S 1P4",
    "latitude": 46.1086733,
    "longitude": -60.2258692,
    "rating": 4.7,
    "reviews": 15,
    "place_id": "ChIJkahStaf7Z0sR83t7s9nAT_U"
  },
  {
    "name": "Nightfall Bookkeeping & Taxes",
    "category": "Tax preparation service",
    "phone": "+1 902-736-6064",
    "website": "https://nightfallbookkeeping.setmore.com/",
    "address": "2 Elliot St Unit 3, Sydney Mines, NS B1V 3G1",
    "city": "Sydney Mines",
    "state": "Nova Scotia",
    "state_code": "",
    "postal_code": "B1V 3G1",
    "latitude": 46.2426506,
    "longitude": -60.2287117,
    "rating": 5.0,
    "reviews": 5,
    "place_id": "ChIJ__k1-u7pZ0sRqB98cv86gQo"
  },
  {
    "name": "H&R Block",
    "category": "Tax preparation service",
    "phone": "+1 902-539-8824",
    "website": "https://www.hrblock.ca/stores/800-grand-lake-rd-49/",
    "address": "800 Grand Lake Rd #49, Sydney, NS B1P 6S9",
    "city": "Sydney",
    "state": "Nova Scotia",
    "state_code": "",
    "postal_code": "B1P 6S9",
    "latitude": 46.1469941,
    "longitude": -60.1386858,
    "rating": 4.3,
    "reviews": 6,
    "place_id": "ChIJc2D39jD7Z0sRqW8yeV7I4U0"
  },
  {
    "name": "H&R Block",
    "category": "Tax preparation service",
    "phone": "+1 902-794-7117",
    "website": "https://www.hrblock.ca/stores/220-commercial-st/",
    "address": "220 Commercial St, North Sydney, NS B2A 1B7",
    "city": "North Sydney",
    "state": "Nova Scotia",
    "state_code": "",
    "postal_code": "B2A 1B7",
    "latitude": 46.20787,
    "longitude": -60.25045799999999,
    "rating": 4.7,
    "reviews": 48,
    "place_id": "ChIJqZkZGwnvZ0sR-3H82E6beaE"
  },
  {
    "name": "Liberty Tax",
    "category": "Tax preparation",
    "phone": "+1 902-700-7492",
    "website": "https://www.libertytaxcanada.ca/70162",
    "address": "198 North St, Bridgewater, NS B4V 2V6",
    "city": "Bridgewater",
    "state": "Nova Scotia",
    "state_code": "",
    "postal_code": "B4V 2V6",
    "latitude": 44.3892395,
    "longitude": -64.5216744,
    "rating": 4.4,
    "reviews": 32,
    "place_id": "ChIJpebwbqNnV0sRLUGCIenEeQ4"
  },
  {
    "name": "H&R Block",
    "category": "Tax preparation service",
    "phone": "+1 902-543-7361",
    "website": "https://www.hrblock.ca/stores/28-davison-dr-115/",
    "address": "28 Davison Dr #115, Bridgewater, NS B4V 3T2",
    "city": "Bridgewater",
    "state": "Nova Scotia",
    "state_code": "",
    "postal_code": "B4V 3T2",
    "latitude": 44.3804613,
    "longitude": -64.5171622,
    "rating": 3.9,
    "reviews": 37,
    "place_id": "ChIJGdmVZ8ZnV0sRSjBE2C16Eo4"
  },
  {
    "name": "H&R Block",
    "category": "Tax preparation service",
    "phone": "+1 902-354-2911",
    "website": "https://www.hrblock.ca/stores/29-milton-rd/",
    "address": "29 Milton Rd, Liverpool, NS B0T 1K0",
    "city": "Liverpool",
    "state": "Nova Scotia",
    "state_code": "",
    "postal_code": "B0T 1K0",
    "latitude": 44.045579,
    "longitude": -64.72390399999999,
    "rating": 3.0,
    "reviews": 3,
    "place_id": "ChIJyxDWuBIhV0sRxh7HzrVHfcA"
  },
  {
    "name": "WDC Disability Tax Specialist Inc.",
    "category": "Tax consultant",
    "phone": "+1 902-755-5799",
    "website": "https://www.wdctax.ca/",
    "address": "61 Stellarton Rd, New Glasgow, NS B2H 1L7",
    "city": "New Glasgow",
    "state": "Nova Scotia",
    "state_code": "",
    "postal_code": "B2H 1L7",
    "latitude": 45.589349,
    "longitude": -62.650541,
    "rating": 4.9,
    "reviews": 107,
    "place_id": "ChIJV5mIaq0bXEsRCSHHsW3rUZ0"
  },
  {
    "name": "H&R Block",
    "category": "Tax preparation service",
    "phone": "+1 902-752-4263",
    "website": "https://www.hrblock.ca/stores/980-east-river-rd/",
    "address": "980 E River Rd, New Glasgow, NS B2H 3S8",
    "city": "New Glasgow",
    "state": "Nova Scotia",
    "state_code": "",
    "postal_code": "B2H 3S8",
    "latitude": 45.5701926,
    "longitude": -62.6418417,
    "rating": 4.3,
    "reviews": 35,
    "place_id": "ChIJ0QpFU_sbXEsR8O5XBtVPDzE"
  },
  {
    "name": "H&R Block",
    "category": "Tax preparation service",
    "phone": "+1 902-485-5282",
    "website": "https://www.hrblock.ca/stores/49-front-st/",
    "address": "49 Front St, Pictou, NS B0K 1H0",
    "city": "Pictou",
    "state": "Nova Scotia",
    "state_code": "",
    "postal_code": "B0K 1H0",
    "latitude": 45.6760488,
    "longitude": -62.7066318,
    "rating": 4.5,
    "reviews": 16,
    "place_id": "ChIJ093SLPWfXksR3kN_9fHYlZE"
  },
  {
    "name": "Liberty Tax",
    "category": "Tax preparation",
    "phone": "+1 902-700-7488",
    "website": "https://www.libertytaxcanada.ca/70180",
    "address": "368 Main St #222, Yarmouth, NS B5A 1E9",
    "city": "Yarmouth",
    "state": "Nova Scotia",
    "state_code": "",
    "postal_code": "B5A 1E9",
    "latitude": 43.8372603,
    "longitude": -66.12040259999999,
    "rating": 4.5,
    "reviews": 13,
    "place_id": "ChIJ5zJVlb4RVksRHdJ2jrVdFhE"
  },
  {
    "name": "H&R Block",
    "category": "Tax preparation service",
    "phone": "+1 902-742-8402",
    "website": "https://www.hrblock.ca/stores/308-main-st/",
    "address": "308 Main St, Yarmouth, NS B5A 4E1",
    "city": "Yarmouth",
    "state": "Nova Scotia",
    "state_code": "",
    "postal_code": "B5A 4E1",
    "latitude": 43.8354306,
    "longitude": -66.12030419999999,
    "rating": 3.0,
    "reviews": 5,
    "place_id": "ChIJp6c6zLgQVksR05GrtoDbxAI"
  },
  {
    "name": "Wayne Huskins Accounting Svc",
    "category": "Tax preparation service",
    "phone": "+1 902-742-6555",
    "website": "",
    "address": "11 Collins St, Yarmouth, NS B5A 3C5",
    "city": "Yarmouth",
    "state": "Nova Scotia",
    "state_code": "",
    "postal_code": "B5A 3C5",
    "latitude": 43.836591,
    "longitude": -66.11768599999999,
    "rating": 3.7,
    "reviews": 3,
    "place_id": "ChIJ6Vi0ZaoRVksRiAF53i9FGXY"
  },
  {
    "name": "H&R Block",
    "category": "Tax preparation service",
    "phone": "+1 902-634-3992",
    "website": "https://www.hrblock.ca/stores/172a-lincoln-st/",
    "address": "172A Lincoln St, Lunenburg, NS B0J 2C0",
    "city": "Lunenburg",
    "state": "Nova Scotia",
    "state_code": "",
    "postal_code": "B0J 2C0",
    "latitude": 44.3774571,
    "longitude": -64.31240269999999,
    "rating": 4.7,
    "reviews": 3,
    "place_id": "ChIJr9Gl4sVbV0sRhso-X902PRc"
  },
  {
    "name": "Tax 2000",
    "category": "Tax preparation service",
    "phone": "+1 902-893-7575",
    "website": "",
    "address": "245 Robie St, Truro, NS B2N 5N6",
    "city": "Truro",
    "state": "Nova Scotia",
    "state_code": "",
    "postal_code": "B2N 5N6",
    "latitude": 45.3706792,
    "longitude": -63.3028564,
    "rating": 4.1,
    "reviews": 20,
    "place_id": "ChIJFRyOsdxPWUsR5g1lnvDu-gw"
  },
  {
    "name": "H&R Block",
    "category": "Tax preparation service",
    "phone": "+1 902-895-6555",
    "website": "https://www.hrblock.ca/stores/80-walker-street-4/",
    "address": "80 Walker St Suite 4, Truro, NS B2N 4A7",
    "city": "Truro",
    "state": "Nova Scotia",
    "state_code": "",
    "postal_code": "B2N 4A7",
    "latitude": 45.365055,
    "longitude": -63.2731349,
    "rating": 3.0,
    "reviews": 26,
    "place_id": "ChIJjzKDx8hPWUsRLq-qA9Z3xBU"
  },
  {
    "name": "Matthew R. Balsor Income Tax Preparation and Advisory Services",
    "category": "Tax preparation service",
    "phone": "+1 902-300-0375",
    "website": "https://www.mattbalsor.com/",
    "address": "13864 Nova Scotia Trunk 1, Hantsport, NS B0P 1P0",
    "city": "Hantsport",
    "state": "Nova Scotia",
    "state_code": "",
    "postal_code": "B0P 1P0",
    "latitude": 45.0707515,
    "longitude": -64.19434989999999,
    "rating": 5.0,
    "reviews": 9,
    "place_id": "ChIJBU-1qoqrWUsRA7aIHxuwZhA"
  },
  {
    "name": "Tax 2000",
    "category": "Tax preparation service",
    "phone": "+1 902-928-2850",
    "website": "",
    "address": "249 S Foord St, Stellarton, NS B0K 1S0",
    "city": "Stellarton",
    "state": "Nova Scotia",
    "state_code": "",
    "postal_code": "B0K 1S0",
    "latitude": 45.5594234,
    "longitude": -62.6597486,
    "rating": 3.8,
    "reviews": 19,
    "place_id": "ChIJVzzCi64eXEsR6TXuuWfQ81k"
  },
  {
    "name": "Amherst Tax Services",
    "category": "Tax preparation service",
    "phone": "+1 902-667-9631",
    "website": "",
    "address": "13 W Pleasant St, Amherst, NS B4H 2R2",
    "city": "Amherst",
    "state": "Nova Scotia",
    "state_code": "",
    "postal_code": "B4H 2R2",
    "latitude": 45.8258655,
    "longitude": -64.21013119999999,
    "rating": 5.0,
    "reviews": 11,
    "place_id": "ChIJz9vpOuRJX0sRJ1CnkhH17aw"
  },
  {
    "name": "H&R Block",
    "category": "Tax preparation service",
    "phone": "+1 902-667-4777",
    "website": "https://www.hrblock.ca/stores/49-albion-st/",
    "address": "49 Albion St, Amherst, NS B4H 2V7",
    "city": "Amherst",
    "state": "Nova Scotia",
    "state_code": "",
    "postal_code": "B4H 2V7",
    "latitude": 45.82826559999999,
    "longitude": -64.20915889999999,
    "rating": 3.7,
    "reviews": 21,
    "place_id": "ChIJKS2M7DZJX0sRVOS1AJacze0"
  },
  {
    "name": "H&R Block",
    "category": "Tax preparation service",
    "phone": "+1 902-849-4440",
    "website": "https://www.hrblock.ca/stores/165-commercial-st/",
    "address": "165 Commercial St, Glace Bay, NS B1A 6J3",
    "city": "Glace Bay",
    "state": "Nova Scotia",
    "state_code": "",
    "postal_code": "B1A 6J3",
    "latitude": 46.196222,
    "longitude": -59.9560071,
    "rating": 3.8,
    "reviews": 18,
    "place_id": "ChIJq6it2MnhZ0sRziysRsP_U5I"
  },
  {
    "name": "Antigonish Tax Services",
    "category": "Tax preparation service",
    "phone": "+1 902-863-1447",
    "website": "https://antigonishtax.ca/",
    "address": "325 Main St Suite B2, Antigonish, NS B2G 2C3",
    "city": "Antigonish",
    "state": "Nova Scotia",
    "state_code": "",
    "postal_code": "B2G 2C3",
    "latitude": 45.6220363,
    "longitude": -61.99389439999999,
    "rating": 4.4,
    "reviews": 16,
    "place_id": "ChIJhVW0l9zOqkERyAycQpx1YnY"
  },
  {
    "name": "H&R Block",
    "category": "Tax preparation service",
    "phone": "+1 902-863-4808",
    "website": "https://www.hrblock.ca/stores/32-james-st/",
    "address": "32 James St, Antigonish, NS B2G 1R7",
    "city": "Antigonish",
    "state": "Nova Scotia",
    "state_code": "",
    "postal_code": "B2G 1R7",
    "latitude": 45.6160732,
    "longitude": -62.0025966,
    "rating": 4.9,
    "reviews": 14,
    "place_id": "ChIJhVufaANFXEsRt4Pa3ADvdyE"
  },
  {
    "name": "H&R Block",
    "category": "Tax preparation service",
    "phone": "+1 902-864-1526",
    "website": "https://www.hrblock.ca/stores/619-sackville-dr/",
    "address": "619 Sackville Dr, Sackville, NS B4C 2S4",
    "city": "Sackville",
    "state": "Nova Scotia",
    "state_code": "",
    "postal_code": "B4C 2S4",
    "latitude": 44.7691322,
    "longitude": -63.6867447,
    "rating": 3.6,
    "reviews": 51,
    "place_id": "ChIJvRSG-euIWUsRb5hjwogiDsc"
  }
]