[
  {
    "name": "North Bay Tax Services | North Bay Accounting Services",
    "category": "Tax preparation service",
    "phone": "+1 705-472-0080",
    "website": "http://accountonfullerton.com/",
    "address": "810 Cassells St, North Bay, ON P1B 4A6",
    "city": "North Bay",
    "state": "Ontario",
    "state_code": "",
    "postal_code": "P1B 4A6",
    "latitude": 46.3160422,
    "longitude": -79.4610105,
    "rating": 3.9,
    "reviews": 18,
    "place_id": "ChIJ0YoyEZmqKU0RY9PoXlhfnLA"
  },
  {
    "name": "US Tax Services and ITIN (not drop-in, pls e-mail us)",
    "category": "Tax preparation service",
    "phone": "+1 416-256-0080",
    "website": "http://www.ustaxservices.ca/",
    "address": "4 Manor Haven Rd, North York, ON M6A 2H9",
    "city": "North York",
    "state": "Ontario",
    "state_code": "",
    "postal_code": "M6A 2H9",
    "latitude": 43.721517,
    "longitude": -79.43576689999999,
    "rating": 4.9,
    "reviews": 135,
    "place_id": "ChIJp9NVatQzK4gR-FXOk5pX8eQ"
  },
  {
    "name": "Grants Tax Preparation",
    "category": "Tax preparation service",
    "phone": "+1 705-472-2481",
    "website": "",
    "address": "1229 Cedargrove Dr, North Bay, ON P1B 4S1",
    "city": "North Bay",
    "state": "Ontario",
    "state_code": "",
    "postal_code": "P1B 4S1",
    "latitude": 46.3282447,
    "longitude": -79.4797821,
    "rating": 4.1,
    "reviews": 22,
    "place_id": "ChIJEUPoN6yqKU0R6scrhMTLVkw"
  },
  {
    "name": "Harbourfront Tax & Bookkeeping",
    "category": "Tax preparation service",
    "phone": "+1 416-792-7918",
    "website": "http://www.harbourfronttax.com/",
    "address": "16 Yonge St Suite 1009, Toronto, ON M5E 2A3",
    "city": "Toronto",
    "state": "Ontario",
    "state_code": "",
    "postal_code": "M5E 2A3",
    "latitude": 43.6433574,
    "longitude": -79.3758466,
    "rating": 4.7,
    "reviews": 63,
    "place_id": "ChIJO0mjkivL1IkR4EcpzvYwti8"
  },
  {
    "name": "Tax Shack",
    "category": "Tax preparation",
    "phone": "+1 705-482-1570",
    "website": "http://taxshacknorthbay.com/",
    "address": "240 1st Ave W, North Bay, ON P1B 3C1",
    "city": "North Bay",
    "state": "Ontario",
    "state_code": "",
    "postal_code": "P1B 3C1",
    "latitude": 46.3142113,
    "longitude": -79.4624027,
    "rating": 5.0,
    "reviews": 9,
    "place_id": "ChIJ6yBCD5uqKU0R9P_6PeFUwjE"
  },
  {
    "name": "Tax Tree",
    "category": "Tax preparation service",
    "phone": "+1 647-236-8585",
    "website": "http://taxtree.ca/",
    "address": "4789 Yonge St Unit 613, Toronto, ON M2N 0G3",
    "city": "Toronto",
    "state": "Ontario",
    "state_code": "",
    "postal_code": "M2N 0G3",
    "latitude": 43.7611977,
    "longitude": -79.4102736,
    "rating": 4.7,
    "reviews": 14,
    "place_id": "ChIJUzdFebItK4gRHwpY6T0e_jA"
  },
  {
    "name": "St. Lawrence Tax & Accounting",
    "category": "Tax preparation service",
    "phone": "+1 647-393-3535",
    "website": "http://www.stlawrencetax.com/",
    "address": "248 The Esplanade, Toronto, ON M5A 4J6",
    "city": "Toronto",
    "state": "Ontario",
    "state_code": "",
    "postal_code": "M5A 4J6",
    "latitude": 43.6497755,
    "longitude": -79.36454979999999,
    "rating": 4.9,
    "reviews": 317,
    "place_id": "ChIJmVXcsg3L1IkRVJ5uC00k4jo"
  },
  {
    "name": "L N Figures",
    "category": "Tax preparation",
    "phone": "+1 705-495-2965",
    "website": "",
    "address": "440 Wyld St, North Bay, ON P1B 1Z5",
    "city": "North Bay",
    "state": "Ontario",
    "state_code": "",
    "postal_code": "P1B 1Z5",
    "latitude": 46.309683,
    "longitude": -79.46109299999999,
    "rating": 4.6,
    "reviews": 22,
    "place_id": "ChIJj0Y-zZqqKU0RNW4kXo3wx18"
  },
  {
    "name": "MD Tax",
    "category": "Tax consultant",
    "phone": "+1 416-487-1463",
    "website": "http://www.mdtax.ca/",
    "address": "3438 Yonge St, Toronto, ON M4N 2M9",
    "city": "Toronto",
    "state": "Ontario",
    "state_code": "",
    "postal_code": "M4N 2M9",
    "latitude": 43.7336636,
    "longitude": -79.4047229,
    "rating": 4.8,
    "reviews": 124,
    "place_id": "ChIJKa9H0DwzK4gRE9DXlN6JWc4"
  },
  {
    "name": "H&R Block",
    "category": "Tax preparation service",
    "phone": "+1 705-494-7187",
    "website": "https://www.hrblock.ca/stores/1500-fisher-st-141b/",
    "address": "1500 Fisher St #141B, North Bay, ON P1B 2H3",
    "city": "North Bay",
    "state": "Ontario",
    "state_code": "",
    "postal_code": "P1B 2H3",
    "latitude": 46.3146329,
    "longitude": -79.44066289999999,
    "rating": 4.9,
    "reviews": 67,
    "place_id": "ChIJQWestuuqKU0RH7cpNjZxXK8"
  },
  {
    "name": "Liberty Tax",
    "category": "Tax preparation",
    "phone": "+1 705-482-0523",
    "website": "https://www.libertytax.ca/",
    "address": "559A Main St E, North Bay, ON P1B 1B7",
    "city": "North Bay",
    "state": "Ontario",
    "state_code": "",
    "postal_code": "P1B 1B7",
    "latitude": 46.3041566,
    "longitude": -79.458866,
    "rating": 4.3,
    "reviews": 33,
    "place_id": "ChIJjUhhn5GrKU0ROBjzeCp1meg"
  },
  {
    "name": "Taxccount | Best TAX Filing Service by TAX Accountant | Business TAX & Corporate TAX by Accounting Firm Toronto",
    "category": "Tax preparation service",
    "phone": "+1 416-619-0068",
    "website": "http://www.taxccount.com/",
    "address": "381 Front St W, Toronto, ON M5V 3R8",
    "city": "Toronto",
    "state": "Ontario",
    "state_code": "",
    "postal_code": "M5V 3R8",
    "latitude": 43.6428078,
    "longitude": -79.3926618,
    "rating": 5.0,
    "reviews": 92,
    "place_id": "ChIJUwkNPew1K4gR3hlJcgfnHeo"
  },
  {
    "name": "H&R Block",
    "category": "Tax preparation service",
    "phone": "+1 416-488-8720",
    "website": "https://www.hrblock.ca/stores/2460-yonge-st/",
    "address": "2460 Yonge St, Toronto, ON M4P 2H5",
    "city": "Toronto",
    "state": "Ontario",
    "state_code": "",
    "postal_code": "M4P 2H5",
    "latitude": 43.711122,
    "longitude": -79.399469,
    "rating": 4.2,
    "reviews": 247,
    "place_id": "ChIJ1RR3FiMzK4gRYNp7I0qUErc"
  },
  {
    "name": "NRK Accounting | Tax Accountant Toronto",
    "category": "Tax preparation",
    "phone": "+1 416-577-4301",
    "website": "http://www.nrkaccounting.com/",
    "address": "40 Wynford Dr Suite 211, North York, ON M3C 1J5",
    "city": "CA",
    "state": "Ontario",
    "state_code": "",
    "postal_code": "M3C 1J5",
    "latitude": 43.724281,
    "longitude": -79.335742,
    "rating": 4.9,
    "reviews": 108,
    "place_id": "ChIJ5diV3QnN1IkRLLv4noVbOz0"
  },
  {
    "name": "H&R Block",
    "category": "Tax preparation service",
    "phone": "+1 705-494-7180",
    "website": "https://www.hrblock.ca/stores/116-main-st-w/",
    "address": "116 Main St W, North Bay, ON P1B 2T5",
    "city": "North Bay",
    "state": "Ontario",
    "state_code": "",
    "postal_code": "P1B 2T5",
    "latitude": 46.3109133,
    "longitude": -79.4640142,
    "rating": 4.3,
    "reviews": 90,
    "place_id": "ChIJKex2MpOFKU0RKgXHLoAqbrk"
  },
  {
    "name": "H&R Block",
    "category": "Tax preparation service",
    "phone": "+1 705-475-1331",
    "website": "https://www.hrblock.ca/stores/300-lakeshore-dr-718b/",
    "address": "300 Lakeshore Dr #718B, North Bay, ON P1A 3V2",
    "city": "North Bay",
    "state": "Ontario",
    "state_code": "",
    "postal_code": "P1A 3V2",
    "latitude": 46.2835307,
    "longitude": -79.4480523,
    "rating": 4.4,
    "reviews": 17,
    "place_id": "ChIJJamL6kaqKU0RkBAkWtxYbYU"
  },
  {
    "name": "Stateside Tax Solutions",
    "category": "Tax preparation service",
    "phone": "+1 888-570-3335",
    "website": "http://www.statesidetax.com/",
    "address": "490 Dundas St W Unit 101, Belleville, ON K8P 1B7",
    "city": "Belleville",
    "state": "Ontario",
    "state_code": "",
    "postal_code": "K8P 1B7",
    "latitude": 44.1462843,
    "longitude": -77.4148819,
    "rating": 4.8,
    "reviews": 17,
    "place_id": "ChIJZ3wOsu4l1okR_ata2uz06Og"
  },
  {
    "name": "H&R Block",
    "category": "Tax preparation service",
    "phone": "+1 613-966-3742",
    "website": "https://www.hrblock.ca/stores/110-front-st-n-c5/",
    "address": "110 Front St N C5, Belleville, ON K8P 5J8",
    "city": "Belleville",
    "state": "Ontario",
    "state_code": "",
    "postal_code": "K8P 5J8",
    "latitude": 44.1759973,
    "longitude": -77.39128649999999,
    "rating": 4.4,
    "reviews": 65,
    "place_id": "ChIJla-tZW8l1okR1eNJYQvSuIQ"
  },
  {
    "name": "ABCOF Business Services Inc. o/a Select Services",
    "category": "Tax preparation service",
    "phone": "+1 613-969-7171",
    "website": "http://selectservicesaccounting.com/",
    "address": "436 Dundas St W #4, Belleville, ON K8P 1B5",
    "city": "Belleville",
    "state": "Ontario",
    "state_code": "",
    "postal_code": "K8P 1B5",
    "latitude": 44.1471767,
    "longitude": -77.40945649999999,
    "rating": 5.0,
    "reviews": 5,
    "place_id": "ChIJI7eA-Fsl1okRji4LNfmHVEg"
  },
  {
    "name": "White Tax Service",
    "category": "Tax preparation service",
    "phone": "+1 613-771-0158",
    "website": "",
    "address": "196 Front St, Belleville, ON K8N 2Y7",
    "city": "Belleville",
    "state": "Ontario",
    "state_code": "",
    "postal_code": "K8N 2Y7",
    "latitude": 44.1633972,
    "longitude": -77.3840997,
    "rating": 4.5,
    "reviews": 2,
    "place_id": "ChIJZTW-X1kl1okRcP_G4Aigdhg"
  },
  {
    "name": "Volunteer Tax Preparation Clinics",
    "category": "Tax preparation service",
    "phone": "+1 613-962-6657",
    "website": "http://www.cra-arc.gc.ca/tx/ndvdls/vlntr/clncs/belleville-on-eng.html",
    "address": "470 Dundas St E Suite 38, Belleville, ON K8N 5L1",
    "city": "Belleville",
    "state": "Ontario",
    "state_code": "",
    "postal_code": "K8N 5L1",
    "latitude": 44.1688458,
    "longitude": -77.3529123,
    "rating": 3.0,
    "reviews": 2,
    "place_id": "ChIJI4s-jqncVkARw7zfy4osxlM"
  },
  {
    "name": "H&R Block",
    "category": "Tax preparation service",
    "phone": "+1 613-966-2973",
    "website": "https://www.hrblock.ca/stores/260-front-st/",
    "address": "260 Front St, Belleville, ON K8N 2Z2",
    "city": "Belleville",
    "state": "Ontario",
    "state_code": "",
    "postal_code": "K8N 2Z2",
    "latitude": 44.165284,
    "longitude": -77.385037,
    "rating": 3.8,
    "reviews": 47,
    "place_id": "ChIJ-yXnXlkl1okRV8l5tnNhox8"
  },
  {
    "name": "Roche",
    "category": "Tax preparation service",
    "phone": "+1 613-962-8785",
    "website": "https://www.rochefinancialgroup.ca/pages/service-areas/tax-accountants-financial-planners-belleville-ontario",
    "address": "690 Sidney St unit 16, Belleville, ON K8P 4A8",
    "city": "Belleville",
    "state": "Ontario",
    "state_code": "",
    "postal_code": "K8P 4A8",
    "latitude": 44.1845385,
    "longitude": -77.41044289999999,
    "rating": 3.3,
    "reviews": 7,
    "place_id": "ChIJAesnEQ8l1okRNvUEdyXHIcs"
  },
  {
    "name": "Nicholson Accounting Svc",
    "category": "Tax preparation service",
    "phone": "+1 613-969-0662",
    "website": "",
    "address": "212 Haig Rd, Belleville, ON K8N 4P2",
    "city": "Belleville",
    "state": "Ontario",
    "state_code": "",
    "postal_code": "K8N 4P2",
    "latitude": 44.1726373,
    "longitude": -77.34147759999999,
    "rating": 3.9,
    "reviews": 7,
    "place_id": "ChIJR-tdNLAv1okRa8jexDb4WwM"
  },
  {
    "name": "Smart Tax",
    "category": "Tax preparation service",
    "phone": "+1 613-969-0658",
    "website": "",
    "address": "507 Wallbridge Rd, Belleville, ON K8N 4Z5",
    "city": "Belleville",
    "state": "Ontario",
    "state_code": "",
    "postal_code": "K8N 4Z5",
    "latitude": 44.2066115,
    "longitude": -77.4701748,
    "rating": 5.0,
    "reviews": 1,
    "place_id": "ChIJkf1IQnck1okRe0h8KAq9-Eo"
  },
  {
    "name": "H&R Block",
    "category": "Tax preparation service",
    "phone": "+1 613-962-4544",
    "website": "https://www.hrblock.ca/stores/390-north-front-st-d04c/",
    "address": "390 N Front St D04C, Belleville, ON K8P 3C9",
    "city": "Belleville",
    "state": "Ontario",
    "state_code": "",
    "postal_code": "K8P 3C9",
    "latitude": 44.1891137,
    "longitude": -77.4017528,
    "rating": 3.5,
    "reviews": 11,
    "place_id": "ChIJX6b4_p0l1okRHzNv_ois6sQ"
  },
  {
    "name": "AZR Tax & Accounting",
    "category": "Tax preparation service",
    "phone": "+1 647-780-6874",
    "website": "",
    "address": "122 Centre St, Belleville, ON K8N 4W8",
    "city": "Belleville",
    "state": "Ontario",
    "state_code": "",
    "postal_code": "K8N 4W8",
    "latitude": 44.18744,
    "longitude": -77.378766,
    "rating": 5.0,
    "reviews": 1,
    "place_id": "ChIJq9WnK8Ml1okRHNAUqPC6_DU"
  },
  {
    "name": "Innisfil Tax and Accounting Inc.",
    "category": "Tax preparation",
    "phone": "+1 705-816-6829",
    "website": "https://www.innisfiltax.com/",
    "address": "966 Innisfil Beach Rd, Innisfil Beach, ON L9S 2C2",
    "city": "Innisfil Beach",
    "state": "Ontario",
    "state_code": "",
    "postal_code": "L9S 2C2",
    "latitude": 44.31509399999999,
    "longitude": -79.54857,
    "rating": 5.0,
    "reviews": 5,
    "place_id": "ChIJb6OQAcOxKogRnIUVYvutFno"
  },
  {
    "name": "H&R Block",
    "category": "Tax preparation service",
    "phone": "+1 705-436-3154",
    "website": "https://www.hrblock.ca/stores/1070-innisfil-beach-rd-25/",
    "address": "1070 Innisfil Beach Rd #25, Alcona, ON L9S 4T9",
    "city": "Alcona",
    "state": "Ontario",
    "state_code": "",
    "postal_code": "L9S 4T9",
    "latitude": 44.31391,
    "longitude": -79.5540638,
    "rating": 4.7,
    "reviews": 68,
    "place_id": "ChIJEUe3RaKwKogRZNZU9fwN7rM"
  },
  {
    "name": "Liberty Tax",
    "category": "Tax preparation",
    "phone": "+1 705-302-3474",
    "website": "https://www.libertytaxcanada.ca/70796",
    "address": "29 Queen St, Cookstown, ON L0L 1L0",
    "city": "Cookstown",
    "state": "Ontario",
    "state_code": "",
    "postal_code": "L0L 1L0",
    "latitude": 44.1890574,
    "longitude": -79.7044688,
    "rating": 4.5,
    "reviews": 28,
    "place_id": "ChIJTduUAIKxKogRREPHtkxo5MY"
  },
  {
    "name": "Mann Financial & Tax Services Inc.",
    "category": "Tax preparation service",
    "phone": "+1 778-697-1784",
    "website": "",
    "address": "1489 Tomkins Rd, Innisfil, ON L9S 0M8",
    "city": "Innisfil",
    "state": "Ontario",
    "state_code": "",
    "postal_code": "L9S 0M8",
    "latitude": 44.3129357,
    "longitude": -79.57732469999999,
    "rating": 4.8,
    "reviews": 21,
    "place_id": "ChIJ8dyJAHElK4gRggSlt4IYmqQ"
  },
  {
    "name": "Trillium Tax Services",
    "category": "Tax preparation",
    "phone": "+1 647-203-4442",
    "website": "http://www.trilliumtaxservices.ca/",
    "address": "39 Darcel Crescent, Barrie, ON L4M 6X3",
    "city": "Barrie",
    "state": "Ontario",
    "state_code": "",
    "postal_code": "L4M 6X3",
    "latitude": 44.4159026,
    "longitude": -79.69668999999999,
    "rating": 5.0,
    "reviews": 14,
    "place_id": "ChIJdfhKPI9oKk0RlTz5weP7EU4"
  },
  {
    "name": "Rose Tax & Accounting Service",
    "category": "Tax preparation service",
    "phone": "+1 705-721-1084",
    "website": "https://www.rosetaxservice.com/",
    "address": "49 Essa Rd, Barrie, ON L4N 3K4",
    "city": "Barrie",
    "state": "Ontario",
    "state_code": "",
    "postal_code": "L4N 3K4",
    "latitude": 44.3726832,
    "longitude": -79.6920732,
    "rating": 4.1,
    "reviews": 250,
    "place_id": "ChIJtR2N5bWiKogRZoDehDk84ho"
  },
  {
    "name": "Business Solutions",
    "category": "Tax preparation service",
    "phone": "+1 705-725-0336",
    "website": "http://www.businesssolutionsbarrie.com/",
    "address": "215 Mary Anne Dr, Barrie, ON L4N 4T1",
    "city": "Barrie",
    "state": "Ontario",
    "state_code": "",
    "postal_code": "L4N 4T1",
    "latitude": 44.3624523,
    "longitude": -79.6470168,
    "rating": 5.0,
    "reviews": 136,
    "place_id": "ChIJYbxWm0a8KogR17owEvNEnK8"
  },
  {
    "name": "Sum It Up Bookkeeping",
    "category": "Tax preparation service",
    "phone": "+1 705-436-4133",
    "website": "http://sumitupbookkeeping.ca/",
    "address": "2108 Innisfil Beach Rd, Innisfil, ON L9S 4B9",
    "city": "Innisfil",
    "state": "Ontario",
    "state_code": "",
    "postal_code": "L9S 4B9",
    "latitude": 44.3015645,
    "longitude": -79.6085595,
    "rating": 5.0,
    "reviews": 2,
    "place_id": "ChIJZU-_mlq4Kk0RxJsxYMrHj-8"
  },
  {
    "name": "Ramos Tax Services Inc.",
    "category": "Tax preparation",
    "phone": "+1 705-717-4402",
    "website": "http://www.ramostaxservices.com/",
    "address": "431 Huronia Rd #13, Barrie, ON L4N 9B3",
    "city": "Barrie",
    "state": "Ontario",
    "state_code": "",
    "postal_code": "L4N 9B3",
    "latitude": 44.35071569999999,
    "longitude": -79.6640821,
    "rating": 4.8,
    "reviews": 16,
    "place_id": "ChIJcameOVG8KogR0mvaLuucTBA"
  },
  {
    "name": "FBC Farm and Small Business Tax Consultants",
    "category": "Tax preparation service",
    "phone": "+1 705-725-8893",
    "website": "https://fbc.ca/",
    "address": "240 Bayview Dr #10, Barrie, ON L4N 4Y8",
    "city": "Barrie",
    "state": "Ontario",
    "state_code": "",
    "postal_code": "L4N 4Y8",
    "latitude": 44.3570269,
    "longitude": -79.68247079999999,
    "rating": 4.5,
    "reviews": 65,
    "place_id": "ChIJdb39u--8KogRa5ylFWRcqbg"
  },
  {
    "name": "Tax Busters",
    "category": "Tax preparation service",
    "phone": "+1 705-719-2999",
    "website": "http://taxbustersinc.ca/contact-us",
    "address": "4 Berry Ct, Barrie, ON L4N 0J6",
    "city": "Barrie",
    "state": "Ontario",
    "state_code": "",
    "postal_code": "L4N 0J6",
    "latitude": 44.35180709999999,
    "longitude": -79.7273743,
    "rating": 5.0,
    "reviews": 4,
    "place_id": "ChIJ__-DvXe9KogR6baDn5q1hfI"
  },
  {
    "name": "Liberty Tax",
    "category": "Tax preparation",
    "phone": "+1 705-315-0434",
    "website": "https://www.libertytaxcanada.ca/70438",
    "address": "580 Bryne Dr D2, Barrie, ON L4N 9P6",
    "city": "Barrie",
    "state": "Ontario",
    "state_code": "",
    "postal_code": "L4N 9P6",
    "latitude": 44.3253085,
    "longitude": -79.6878279,
    "rating": 4.5,
    "reviews": 75,
    "place_id": "ChIJ6Yj_lni9KogRrE3mB7yaaLc"
  },
  {
    "name": "Lori Mc Gregor Income Tax Services",
    "category": "Tax preparation service",
    "phone": "+1 416-253-6451",
    "website": "",
    "address": "12 Norris Crescent, Etobicoke, ON M8V 1S2",
    "city": "Etobicoke",
    "state": "Ontario",
    "state_code": "",
    "postal_code": "M8V 1S2",
    "latitude": 43.6107097,
    "longitude": -79.48883359999999,
    "rating": 4.5,
    "reviews": 16,
    "place_id": "ChIJAwyFwuFJK4gR1Hu6grFBeZg"
  },
  {
    "name": "Quick Refund Tax",
    "category": "Tax preparation service",
    "phone": "+1 647-340-2627",
    "website": "http://www.quickrefundtax.com/",
    "address": "133 Sixth St, Etobicoke, ON M8V 3A6",
    "city": "CA",
    "state": "Ontario",
    "state_code": "",
    "postal_code": "M8V 3A6",
    "latitude": 43.6013621,
    "longitude": -79.50413999999999,
    "rating": 4.4,
    "reviews": 27,
    "place_id": "ChIJi-nxgM9JK4gRgFcfNyuBcyQ"
  },
  {
    "name": "Taxacc Accounting and Taxation CPA",
    "category": "Tax preparation service",
    "phone": "+1 647-482-4818",
    "website": "http://www.taxaccservicescpa.ca/",
    "address": "1535 Kitchen Ct, Milton, ON L9E 1Y7",
    "city": "Milton",
    "state": "Ontario",
    "state_code": "",
    "postal_code": "L9E 1Y7",
    "latitude": 43.471497,
    "longitude": -79.85602159999999,
    "rating": 5.0,
    "reviews": 75,
    "place_id": "ChIJhxjz_A1lK4gR4Zewe9X1vPc"
  },
  {
    "name": "Liberty Tax",
    "category": "Tax preparation",
    "phone": "+1 289-768-8878",
    "website": "https://www.libertytaxcanada.ca/70866",
    "address": "1234 Main St E, Milton, ON L9T 8M7",
    "city": "Milton",
    "state": "Ontario",
    "state_code": "",
    "postal_code": "L9T 8M7",
    "latitude": 43.5333998,
    "longitude": -79.860839,
    "rating": 4.9,
    "reviews": 80,
    "place_id": "ChIJKeAD1Y1vK4gREEX7Ldx1CMI"
  },
  {
    "name": "Mac's Tax & Business Consulting Ltd | Income Tax Services",
    "category": "Tax preparation service",
    "phone": "+1 416-251-5749",
    "website": "http://www.macstax.ca/",
    "address": "2733 Lake Shore Blvd W #217, Etobicoke, ON M8V 1G9",
    "city": "Etobicoke",
    "state": "Ontario",
    "state_code": "",
    "postal_code": "M8V 1G9",
    "latitude": 43.6022203,
    "longitude": -79.49809049999999,
    "rating": 5.0,
    "reviews": 8,
    "place_id": "ChIJDc28WsNJK4gRmZTqrDMxeFo"
  },
  {
    "name": "T&T Income Tax and Accounting Services",
    "category": "Tax preparation service",
    "phone": "+1 647-706-5617",
    "website": "",
    "address": "80 Birmingham St, Etobicoke, ON M8V 3W6",
    "city": "Etobicoke",
    "state": "Ontario",
    "state_code": "",
    "postal_code": "M8V 3W6",
    "latitude": 43.6037425,
    "longitude": -79.5049908,
    "rating": 5.0,
    "reviews": 9,
    "place_id": "ChIJBzgSyXNJK4gRLvChi2qndUU"
  },
  {
    "name": "Liberty Tax",
    "category": "Tax preparation",
    "phone": "+1 289-768-5840",
    "website": "https://www.libertytaxcanada.ca/70669",
    "address": "75 Main St E Unit 12, Milton, ON L9T 1N4",
    "city": "Milton",
    "state": "Ontario",
    "state_code": "",
    "postal_code": "L9T 1N4",
    "latitude": 43.5104747,
    "longitude": -79.886421,
    "rating": 3.5,
    "reviews": 15,
    "place_id": "ChIJa9hYelBvK4gRPRoCoNMfyZo"
  },
  {
    "name": "Best Account Consultants (Milton)",
    "category": "Tax consultant",
    "phone": "+1 647-539-5965",
    "website": "",
    "address": "310 Main St E #101, Milton, ON L9T 1P4",
    "city": "Milton",
    "state": "Ontario",
    "state_code": "",
    "postal_code": "L9T 1P4",
    "latitude": 43.5152892,
    "longitude": -79.8803973,
    "rating": 5.0,
    "reviews": 25,
    "place_id": "ChIJG-2Z3yJvK4gRF1CGadXKOzo"
  },
  {
    "name": "TSM TAX ADVISORY",
    "category": "Tax consultant",
    "phone": "+1 647-676-7995",
    "website": "http://www.tsmtaxadvisory.ca/",
    "address": "810 Nipissing Rd Suite 200, Milton, ON L9T 4Z9",
    "city": "Milton",
    "state": "Ontario",
    "state_code": "",
    "postal_code": "L9T 4Z9",
    "latitude": 43.5217726,
    "longitude": -79.8651648,
    "rating": 5.0,
    "reviews": 67,
    "place_id": "ChIJp395Qm1vK4gRUPQVtXEW7C4"
  },
  {
    "name": "The Brothers for Accounting & Tax Services Inc.",
    "category": "Tax preparation service",
    "phone": "+1 226-766-9000",
    "website": "https://thebros-accountingtax.com/",
    "address": "1450 Bews Landing, Milton, ON L9T 6J4",
    "city": "Milton",
    "state": "Ontario",
    "state_code": "",
    "postal_code": "L9T 6J4",
    "latitude": 43.5294221,
    "longitude": -79.84669869999999,
    "rating": 5.0,
    "reviews": 45,
    "place_id": "ChIJIVQl8wNvK4gRmwNOz1M6z5Q"
  },
  {
    "name": "Tax consultant of Canada",
    "category": "Tax preparation service",
    "phone": "+1 647-801-4842",
    "website": "",
    "address": "196 Ruhl Dr, Milton, ON L9T 8C9",
    "city": "Milton",
    "state": "Ontario",
    "state_code": "",
    "postal_code": "L9T 8C9",
    "latitude": 43.4928476,
    "longitude": -79.86182,
    "rating": 5.0,
    "reviews": 1,
    "place_id": "ChIJiZUU479lK4gRx1N_3NhnJRo"
  },
  {
    "name": "FIN Tactics",
    "category": "Tax preparation",
    "phone": "+1 416-846-0835",
    "website": "http://www.fintactics.com/",
    "address": "24 Martin St Ground Floor, Milton, ON L9T 2P9",
    "city": "Milton",
    "state": "Ontario",
    "state_code": "",
    "postal_code": "L9T 2P9",
    "latitude": 43.5138359,
    "longitude": -79.88371459999999,
    "rating": 5.0,
    "reviews": 37,
    "place_id": "ChIJ2wlQpKcVK4gRRKxbm682bM4"
  },
  {
    "name": "Liberty Tax",
    "category": "Tax preparation",
    "phone": "+1 647-503-5016",
    "website": "https://www.libertytaxcanada.ca/70543",
    "address": "2949 Lake Shore Blvd W, Etobicoke, ON M8V 1J5",
    "city": "CA",
    "state": "Ontario",
    "state_code": "",
    "postal_code": "M8V 1J5",
    "latitude": 43.6005076,
    "longitude": -79.5056446,
    "rating": 3.4,
    "reviews": 24,
    "place_id": "ChIJzyE0sABJK4gRokpXVYdgWa4"
  },
  {
    "name": "Taxwide",
    "category": "Tax preparation",
    "phone": "+1 905-875-3726",
    "website": "http://taxwide.com/",
    "address": "497 Laurier Ave, Milton, ON L9T 3K8",
    "city": "Milton",
    "state": "Ontario",
    "state_code": "",
    "postal_code": "L9T 3K8",
    "latitude": 43.50890829999999,
    "longitude": -79.862719,
    "rating": 5.0,
    "reviews": 18,
    "place_id": "ChIJH9Pz8m1vK4gR5gHgRd83DVQ"
  },
  {
    "name": "H&R Block",
    "category": "Tax preparation service",
    "phone": "+1 416-252-5976",
    "website": "https://www.hrblock.ca/stores/3180-lake-shore-blvd-w-4/",
    "address": "3180 Lake Shore Blvd W Unit 4, Etobicoke, ON M8V 1L7",
    "city": "CA",
    "state": "Ontario",
    "state_code": "",
    "postal_code": "M8V 1L7",
    "latitude": 43.5981496,
    "longitude": -79.5187,
    "rating": 3.7,
    "reviews": 36,
    "place_id": "ChIJo3RwUTRIK4gRa7cSTQo5V5U"
  },
  {
    "name": "Softron Tax",
    "category": "Tax preparation service",
    "phone": "+1 905-273-4444",
    "website": "http://www.softrontax.com/locations/head-office/",
    "address": "3161 Hurontario St, Mississauga, ON L5A 4K9",
    "city": "Mississauga",
    "state": "Ontario",
    "state_code": "",
    "postal_code": "L5A 4K9",
    "latitude": 43.5836397,
    "longitude": -79.6207689,
    "rating": 4.9,
    "reviews": 1106,
    "place_id": "ChIJycu_NeJGK4gRdYQ2RcuQ2M8"
  },
  {
    "name": "H&R Block",
    "category": "Tax preparation service",
    "phone": "+1 905-876-4654",
    "website": "https://www.hrblock.ca/stores/500-laurier-ave-17/",
    "address": "500 Laurier Ave #17, Milton, ON L9T 4R3",
    "city": "Milton",
    "state": "Ontario",
    "state_code": "",
    "postal_code": "L9T 4R3",
    "latitude": 43.5080618,
    "longitude": -79.8620583,
    "rating": 3.6,
    "reviews": 105,
    "place_id": "ChIJIV5P_21vK4gRxw1RJre1pCM"
  },
  {
    "name": "Liberty Tax",
    "category": "Tax preparation",
    "phone": "+1 226-400-5983",
    "website": "https://www.libertytaxcanada.ca/70259",
    "address": "200 King George Rd, Brantford, ON N3R 5L3",
    "city": "Brantford",
    "state": "Ontario",
    "state_code": "",
    "postal_code": "N3R 5L3",
    "latitude": 43.1743714,
    "longitude": -80.2776145,
    "rating": 4.7,
    "reviews": 120,
    "place_id": "ChIJGUaSMUhvLIgRCa3lyCN84DY"
  },
  {
    "name": "Horseshoe Tax & Bookkeeping Services",
    "category": "Tax preparation service",
    "phone": "+1 519-759-4844",
    "website": "http://www.horseshoetaxservices.ca/",
    "address": "45 Dalkeith Dr Unit 5, Brantford, ON N3P 1M1",
    "city": "Brantford",
    "state": "Ontario",
    "state_code": "",
    "postal_code": "N3P 1M1",
    "latitude": 43.176908,
    "longitude": -80.23622999999999,
    "rating": 3.8,
    "reviews": 34,
    "place_id": null
  },
  {
    "name": "Liberty Tax",
    "category": "Tax preparation",
    "phone": "+1 226-400-9026",
    "website": "https://www.libertytaxcanada.ca/70260",
    "address": "120 Colborne St, Brantford, ON N3T 2J1",
    "city": "Brantford",
    "state": "Ontario",
    "state_code": "",
    "postal_code": "N3T 2J1",
    "latitude": 43.1385845,
    "longitude": -80.2650221,
    "rating": 4.4,
    "reviews": 111,
    "place_id": "ChIJzzja0RlnLIgRQ8_Dh_OCYwQ"
  },
  {
    "name": "Laracy & Associates",
    "category": "Tax preparation service",
    "phone": "+1 519-752-6230",
    "website": "",
    "address": "427 St Paul Ave, Brantford, ON N3R 4N8",
    "city": "Brantford",
    "state": "Ontario",
    "state_code": "",
    "postal_code": "N3R 4N8",
    "latitude": 43.15912369999999,
    "longitude": -80.2719302,
    "rating": 3.9,
    "reviews": 18,
    "place_id": "ChIJEzUbQe5lLIgR3W9rr0zUHhE"
  },
  {
    "name": "JGM Tax",
    "category": "Tax preparation service",
    "phone": "+1 519-756-3636",
    "website": "",
    "address": "207 Memorial Dr, Brantford, ON N3R 5S9",
    "city": "Brantford",
    "state": "Ontario",
    "state_code": "",
    "postal_code": "N3R 5S9",
    "latitude": 43.1816631,
    "longitude": -80.26792259999999,
    "rating": 4.6,
    "reviews": 11,
    "place_id": "ChIJxfc8AINlLIgR0wRihtCbWhg"
  },
  {
    "name": "TaxAid Inc.",
    "category": "Tax preparation service",
    "phone": "+1 519-500-8982",
    "website": "http://www.gotaxaid.ca/",
    "address": "32 Colonial Crescent, Brantford, ON N3R 7M7",
    "city": "Brantford",
    "state": "Ontario",
    "state_code": "",
    "postal_code": "N3R 7M7",
    "latitude": 43.1854035,
    "longitude": -80.2691215,
    "rating": 5.0,
    "reviews": 11,
    "place_id": "ChIJaYRO45f2K4gR8QGQJ7gSdhc"
  },
  {
    "name": "The Tax Doctors",
    "category": "Tax preparation service",
    "phone": "+1 519-757-1166",
    "website": "",
    "address": "4 Centennial Dr, Brantford, ON N3R 5X6",
    "city": "Brantford",
    "state": "Ontario",
    "state_code": "",
    "postal_code": "N3R 5X6",
    "latitude": 43.1741792,
    "longitude": -80.2503708,
    "rating": 5.0,
    "reviews": 2,
    "place_id": "ChIJqWsKR6NlLIgR5QJXv72z_HY"
  },
  {
    "name": "H&R Block",
    "category": "Tax preparation service",
    "phone": "+1 519-752-5731",
    "website": "https://www.hrblock.ca/stores/84-lynden-rd-f01/",
    "address": "84 Lynden Rd F01, Brantford, ON N3R 6B8",
    "city": "Brantford",
    "state": "Ontario",
    "state_code": "",
    "postal_code": "N3R 6B8",
    "latitude": 43.1710403,
    "longitude": -80.2401474,
    "rating": 4.7,
    "reviews": 85,
    "place_id": "ChIJY9wJFK5lLIgRjppEHUogf64"
  },
  {
    "name": "H&R Block",
    "category": "Tax preparation service",
    "phone": "+1 519-756-5950",
    "website": "https://www.hrblock.ca/stores/142-dalhousie-st/",
    "address": "142 Dalhousie St, Brantford, ON N3T 2J3",
    "city": "Brantford",
    "state": "Ontario",
    "state_code": "",
    "postal_code": "N3T 2J3",
    "latitude": 43.13963,
    "longitude": -80.262554,
    "rating": 4.1,
    "reviews": 77,
    "place_id": "ChIJ5wXA4A5mLIgRmssUjJjpxJA"
  },
  {
    "name": "The Tax Centre",
    "category": "Tax preparation service",
    "phone": "+1 519-442-5588",
    "website": "http://www.mytaxcentre.ca/",
    "address": "12 Mechanic St, Paris, ON N3L 1J9",
    "city": "Paris",
    "state": "Ontario",
    "state_code": "",
    "postal_code": "N3L 1J9",
    "latitude": 43.1925904,
    "longitude": -80.3841806,
    "rating": 4.9,
    "reviews": 49,
    "place_id": "ChIJzZzjjzRsLIgRE2q2gKgxJGU"
  },
  {
    "name": "GTAX SAVING",
    "category": "Income tax help association",
    "phone": "+1 519-865-2016",
    "website": "",
    "address": "32 Gillespie Dr, Brantford, ON N3T 0J8",
    "city": "Brantford",
    "state": "Ontario",
    "state_code": "",
    "postal_code": "N3T 0J8",
    "latitude": 43.1095216,
    "longitude": -80.2944721,
    "rating": 5.0,
    "reviews": 5,
    "place_id": "ChIJVSsXH4ZpLIgRYFk8t3EvVfI"
  },
  {
    "name": "Tax World",
    "category": "Tax preparation service",
    "phone": "+1 519-758-5830",
    "website": "",
    "address": "126 St George St, Brantford, ON N3R 1V6",
    "city": "Brantford",
    "state": "Ontario",
    "state_code": "",
    "postal_code": "N3R 1V6",
    "latitude": 43.1554366,
    "longitude": -80.2739002,
    "rating": 4.5,
    "reviews": 2,
    "place_id": "ChIJpYFTzfllLIgR5R0MyVB4PPU"
  },
  {
    "name": "H&R Block",
    "category": "Tax preparation service",
    "phone": "+1 519-758-5354",
    "website": "https://www.hrblock.ca/stores/265-king-george-rd-126/",
    "address": "265 King George Rd #126, Brantford, ON N3R 6Y1",
    "city": "Brantford",
    "state": "Ontario",
    "state_code": "",
    "postal_code": "N3R 6Y1",
    "latitude": 43.1752841,
    "longitude": -80.27989579999999,
    "rating": 4.2,
    "reviews": 91,
    "place_id": "ChIJSzMZ_HxvLIgRH0t0mP7lM3U"
  },
  {
    "name": "Performance Driven Business Solutions Ltd.",
    "category": "Tax preparation service",
    "phone": "+1 519-512-0483",
    "website": "https://performancedriven.ca/",
    "address": "80 Brant Ave, Brantford, ON N3T 3H1",
    "city": "Brantford",
    "state": "Ontario",
    "state_code": "",
    "postal_code": "N3T 3H1",
    "latitude": 43.1412223,
    "longitude": -80.271714,
    "rating": 5.0,
    "reviews": 4,
    "place_id": "ChIJYXWEK7doLIgRr87-avSSxe8"
  },
  {
    "name": "Tax Eagles",
    "category": "Tax preparation service",
    "phone": "+1 647-877-4546",
    "website": "http://www.tax-eagles.com/",
    "address": "1315 Pickering Pkwy suite 300, Pickering, ON L1V 7G5",
    "city": "Pickering",
    "state": "Ontario",
    "state_code": "",
    "postal_code": "L1V 7G5",
    "latitude": 43.8331491,
    "longitude": -79.0879084,
    "rating": 5.0,
    "reviews": 180,
    "place_id": "ChIJNZvrcJjR1IkRj91BZDdCcBk"
  },
  {
    "name": "Hashmi Accounting & Tax Services",
    "category": "Tax preparation service",
    "phone": "+1 416-797-3980",
    "website": "http://www.hashmiaccounting.com/",
    "address": "1887 Liatris Dr, Pickering, ON L1X 0A4",
    "city": "Pickering",
    "state": "Ontario",
    "state_code": "",
    "postal_code": "L1X 0A4",
    "latitude": 43.8762721,
    "longitude": -79.0825776,
    "rating": 4.9,
    "reviews": 30,
    "place_id": "ChIJfWiIya7f1IkR_XsZuuW8AC4"
  },
  {
    "name": "Tax & Accounting Solutions",
    "category": "Tax preparation service",
    "phone": "+1 905-492-8786",
    "website": "http://taxandaccountingsol.com/",
    "address": "1099 Kingston Rd #238, Pickering, ON L1V 1B5",
    "city": "Pickering",
    "state": "Ontario",
    "state_code": "",
    "postal_code": "L1V 1B5",
    "latitude": 43.8283984,
    "longitude": -79.0962746,
    "rating": 4.3,
    "reviews": 16,
    "place_id": "ChIJfb0An8Xe1IkRCj97YkH10fY"
  },
  {
    "name": "Cherrywood Tax & Accounting",
    "category": "Tax preparation service",
    "phone": "+1 416-854-9721",
    "website": "",
    "address": "2091 Lynn Heights Dr, Pickering, ON L1X 1R1",
    "city": "Pickering",
    "state": "Ontario",
    "state_code": "",
    "postal_code": "L1X 1R1",
    "latitude": 43.8475168,
    "longitude": -79.1119064,
    "rating": 5.0,
    "reviews": 10,
    "place_id": "ChIJWR1Z17TZ1IkR9ILnFwZQVWs"
  },
  {
    "name": "Syed Hashmi Tax & Accounting Solutions",
    "category": "Tax consultant",
    "phone": "+1 416-984-3980",
    "website": "http://www.hashmiaccounting.com/",
    "address": "3122 Mulberry Ln, Pickering, ON L1X 0N9",
    "city": "Pickering",
    "state": "Ontario",
    "state_code": "",
    "postal_code": "L1X 0N9",
    "latitude": 43.8958106,
    "longitude": -79.10566639999999,
    "rating": 5.0,
    "reviews": 2,
    "place_id": "ChIJhVMITzUh1YkRJK4Moad5q0U"
  },
  {
    "name": "H&R Block",
    "category": "Tax preparation service",
    "phone": "+1 905-420-4232",
    "website": "https://www.hrblock.ca/stores/1360-kingston-rd-11/",
    "address": "1360 Kingston Rd #11, Pickering, ON L1V 3M9",
    "city": "Pickering",
    "state": "Ontario",
    "state_code": "",
    "postal_code": "L1V 3M9",
    "latitude": 43.8384431,
    "longitude": -79.08877729999999,
    "rating": 4.5,
    "reviews": 191,
    "place_id": "ChIJ07QnEwrf1IkRz3-waAKq-C0"
  },
  {
    "name": "GTP TAX SERVICES INC.",
    "category": "Tax preparation service",
    "phone": "+1 905-239-0410",
    "website": "https://gtptax.com/",
    "address": "73 Old Kingston Rd, Ajax, ON L1T 3A6",
    "city": "Ajax",
    "state": "Ontario",
    "state_code": "",
    "postal_code": "L1T 3A6",
    "latitude": 43.8541481,
    "longitude": -79.05865299999999,
    "rating": 5.0,
    "reviews": 33,
    "place_id": "ChIJTdX1iC3f1IkRrSITAgK7QJ4"
  },
  {
    "name": "H&R Block",
    "category": "Tax preparation service",
    "phone": "+1 905-837-9642",
    "website": "https://www.hrblock.ca/stores/650-kingston-rd-d01107a/",
    "address": "650 Kingston Rd D01107A, Pickering, ON L1V 3N7",
    "city": "Pickering",
    "state": "Ontario",
    "state_code": "",
    "postal_code": "L1V 3N7",
    "latitude": 43.8182329,
    "longitude": -79.1172115,
    "rating": 4.6,
    "reviews": 43,
    "place_id": "ChIJQyD9Fk_Z1IkRq5IkMXdRALE"
  },
  {
    "name": "Prime Tax Solutions Ajax",
    "category": "Tax preparation service",
    "phone": "+1 905-683-9290",
    "website": "https://www.primetaxsol.ca/",
    "address": "250 Bayly St W #13A, Ajax, ON L1S 3V4",
    "city": "Ajax",
    "state": "Ontario",
    "state_code": "",
    "postal_code": "L1S 3V4",
    "latitude": 43.84329,
    "longitude": -79.02741999999999,
    "rating": 4.8,
    "reviews": 40,
    "place_id": "ChIJAWHi7Rbf1IkRrgMP5Z8AyN4"
  },
  {
    "name": "H&R Block",
    "category": "Tax preparation service",
    "phone": "+1 905-831-1373",
    "website": "https://www.hrblock.ca/stores/1355-kingston-rd-196a/",
    "address": "1355 Kingston Rd #196A, Pickering, ON L1V 1B8",
    "city": "Pickering",
    "state": "Ontario",
    "state_code": "",
    "postal_code": "L1V 1B8",
    "latitude": 43.8340039,
    "longitude": -79.0882919,
    "rating": 3.8,
    "reviews": 13,
    "place_id": "ChIJ07QnEwrf1IkRzEF8sgQCox0"
  },
  {
    "name": "Robert Hills & Assoc",
    "category": "Tax preparation service",
    "phone": "+1 905-831-1028",
    "website": "",
    "address": "1750 Plummer St, Pickering, ON L1W 3L7",
    "city": "Pickering",
    "state": "Ontario",
    "state_code": "",
    "postal_code": "L1W 3L7",
    "latitude": 43.8347853,
    "longitude": -79.07090819999999,
    "rating": 5.0,
    "reviews": 2,
    "place_id": "ChIJC3t2YP7e1IkRKqpyv6nPpR4"
  },
  {
    "name": "John J Loreto Chartered Accountant",
    "category": "Tax preparation service",
    "phone": "+1 905-420-9540",
    "website": "",
    "address": "1742 Bronte Square, Pickering, ON L1V 3B8",
    "city": "Pickering",
    "state": "Ontario",
    "state_code": "",
    "postal_code": "L1V 3B8",
    "latitude": 43.8365671,
    "longitude": -79.0940643,
    "rating": 5.0,
    "reviews": 2,
    "place_id": "ChIJCZp4GNne1IkRowbzERh1Rhk"
  },
  {
    "name": "AccounTaxForce Inc",
    "category": "Tax preparation",
    "phone": "+1 905-239-4350",
    "website": "http://accountaxforce.ca/",
    "address": "2357 Usman Rd, Pickering, ON L1X 0E1",
    "city": "Pickering",
    "state": "Ontario",
    "state_code": "",
    "postal_code": "L1X 0E1",
    "latitude": 43.8551385,
    "longitude": -79.0757478,
    "rating": 5.0,
    "reviews": 1,
    "place_id": "ChIJLVNKoO_f1IkR3u6KuwoGSog"
  },
  {
    "name": "Tax Pro Niagara",
    "category": "Tax preparation service",
    "phone": "+1 905-687-0124",
    "website": "https://www.taxproniagara.com/",
    "address": "81 Ventura Dr., St. Catharines, ON L2R 7H3",
    "city": "St. Catharines",
    "state": "Ontario",
    "state_code": "",
    "postal_code": "L2R 7H3",
    "latitude": 43.1748891,
    "longitude": -79.261771,
    "rating": 5.0,
    "reviews": 265,
    "place_id": "ChIJ90AiVwlR04kRnJCCemR6tfo"
  },
  {
    "name": "Niagara Tax Services (TAS Ontario)",
    "category": "Tax preparation service",
    "phone": "+1 905-685-1829",
    "website": "http://www.txac.ca/",
    "address": "1927 King St, St. Catharines, ON L2R 6P7",
    "city": "St. Catharines",
    "state": "Ontario",
    "state_code": "",
    "postal_code": "L2R 6P7",
    "latitude": 43.1374337,
    "longitude": -79.3185554,
    "rating": 3.9,
    "reviews": 11,
    "place_id": "ChIJecXXs_JN04kRpKvXz-lHFnM"
  },
  {
    "name": "Liberty Tax",
    "category": "Tax preparation",
    "phone": "+1 289-272-0278",
    "website": "https://www.libertytaxcanada.ca/70881",
    "address": "391 Vine St, St. Catharines, ON L2M 4T9",
    "city": "St. Catharines",
    "state": "Ontario",
    "state_code": "",
    "postal_code": "L2M 4T9",
    "latitude": 43.1874977,
    "longitude": -79.23122719999999,
    "rating": 5.0,
    "reviews": 598,
    "place_id": "ChIJTYq7a2pR04kRG1cRViAtj60"
  },
  {
    "name": "Liberty Tax",
    "category": "Tax preparation",
    "phone": "+1 365-801-4181",
    "website": "https://www.libertytaxcanada.ca/70870",
    "address": "290 Glendale Ave #2, St. Catharines, ON L2T 2L3",
    "city": "St. Catharines",
    "state": "Ontario",
    "state_code": "",
    "postal_code": "L2T 2L3",
    "latitude": 43.1345397,
    "longitude": -79.21914579999999,
    "rating": 4.9,
    "reviews": 696,
    "place_id": "ChIJjSCGm_pR04kRYKS3zuUtaXs"
  },
  {
    "name": "Siemens Sandra Tax Service",
    "category": "Tax preparation service",
    "phone": "+1 905-688-3328",
    "website": "https://www.siemenstax.ca/",
    "address": "109A Welland Ave, St. Catharines, ON L2R 2N4",
    "city": "St. Catharines",
    "state": "Ontario",
    "state_code": "",
    "postal_code": "L2R 2N4",
    "latitude": 43.1639054,
    "longitude": -79.24660709999999,
    "rating": 4.4,
    "reviews": 14,
    "place_id": "ChIJfbGcolRQ04kRUQJBNk7ERoQ"
  },
  {
    "name": "incometaxhouse.com",
    "category": "Tax preparation service",
    "phone": "+1 905-684-1908",
    "website": "http://www.incometaxhouse.com/",
    "address": "171 King St, St. Catharines, ON L2R 3J5",
    "city": "St. Catharines",
    "state": "Ontario",
    "state_code": "",
    "postal_code": "L2R 3J5",
    "latitude": 43.1609875,
    "longitude": -79.2441247,
    "rating": 4.8,
    "reviews": 11,
    "place_id": "ChIJW3iTw1JQ04kR3w4Bu7_si1Q"
  },
  {
    "name": "Padgett Business Services St Catharines",
    "category": "Tax preparation service",
    "phone": "+1 905-684-6539",
    "website": "http://www.padgettniagara.com/",
    "address": "553 Ontario St, St. Catharines, ON L2N 6T1",
    "city": "St. Catharines",
    "state": "Ontario",
    "state_code": "",
    "postal_code": "L2N 6T1",
    "latitude": 43.19154839999999,
    "longitude": -79.26198819999999,
    "rating": 5.0,
    "reviews": 5,
    "place_id": "ChIJK7HtLVNQ04kRIjxkbiiYJtQ"
  },
  {
    "name": "Liberty Tax",
    "category": "Tax preparation",
    "phone": "+1 289-205-0876",
    "website": "https://www.libertytaxcanada.ca/70318",
    "address": "306 Ontario St, St. Catharines, ON L2R 5L7",
    "city": "St. Catharines",
    "state": "Ontario",
    "state_code": "",
    "postal_code": "L2R 5L7",
    "latitude": 43.168309,
    "longitude": -79.2636333,
    "rating": 4.7,
    "reviews": 95,
    "place_id": "ChIJjZ-lkNlR04kRrzHd9aDEsV4"
  },
  {
    "name": "TaxAssist Accountants",
    "category": "Tax preparation service",
    "phone": "+1 905-935-0495",
    "website": "http://www.taxassist.ca/st-catharines",
    "address": "Grantham Plaza, 400 Scott St, St. Catharines, ON L2M 3W4",
    "city": "St. Catharines",
    "state": "Ontario",
    "state_code": "",
    "postal_code": "L2M 3W4",
    "latitude": 43.187662,
    "longitude": -79.2291773,
    "rating": 4.5,
    "reviews": 8,
    "place_id": "ChIJTV92eqFR04kRbIJoN17ZMZA"
  },
  {
    "name": "Liberty Tax",
    "category": "Tax preparation",
    "phone": "+1 289-271-9690",
    "website": "https://www.libertytaxcanada.ca/",
    "address": "103 Niagara St, St. Catharines, ON L2R 4L3",
    "city": "St. Catharines",
    "state": "Ontario",
    "state_code": "",
    "postal_code": "L2R 4L3",
    "latitude": 43.1675838,
    "longitude": -79.2362093,
    "rating": 4.8,
    "reviews": 28,
    "place_id": "ChIJgdlEUE9R04kR4yVu6CtD_k8"
  },
  {
    "name": "The Tax Ladyy +",
    "category": "Tax preparation service",
    "phone": "+1 905-341-2558",
    "website": "https://thetaxladyy.ca/",
    "address": "28 Haynes Ave, St. Catharines, ON L2R 3Z1",
    "city": "St. Catharines",
    "state": "Ontario",
    "state_code": "",
    "postal_code": "L2R 3Z1",
    "latitude": 43.1647423,
    "longitude": -79.23107739999999,
    "rating": 5.0,
    "reviews": 3,
    "place_id": "ChIJ64bPgK5R04kR3aPljLByC7Y"
  },
  {
    "name": "Nathan Zen Tax And Accounting",
    "category": "Tax consultant",
    "phone": "+1 365-720-1549",
    "website": "https://nathanzentaxandacctg.ca/",
    "address": "39 Queen St, St. Catharines, ON L2R 5G6",
    "city": "St. Catharines",
    "state": "Ontario",
    "state_code": "",
    "postal_code": "L2R 5G6",
    "latitude": 43.1572261,
    "longitude": -79.246921,
    "rating": 4.7,
    "reviews": 19,
    "place_id": "ChIJEZ8DEk_tMCoRUFX3ag97G3s"
  },
  {
    "name": "Fastax Niagara",
    "category": "Tax preparation",
    "phone": "+1 905-682-8115",
    "website": "http://fastaxniagara.com/",
    "address": "325 St Paul St W, St. Catharines, ON L2S 2E8",
    "city": "St. Catharines",
    "state": "Ontario",
    "state_code": "",
    "postal_code": "L2S 2E8",
    "latitude": 43.1428977,
    "longitude": -79.2696744,
    "rating": 4.0,
    "reviews": 9,
    "place_id": "ChIJeyPHb-hR04kRPigPQH0jSvg"
  },
  {
    "name": "SEAD Accounting Services",
    "category": "Tax preparation",
    "phone": "+1 365-880-2980",
    "website": "http://www.seadaccounting.com/",
    "address": "91 Carlton St, St. Catharines, ON L2R 1R1",
    "city": "St. Catharines",
    "state": "Ontario",
    "state_code": "",
    "postal_code": "L2R 1R1",
    "latitude": 43.1703804,
    "longitude": -79.25591519999999,
    "rating": 5.0,
    "reviews": 4,
    "place_id": "ChIJYVfiDCZR04kRKWqFtf6saHk"
  },
  {
    "name": "Income Tax Solutions",
    "category": "Tax preparation service",
    "phone": "+1 647-405-4060",
    "website": "https://www.facebook.com/taxes.solved",
    "address": "100 Gloucester St, Toronto, ON M4Y 1M1",
    "city": "Toronto",
    "state": "Ontario",
    "state_code": "",
    "postal_code": "M4Y 1M1",
    "latitude": 43.6679859,
    "longitude": -79.3797558,
    "rating": 5.0,
    "reviews": 207,
    "place_id": "ChIJtQ32irTL1IkRPS4jRu7hQlk"
  },
  {
    "name": "Jones & O'Connell LLP",
    "category": "Tax preparation service",
    "phone": "+1 905-688-4842",
    "website": "http://www.jonesoconnell.ca/",
    "address": "43 Church St Suite 500, St. Catharines, ON L2R 7A7",
    "city": "St. Catharines",
    "state": "Ontario",
    "state_code": "",
    "postal_code": "L2R 7A7",
    "latitude": 43.1594391,
    "longitude": -79.2481545,
    "rating": 4.3,
    "reviews": 6,
    "place_id": "ChIJA4XmhrJR04kRbwPLMDj0fvw"
  },
  {
    "name": "Mark Schonewille Chartered Accountant",
    "category": "Tax preparation service",
    "phone": "+1 905-688-9303",
    "website": "http://www.markschonewille.ca/",
    "address": "29 Goodman Crescent, St. Catharines, ON L2S 3Z5",
    "city": "St. Catharines",
    "state": "Ontario",
    "state_code": "",
    "postal_code": "L2S 3Z5",
    "latitude": 43.1260762,
    "longitude": -79.2687455,
    "rating": 5.0,
    "reviews": 7,
    "place_id": "ChIJMUDIuwFR04kRH_6Uqh1MKAI"
  },
  {
    "name": "H&R Block",
    "category": "Tax preparation service",
    "phone": "+1 905-682-8625",
    "website": "https://www.hrblock.ca/stores/186-st-paul-st/",
    "address": "186 St Paul St, St. Catharines, ON L2R 3M2",
    "city": "St. Catharines",
    "state": "Ontario",
    "state_code": "",
    "postal_code": "L2R 3M2",
    "latitude": 43.1577618,
    "longitude": -79.2440056,
    "rating": 4.1,
    "reviews": 111,
    "place_id": "ChIJAV5fOU1Q04kR6AuiUzgnwoY"
  },
  {
    "name": "CIS Income Tax Service",
    "category": "Tax preparation service",
    "phone": "+1 905-356-8106",
    "website": "https://cisincometax.ca/",
    "address": "6107 Main St, Niagara Falls, ON L2G 6A1",
    "city": "Niagara Falls",
    "state": "Ontario",
    "state_code": "",
    "postal_code": "L2G 6A1",
    "latitude": 43.0863792,
    "longitude": -79.0917563,
    "rating": 4.6,
    "reviews": 109,
    "place_id": "ChIJUZpdE3JD04kRTuoQfkwRSKY"
  },
  {
    "name": "TaxAssist Accountants",
    "category": "Tax preparation service",
    "phone": "+1 226-887-7227",
    "website": "https://www.taxassist.ca/cambridge",
    "address": "355 Hespeler Rd Unit 302, Cambridge, ON N1R 6B3",
    "city": "Cambridge",
    "state": "Ontario",
    "state_code": "",
    "postal_code": "N1R 6B3",
    "latitude": 43.3937011,
    "longitude": -80.319599,
    "rating": 4.9,
    "reviews": 17,
    "place_id": "ChIJqwtYLsWJK4gRvhta-RSsUUE"
  },
  {
    "name": "Brownstone Accounting and Tax Services",
    "category": "Tax preparation",
    "phone": "+1 519-624-8899",
    "website": "",
    "address": "12 Mill St, Cambridge, ON N1R 3N9",
    "city": "Cambridge",
    "state": "Ontario",
    "state_code": "",
    "postal_code": "N1R 3N9",
    "latitude": 43.3585585,
    "longitude": -80.31333479999999,
    "rating": 4.7,
    "reviews": 22,
    "place_id": "ChIJs8o5VrZ3LIgRFDVU9LwxkOY"
  },
  {
    "name": "Sousa Bookkeeping & Taxes",
    "category": "Tax preparation service",
    "phone": "+1 226-989-5599",
    "website": "http://www.sousabookkeepingtaxes.com/",
    "address": "304 Gatehouse Dr, Cambridge, ON N1P 1E6",
    "city": "Cambridge",
    "state": "Ontario",
    "state_code": "",
    "postal_code": "N1P 1E6",
    "latitude": 43.3434916,
    "longitude": -80.2844264,
    "rating": 4.4,
    "reviews": 38,
    "place_id": "ChIJFRq8j4N3LIgRdkdsb4w2txY"
  },
  {
    "name": "Green & Company Registered Professional Accountants",
    "category": "Tax preparation service",
    "phone": "+1 519-621-7822",
    "website": "https://greenandcompany.ca/",
    "address": "75 Ainslie St N, Cambridge, ON N1R 1R2",
    "city": "Cambridge",
    "state": "Ontario",
    "state_code": "",
    "postal_code": "N1R 1R2",
    "latitude": 43.3618991,
    "longitude": -80.3133826,
    "rating": 4.9,
    "reviews": 102,
    "place_id": "ChIJIzOSiLd3LIgRg1HqnUHPBRw"
  },
  {
    "name": "Millennium Tax Services",
    "category": "Tax consultant",
    "phone": "+1 519-650-5559",
    "website": "http://www.millenniumtax.ca/",
    "address": "654 Duke St, Cambridge, ON N3H 3T5",
    "city": "Cambridge",
    "state": "Ontario",
    "state_code": "",
    "postal_code": "N3H 3T5",
    "latitude": 43.3967943,
    "longitude": -80.3580338,
    "rating": 4.5,
    "reviews": 8,
    "place_id": "ChIJB1Y2XueJK4gReKi6ESFPYTo"
  },
  {
    "name": "Dina's Smart Tax",
    "category": "Tax preparation service",
    "phone": "+1 226-600-4327",
    "website": "https://dinasmartax.wixsite.com/accounting",
    "address": "53 Bond St, Cambridge, ON N1R 4B4",
    "city": "Cambridge",
    "state": "Ontario",
    "state_code": "",
    "postal_code": "N1R 4B4",
    "latitude": 43.3664321,
    "longitude": -80.3125098,
    "rating": 5.0,
    "reviews": 4,
    "place_id": "ChIJ231zJM93LIgRWtwxTCKcw3g"
  },
  {
    "name": "Shelbys Tax Services",
    "category": "Tax preparation service",
    "phone": "+1 226-501-8282",
    "website": "http://www.shelbystaxservices.com/",
    "address": "997 King St E, Cambridge, ON N3H 3P4",
    "city": "Cambridge",
    "state": "Ontario",
    "state_code": "",
    "postal_code": "N3H 3P4",
    "latitude": 43.3936019,
    "longitude": -80.353723,
    "rating": 4.3,
    "reviews": 6,
    "place_id": "ChIJmROQmtOJK4gRu3GnZf9R2LI"
  },
  {
    "name": "CM Services",
    "category": "Tax preparation service",
    "phone": "+1 519-212-6694",
    "website": "https://www.facebook.com/share/14s115sj9df/%3Fmibextid%3DwwXIfr",
    "address": "Hilldale Dr, Cambridge, ON N1R 0C2",
    "city": "Cambridge",
    "state": "Ontario",
    "state_code": "",
    "postal_code": "N1R 0C2",
    "latitude": 43.3844642,
    "longitude": -80.3168838,
    "rating": 5.0,
    "reviews": 8,
    "place_id": "ChIJr4qrVPCJK4gRQiG5BYHj5hw"
  },
  {
    "name": "H&R Block",
    "category": "Tax preparation service",
    "phone": "+1 519-622-8283",
    "website": "https://www.hrblock.ca/stores/480-hespeler-rd-18/",
    "address": "480 Hespeler Rd #18, Cambridge, ON N1R 7R9",
    "city": "Cambridge",
    "state": "Ontario",
    "state_code": "",
    "postal_code": "N1R 7R9",
    "latitude": 43.3988267,
    "longitude": -80.32613239999999,
    "rating": 4.3,
    "reviews": 195,
    "place_id": "ChIJQw_3rLaJK4gRUxZAOW3s9_M"
  },
  {
    "name": "Liberty Tax",
    "category": "Tax preparation",
    "phone": "+1 226-887-1423",
    "website": "https://www.libertytaxcanada.ca/70210",
    "address": "33 Main St, Cambridge, ON N1R 1V6",
    "city": "Cambridge",
    "state": "Ontario",
    "state_code": "",
    "postal_code": "N1R 1V6",
    "latitude": 43.3588161,
    "longitude": -80.3146431,
    "rating": 3.7,
    "reviews": 14,
    "place_id": "ChIJd2NeahJ3LIgRnLf4PR3Sxhc"
  },
  {
    "name": "Absolute TAX Cambridge",
    "category": "Tax consultant",
    "phone": "+1 647-515-7426",
    "website": "http://absolutetax.ca/",
    "address": "450 Hespeler Rd #202, Cambridge, ON N1R 0E3",
    "city": "Cambridge",
    "state": "Ontario",
    "state_code": "",
    "postal_code": "N1R 0E3",
    "latitude": 43.3965511,
    "longitude": -80.3244892,
    "rating": 5.0,
    "reviews": 1,
    "place_id": "ChIJ7SHyfQCJK4gRV2FgL6dfMCw"
  },
  {
    "name": "H&R Block",
    "category": "Tax preparation service",
    "phone": "+1 519-624-0511",
    "website": "https://www.hrblock.ca/stores/20-water-st-s/",
    "address": "20 Water St S, Cambridge, ON N1R 3C5",
    "city": "Cambridge",
    "state": "Ontario",
    "state_code": "",
    "postal_code": "N1R 3C5",
    "latitude": 43.3579194,
    "longitude": -80.3155768,
    "rating": 4.2,
    "reviews": 62,
    "place_id": "ChIJN064nLZ3LIgRKr5_AGgj5jE"
  },
  {
    "name": "Daleview Business Services",
    "category": "Tax preparation service",
    "phone": "+1 519-654-2284",
    "website": "",
    "address": "10 Karl Ct, Cambridge, ON N3C 3R4",
    "city": "Cambridge",
    "state": "Ontario",
    "state_code": "",
    "postal_code": "N3C 3R4",
    "latitude": 43.4217857,
    "longitude": -80.30068159999999,
    "rating": 3.3,
    "reviews": 3,
    "place_id": "ChIJfSNonvSIK4gRnssqB7Mvpsk"
  },
  {
    "name": "The Prudent Accounting and Tax Services",
    "category": "Tax preparation service",
    "phone": "+1 519-568-8715",
    "website": "http://www.prudenttax.ca/",
    "address": "Unit 303, 684 Belmont Ave W, Kitchener, ON N2M 1N6",
    "city": "Kitchener",
    "state": "Ontario",
    "state_code": "",
    "postal_code": "N2M 1N6",
    "latitude": 43.4531614,
    "longitude": -80.5175223,
    "rating": 4.9,
    "reviews": 145,
    "place_id": "ChIJ5R5GhE70K4gR4OdPJVHwy8c"
  },
  {
    "name": "CH Professional Bookkeeping & Tax",
    "category": "Tax preparation",
    "phone": "+1 519-501-1873",
    "website": "https://www.chprofessionalbookkeeping.com/",
    "address": "45 Grosvenor Ln, Cambridge, ON N1R 8N2",
    "city": "Cambridge",
    "state": "Ontario",
    "state_code": "",
    "postal_code": "N1R 8N2",
    "latitude": 43.356692,
    "longitude": -80.3118389,
    "rating": 5.0,
    "reviews": 3,
    "place_id": "ChIJvfvI772A2UUR6JqskZpFh1M"
  },
  {
    "name": "Tax Boss",
    "category": "Tax preparation",
    "phone": "+1 905-580-9157",
    "website": "https://www.bainescpa.ca/",
    "address": "11 Highland Crescent, Cambridge, ON N1S 1L5",
    "city": "Cambridge",
    "state": "Ontario",
    "state_code": "",
    "postal_code": "N1S 1L5",
    "latitude": 43.3553525,
    "longitude": -80.33112419999999,
    "rating": 5.0,
    "reviews": 1,
    "place_id": "ChIJwX_CWf1hK4gRfHGkqIz3wjE"
  },
  {
    "name": "E J Tax Service",
    "category": "Tax preparation service",
    "phone": "+1 519-743-7238",
    "website": "http://ejtax.ca/",
    "address": "2225 Kingsway Dr, Kitchener, ON N2C 1A2",
    "city": "Kitchener",
    "state": "Ontario",
    "state_code": "",
    "postal_code": "N2C 1A2",
    "latitude": 43.4341657,
    "longitude": -80.451734,
    "rating": 4.5,
    "reviews": 73,
    "place_id": "ChIJo1-bvu30K4gRk2-sTcOMr3c"
  },
  {
    "name": "H&R Block",
    "category": "Tax preparation service",
    "phone": "+1 519-653-0920",
    "website": "https://www.hrblock.ca/stores/710-king-st-e/",
    "address": "710 King St E, Cambridge, ON N3H 3N6",
    "city": "Cambridge",
    "state": "Ontario",
    "state_code": "",
    "postal_code": "N3H 3N6",
    "latitude": 43.395655,
    "longitude": -80.35826899999999,
    "rating": 4.4,
    "reviews": 59,
    "place_id": "ChIJ17mII_GJK4gRfWqWIep1nHY"
  },
  {
    "name": "Tax-Pertise Services",
    "category": "Tax preparation service",
    "phone": "+1 905-319-6363",
    "website": "http://www.taxpertise.ca/",
    "address": "2289 Fairview St #107, Burlington, ON L7R 2E3",
    "city": "Burlington",
    "state": "Ontario",
    "state_code": "",
    "postal_code": "L7R 2E3",
    "latitude": 43.3433539,
    "longitude": -79.80303599999999,
    "rating": 4.7,
    "reviews": 44,
    "place_id": "ChIJTzCVjCViK4gRBwDJpfSnO6w"
  },
  {
    "name": "Jay Dee Accounting & Tax Services Inc",
    "category": "Tax preparation",
    "phone": "+1 905-634-1149",
    "website": "http://www.jaydeeaccounting.ca/",
    "address": "484 Brant St, Burlington, ON L7R 2G4",
    "city": "Burlington",
    "state": "Ontario",
    "state_code": "",
    "postal_code": "L7R 2G4",
    "latitude": 43.3271665,
    "longitude": -79.8002144,
    "rating": 4.5,
    "reviews": 43,
    "place_id": "ChIJPwRv7SSeLIgR7VX-GmGAHnQ"
  },
  {
    "name": "JD Accounting & Income Tax Services",
    "category": "Tax preparation service",
    "phone": "+1 416-571-4322",
    "website": "http://jdaccountingandtax.com/",
    "address": "1602 Queen St W, Toronto, ON M6R 1A8",
    "city": "Toronto",
    "state": "Ontario",
    "state_code": "",
    "postal_code": "M6R 1A8",
    "latitude": 43.6397098,
    "longitude": -79.441625,
    "rating": 4.8,
    "reviews": 111,
    "place_id": "ChIJLXFxT7E1K4gRRMhMZ9Kv92g"
  },
  {
    "name": "Softron Tax",
    "category": "Tax preparation service",
    "phone": "+1 905-632-8888",
    "website": "https://www.softrontax.com/",
    "address": "777 Guelph Line Unit 215, Burlington, ON L7R 3N2",
    "city": "Burlington",
    "state": "Ontario",
    "state_code": "",
    "postal_code": "L7R 3N2",
    "latitude": 43.3483844,
    "longitude": -79.7944577,
    "rating": 4.8,
    "reviews": 48,
    "place_id": "ChIJO1R2f2hhK4gRsbnDofGHGwM"
  },
  {
    "name": "AProTax Professional Income Tax Service",
    "category": "Tax preparation service",
    "phone": "+1 905-639-4922",
    "website": "https://www.aprotax.ca/",
    "address": "648 Maple Ave, Burlington, ON L7S 2K8",
    "city": "Burlington",
    "state": "Ontario",
    "state_code": "",
    "postal_code": "L7S 2K8",
    "latitude": 43.3227044,
    "longitude": -79.8114133,
    "rating": 5.0,
    "reviews": 15,
    "place_id": "ChIJwfDOiLCfLIgRcrJVAlaP6JU"
  },
  {
    "name": "Liberty Tax",
    "category": "Tax preparation",
    "phone": "+1 289-768-6202",
    "website": "https://www.libertytaxcanada.ca/70425",
    "address": "901 Guelph Line office 5, Burlington, ON L7R 3N8",
    "city": "Burlington",
    "state": "Ontario",
    "state_code": "",
    "postal_code": "L7R 3N8",
    "latitude": 43.3495378,
    "longitude": -79.8000449,
    "rating": 4.5,
    "reviews": 156,
    "place_id": "ChIJV9oZeNJhK4gRahr-BEnzmLc"
  },
  {
    "name": "Steve\u2019s Tax Service Ltd",
    "category": "Tax preparation service",
    "phone": "+1 905-238-0111",
    "website": "http://stevestaxservice.ca/",
    "address": "1153 Pioneer Rd Unit B, Burlington, ON L7M 1K5",
    "city": "Burlington",
    "state": "Ontario",
    "state_code": "",
    "postal_code": "L7M 1K5",
    "latitude": 43.363429,
    "longitude": -79.8010063,
    "rating": 4.2,
    "reviews": 10,
    "place_id": null
  },
  {
    "name": "Dynamic Tax",
    "category": "Tax preparation service",
    "phone": "+1 905-220-7313",
    "website": "https://dynamictax.ca/",
    "address": "1235 Fairview St, Burlington, ON L7S 2K9",
    "city": "Burlington",
    "state": "Ontario",
    "state_code": "",
    "postal_code": "L7S 2K9",
    "latitude": 43.3307615,
    "longitude": -79.8192035,
    "rating": 3.2,
    "reviews": 13,
    "place_id": "ChIJMzWV6gSeLIgRnoXvJrMx-XM"
  },
  {
    "name": "Liberty Tax",
    "category": "Tax preparation",
    "phone": "+1 289-813-3630",
    "website": "https://www.libertytaxcanada.ca/70735",
    "address": "516 Plains Rd E #5, Burlington, ON L7T 2E1",
    "city": "Burlington",
    "state": "Ontario",
    "state_code": "",
    "postal_code": "L7T 2E1",
    "latitude": 43.3192111,
    "longitude": -79.8354213,
    "rating": 4.2,
    "reviews": 18,
    "place_id": "ChIJeeC1cRqdLIgR-7sOvt6n2EQ"
  },
  {
    "name": "Tax-Books Inc.",
    "category": "Tax preparation service",
    "phone": "+1 905-616-5500",
    "website": "http://tax-books.ca/",
    "address": "1701 Creek Way, Burlington, ON L7L 6R5",
    "city": "Burlington",
    "state": "Ontario",
    "state_code": "",
    "postal_code": "L7L 6R5",
    "latitude": 43.3937949,
    "longitude": -79.7778652,
    "rating": 4.9,
    "reviews": 7,
    "place_id": "ChIJmTopOdxgK4gRAmACHm48Z68"
  },
  {
    "name": "Ontario Tax Services & Accounting Solutions",
    "category": "Tax preparation service",
    "phone": "+1 416-901-0500",
    "website": "https://ontariotaxaccounting.ca/",
    "address": "2300 Lawrence Ave E #3, Toronto, ON M1P 2R3",
    "city": "Toronto",
    "state": "Ontario",
    "state_code": "",
    "postal_code": "M1P 2R3",
    "latitude": 43.75074559999999,
    "longitude": -79.2771508,
    "rating": 4.9,
    "reviews": 151,
    "place_id": "ChIJW_s4OdjR1IkRtm4bLGCOq2I"
  },
  {
    "name": "Angus Shuttleworth CPA Professional Corporation",
    "category": "Tax preparation service",
    "phone": "+1 289-337-0497",
    "website": "http://www.burlingtonaccountant.ca/",
    "address": "2412 Glenwood School Dr, Burlington, ON L7R 3S1",
    "city": "Burlington",
    "state": "Ontario",
    "state_code": "",
    "postal_code": "L7R 3S1",
    "latitude": 43.3483072,
    "longitude": -79.80382019999999,
    "rating": 5.0,
    "reviews": 6,
    "place_id": "ChIJayx-yySeLIgRO-gTgCvTsEk"
  },
  {
    "name": "T4 Tax",
    "category": "Tax preparation",
    "phone": "+1 289-337-8598",
    "website": "",
    "address": "3385 Harvester Rd #250, Burlington, ON L7N 3N2",
    "city": "Burlington",
    "state": "Ontario",
    "state_code": "",
    "postal_code": "L7N 3N2",
    "latitude": 43.360025,
    "longitude": -79.7896592,
    "rating": 3.3,
    "reviews": 9,
    "place_id": null
  },
  {
    "name": "H&R Block",
    "category": "Tax preparation service",
    "phone": "+1 905-333-1212",
    "website": "https://www.hrblock.ca/stores/5010-pinedale-ave-f01008a/",
    "address": "5010 Pinedale Ave F01008A, Burlington, ON L7L 0G3",
    "city": "Burlington",
    "state": "Ontario",
    "state_code": "",
    "postal_code": "L7L 0G3",
    "latitude": 43.3695104,
    "longitude": -79.7555211,
    "rating": 3.5,
    "reviews": 90,
    "place_id": "ChIJS6ncl2JgK4gRwpXhLSFa0U0"
  },
  {
    "name": "Keen Bookkeeping and Income Tax Services",
    "category": "Tax preparation service",
    "phone": "+1 705-524-9863",
    "website": "",
    "address": "1855 Lasalle Blvd #4, Greater Sudbury, ON P3A 2A3",
    "city": "Greater Sudbury",
    "state": "Ontario",
    "state_code": "",
    "postal_code": "P3A 2A3",
    "latitude": 46.5212797,
    "longitude": -80.9300638,
    "rating": 3.9,
    "reviews": 11,
    "place_id": "ChIJDQg1cJYAL00RKgst7b1wUyI"
  },
  {
    "name": "Liberty Tax",
    "category": "Tax preparation",
    "phone": "+1 705-222-3453",
    "website": "https://www.libertytaxcanada.ca/70761",
    "address": "1774 Regent St, Greater Sudbury, ON P3E 3Z8",
    "city": "Greater Sudbury",
    "state": "Ontario",
    "state_code": "",
    "postal_code": "P3E 3Z8",
    "latitude": 46.4543594,
    "longitude": -81.0048387,
    "rating": 4.4,
    "reviews": 43,
    "place_id": "ChIJ8d5B8iBVLk0RxVN0g8sedyY"
  },
  {
    "name": "Tremblay Bookkeeping & Tax Service",
    "category": "Tax preparation service",
    "phone": "+1 705-675-5910",
    "website": "http://www.tremblaybook.ca/",
    "address": "208 Elm St, Greater Sudbury, ON P3C 1V3",
    "city": "Greater Sudbury",
    "state": "Ontario",
    "state_code": "",
    "postal_code": "P3C 1V3",
    "latitude": 46.4933475,
    "longitude": -81.0034812,
    "rating": 4.1,
    "reviews": 20,
    "place_id": "ChIJmXdmq-GqL00RCAviMonj9S0"
  },
  {
    "name": "Miren Tax Services",
    "category": "Tax preparation service",
    "phone": "+1 705-222-4341",
    "website": "http://www.mirentax.ca/",
    "address": "767 Barry Downe Rd #105, Greater Sudbury, ON P3A 3T6",
    "city": "Greater Sudbury",
    "state": "Ontario",
    "state_code": "",
    "postal_code": "P3A 3T6",
    "latitude": 46.5136027,
    "longitude": -80.9446325,
    "rating": 4.7,
    "reviews": 10,
    "place_id": "ChIJ8cdytOoAL00RWLmuN14H7Pc"
  },
  {
    "name": "Liberty Tax",
    "category": "Tax preparation",
    "phone": "+1 705-560-6265",
    "website": "https://www.libertytaxcanada.ca/70665",
    "address": "1250 Lasalle Blvd, Greater Sudbury, ON P3A 1Y7",
    "city": "Greater Sudbury",
    "state": "Ontario",
    "state_code": "",
    "postal_code": "P3A 1Y7",
    "latitude": 46.522419,
    "longitude": -80.949957,
    "rating": 4.1,
    "reviews": 44,
    "place_id": "ChIJEzZWKQerL00RfW_o2SkCu5I"
  },
  {
    "name": "Faganely Tax Services",
    "category": "Tax preparation service",
    "phone": "+1 705-524-9791",
    "website": "http://www.faganely.com/",
    "address": "28 Sweetberry Dr, Greater Sudbury, ON P3E 6E5",
    "city": "Greater Sudbury",
    "state": "Ontario",
    "state_code": "",
    "postal_code": "P3E 6E5",
    "latitude": 46.4406074,
    "longitude": -80.9870779,
    "rating": 5.0,
    "reviews": 4,
    "place_id": "ChIJ5T7ktOoAL00RQRL-02zKVJs"
  },
  {
    "name": "Folino Income Tax Services",
    "category": "Tax preparation service",
    "phone": "+1 705-222-8123",
    "website": "https://johnwfinancial.ca/",
    "address": "1067 Lorne St, Greater Sudbury, ON P3C 4S6",
    "city": "Greater Sudbury",
    "state": "Ontario",
    "state_code": "",
    "postal_code": "P3C 4S6",
    "latitude": 46.4731536,
    "longitude": -81.0276342,
    "rating": 5.0,
    "reviews": 1,
    "place_id": "ChIJraA25ZdVLk0Rfs9EictSBCU"
  },
  {
    "name": "Sudbury Online Services - Bookkeeping | Accounting Services | Payroll | Income Taxes Sudbury",
    "category": "Tax preparation service",
    "phone": "+1 705-897-0316",
    "website": "",
    "address": "3695 Clarence St #5, Val Caron, ON P3N 1H4",
    "city": "Val Caron",
    "state": "Ontario",
    "state_code": "",
    "postal_code": "P3N 1H4",
    "latitude": 46.6287968,
    "longitude": -81.00870789999999,
    "rating": 4.5,
    "reviews": 22,
    "place_id": "ChIJozm_FbeoL00R77w2W3LKhGk"
  },
  {
    "name": "H&R Block",
    "category": "Tax preparation service",
    "phone": "+1 705-524-8146",
    "website": "https://www.hrblock.ca/stores/1033-barrydowne-rd/",
    "address": "1033 Barry Downe Rd, Greater Sudbury, ON P3A 3T9",
    "city": "Greater Sudbury",
    "state": "Ontario",
    "state_code": "",
    "postal_code": "P3A 3T9",
    "latitude": 46.5191312,
    "longitude": -80.945278,
    "rating": 3.6,
    "reviews": 24,
    "place_id": "ChIJL7vc822qL00RPvfo1md208s"
  },
  {
    "name": "FBC Farm and Small Business Tax Consultants",
    "category": "Tax preparation service",
    "phone": "+1 705-855-3185",
    "website": "https://fbc.ca/",
    "address": "48 Main St E, Greater Sudbury, ON P0M 1L0",
    "city": "Greater Sudbury",
    "state": "Ontario",
    "state_code": "",
    "postal_code": "P0M 1L0",
    "latitude": 46.5826319,
    "longitude": -81.195757,
    "rating": 4.5,
    "reviews": 32,
    "place_id": "ChIJGxRGeECxL00RF6FEKviRcWg"
  },
  {
    "name": "H&R Block",
    "category": "Tax preparation service",
    "phone": "+1 705-560-1116",
    "website": "https://www.hrblock.ca/stores/900-lasalle-blvd/",
    "address": "900 Lasalle Blvd, Greater Sudbury, ON P3A 5W8",
    "city": "Greater Sudbury",
    "state": "Ontario",
    "state_code": "",
    "postal_code": "P3A 5W8",
    "latitude": 46.5230032,
    "longitude": -80.9611865,
    "rating": 4.1,
    "reviews": 134,
    "place_id": "ChIJL7vc822qL00RoyPwVt5ORIY"
  },
  {
    "name": "H&R Block",
    "category": "Tax preparation service",
    "phone": "+1 705-675-1080",
    "website": "https://www.hrblock.ca/stores/233-brady-sq-13/",
    "address": "233 Brady St Unit 13, Greater Sudbury, ON P3B 4H5",
    "city": "Greater Sudbury",
    "state": "Ontario",
    "state_code": "",
    "postal_code": "P3B 4H5",
    "latitude": 46.48878879999999,
    "longitude": -80.98827229999999,
    "rating": 4.2,
    "reviews": 102,
    "place_id": "ChIJLW2v9-iqL00Rzm3FhNtwulw"
  },
  {
    "name": "C & L Bookkeeping Svc",
    "category": "Tax preparation service",
    "phone": "+1 705-674-9713",
    "website": "",
    "address": "45 Dean Ave, Greater Sudbury, ON P3C 3B8",
    "city": "Greater Sudbury",
    "state": "Ontario",
    "state_code": "",
    "postal_code": "P3C 3B8",
    "latitude": 46.473925,
    "longitude": -81.03013589999999,
    "rating": 5.0,
    "reviews": 2,
    "place_id": "ChIJZZYXqDSrL00RWyO1qWQbAUM"
  },
  {
    "name": "H&R Block",
    "category": "Tax preparation service",
    "phone": "+1 705-523-2430",
    "website": "https://www.hrblock.ca/stores/2408-long-lake-road-5/",
    "address": "2408 Long Lake Rd #5, Greater Sudbury, ON P3E 5H5",
    "city": "Greater Sudbury",
    "state": "Ontario",
    "state_code": "",
    "postal_code": "P3E 5H5",
    "latitude": 46.4400203,
    "longitude": -81.0049891,
    "rating": 3.6,
    "reviews": 18,
    "place_id": "ChIJq6qqOhRVLk0RZJYGjc7Qyws"
  },
  {
    "name": "JP Tax Accounting",
    "category": "Tax preparation service",
    "phone": "+1 416-740-1504",
    "website": "",
    "address": "64 Eddystone Ave, North York, ON M3N 1K5",
    "city": "North York",
    "state": "Ontario",
    "state_code": "",
    "postal_code": "M3N 1K5",
    "latitude": 43.7493,
    "longitude": -79.51849969999999,
    "rating": 4.4,
    "reviews": 53,
    "place_id": "ChIJz5BLojUwK4gRnk_tGk7f-5o"
  },
  {
    "name": "Ascencio Tax Inc.",
    "category": "Tax preparation service",
    "phone": "+1 416-658-1208",
    "website": "https://www.ascenciotax.com/",
    "address": "1219 St Clair Ave W Suite G15, Toronto, ON M6E 1B5",
    "city": "Toronto",
    "state": "Ontario",
    "state_code": "",
    "postal_code": "M6E 1B5",
    "latitude": 43.6772848,
    "longitude": -79.4447362,
    "rating": 5.0,
    "reviews": 402,
    "place_id": "ChIJQ-Hcb5uN1YkRMYQ9KBvLjIs"
  },
  {
    "name": "SFT Tax Services",
    "category": "Tax preparation",
    "phone": "+1 416-840-6449",
    "website": "http://www.sfttaxservices.ca/%3Futm_source%3DGMB%26utm_medium%3Dorganic%26utm_campaign%3Dgmb-website",
    "address": "1670 Eglinton Ave W, York, ON M6E 2H2",
    "city": "York",
    "state": "Ontario",
    "state_code": "",
    "postal_code": "M6E 2H2",
    "latitude": 43.696963,
    "longitude": -79.445086,
    "rating": 5.0,
    "reviews": 122,
    "place_id": "ChIJ8f6Ym5MzK4gRaqymGT4o7ao"
  },
  {
    "name": "Liberty Tax Services",
    "category": "Tax preparation",
    "phone": "+1 416-784-5533",
    "website": "https://g.page/liberty-tax-services/review%3Frc",
    "address": "1472 Eglinton Ave W, Toronto, ON M6E 2G5",
    "city": "Toronto",
    "state": "Ontario",
    "state_code": "",
    "postal_code": "M6E 2G5",
    "latitude": 43.698176,
    "longitude": -79.43977559999999,
    "rating": 4.6,
    "reviews": 63,
    "place_id": "ChIJQWggMaQzK4gROqV_yFF8zaE"
  },
  {
    "name": "LDA Income Tax Bookkeeping Accounting Financial Services",
    "category": "Tax preparation service",
    "phone": "+1 647-340-3450",
    "website": "http://www.lda-itb.com/",
    "address": "501, 164 Eglinton Ave E #501, Toronto, ON M4P 1G4",
    "city": "Toronto",
    "state": "Ontario",
    "state_code": "",
    "postal_code": "M4P 1G4",
    "latitude": 43.7080438,
    "longitude": -79.39346599999999,
    "rating": 4.6,
    "reviews": 37,
    "place_id": "ChIJsf8gly8zK4gRB9UaB04QgXE"
  },
  {
    "name": "Toronto Tax Boutique",
    "category": "Tax preparation service",
    "phone": "+1 647-250-8592",
    "website": "http://torontotax.co/",
    "address": "18 King St E Suite #1400, Toronto, ON M5C 1C4",
    "city": "Toronto",
    "state": "Ontario",
    "state_code": "",
    "postal_code": "M5C 1C4",
    "latitude": 43.6496485,
    "longitude": -79.37708959999999,
    "rating": 4.8,
    "reviews": 1800,
    "place_id": "ChIJk4St8uk1K4gR7WKuCJfFxs8"
  },
  {
    "name": "Discount Income Tax Services",
    "category": "Tax preparation service",
    "phone": "+1 416-531-0073",
    "website": "http://www.discountincometax.com/",
    "address": "959 Bloor St W, Toronto, ON M6H 1L7",
    "city": "Toronto",
    "state": "Ontario",
    "state_code": "",
    "postal_code": "M6H 1L7",
    "latitude": 43.6611925,
    "longitude": -79.4284194,
    "rating": 4.4,
    "reviews": 69,
    "place_id": "ChIJvzoORV40K4gRHUNeUPiTAQk"
  },
  {
    "name": "Accurely Tax",
    "category": "Tax preparation service",
    "phone": "+1 647-893-8016",
    "website": "",
    "address": "2275 Lake Shore Blvd W Unit 319, Etobicoke, ON M8V 3Y3",
    "city": "Etobicoke",
    "state": "Ontario",
    "state_code": "",
    "postal_code": "M8V 3Y3",
    "latitude": 43.6195689,
    "longitude": -79.4852064,
    "rating": 5.0,
    "reviews": 15,
    "place_id": "ChIJkeaEL2c3K4gREXDH30boATc"
  },
  {
    "name": "Maroof HS CPA Professional Corporation",
    "category": "Tax consultant",
    "phone": "+1 647-724-4308",
    "website": "http://www.maroofhs.com/",
    "address": "320 Bay St. Suite 101, Off 469, Toronto, ON M5H 4A6",
    "city": "Toronto",
    "state": "Ontario",
    "state_code": "",
    "postal_code": "M5H 4A6",
    "latitude": 43.6495662,
    "longitude": -79.3809606,
    "rating": 4.9,
    "reviews": 154,
    "place_id": "ChIJU5Y-fpE7K4gRZyKLAw1Ly0w"
  },
  {
    "name": "ProTaxVille \u2013 Corporate Tax & Small Business Accounting Services",
    "category": "Tax consultant",
    "phone": "+1 647-500-6568",
    "website": "https://www.protaxville.ca/",
    "address": "33 Shore Breeze Dr, Etobicoke, ON M8V 0G1",
    "city": "Etobicoke",
    "state": "Ontario",
    "state_code": "",
    "postal_code": "M8V 0G1",
    "latitude": 43.6240074,
    "longitude": -79.4792379,
    "rating": 4.9,
    "reviews": 46,
    "place_id": "ChIJ5bh0g-c3K4gRrMEH7fNOFdc"
  },
  {
    "name": "YA ZOOL TAX SERVICES",
    "category": "Tax preparation service",
    "phone": "+1 416-588-2563",
    "website": "",
    "address": "1461 Davenport Rd, Toronto, ON M6H 2H6",
    "city": "Toronto",
    "state": "Ontario",
    "state_code": "",
    "postal_code": "M6H 2H6",
    "latitude": 43.6723198,
    "longitude": -79.4432856,
    "rating": 4.8,
    "reviews": 42,
    "place_id": "ChIJpwVNx200K4gRxEzxHb7L1ZE"
  },
  {
    "name": "Canadian Latin Centre Inc. Tax Consultants",
    "category": "Tax preparation service",
    "phone": "+1 416-534-0020",
    "website": "",
    "address": "1081 Bloor St W, Toronto, ON M6H 1M5",
    "city": "Toronto",
    "state": "Ontario",
    "state_code": "",
    "postal_code": "M6H 1M5",
    "latitude": 43.6601434,
    "longitude": -79.4333084,
    "rating": 4.8,
    "reviews": 20,
    "place_id": "ChIJcTZ8XFw0K4gRECavIq59vSI"
  },
  {
    "name": "SAL ACCOUNTING",
    "category": "Tax preparation service",
    "phone": "+1 416-848-8470",
    "website": "http://salaccounting.ca/%3F%26utm_source%3Dgoogle%26utm_medium%3Dorganic%26utm_campaign%3Dgbp-toronto-website-link",
    "address": "330 Bay St. Unit 1401, Toronto, ON M5J 0B6",
    "city": "Toronto",
    "state": "Ontario",
    "state_code": "",
    "postal_code": "M5J 0B6",
    "latitude": 43.6499932,
    "longitude": -79.3811834,
    "rating": 5.0,
    "reviews": 78,
    "place_id": "ChIJpzSDZOQ1K4gR5x8FvfkFgcE"
  },
  {
    "name": "FIRPTA CANADA",
    "category": "Tax preparation service",
    "phone": "+1 647-794-6878",
    "website": "http://www.firptacanada.ca/",
    "address": "2 Bloor St W suite 700, Toronto, ON M4W 3E2",
    "city": "Toronto",
    "state": "Ontario",
    "state_code": "",
    "postal_code": "M4W 3E2",
    "latitude": 43.6704494,
    "longitude": -79.38715479999999,
    "rating": 5.0,
    "reviews": 142,
    "place_id": "ChIJx556gD81K4gRcag08MPnrS8"
  },
  {
    "name": "New Generation Tax",
    "category": "Tax preparation service",
    "phone": "+1 416-596-2288",
    "website": "http://www.newgenerationtax.com/",
    "address": "222 Spadina Ave. Unit 129, Toronto, ON M5T 3B3",
    "city": "Toronto",
    "state": "Ontario",
    "state_code": "",
    "postal_code": "M5T 3B3",
    "latitude": 43.6510337,
    "longitude": -79.3980359,
    "rating": 4.6,
    "reviews": 21,
    "place_id": "ChIJywlhWcM0K4gRIrhl1CGBoEY"
  },
  {
    "name": "OnTarget Accounting and Tax Services",
    "category": "Tax preparation",
    "phone": "+1 416-320-7699",
    "website": "http://www.ontargettax.ca/",
    "address": "2086 Lawrence Ave W #5, Toronto, ON M9N 1J1",
    "city": "Toronto",
    "state": "Ontario",
    "state_code": "",
    "postal_code": "M9N 1J1",
    "latitude": 43.6998349,
    "longitude": -79.5182494,
    "rating": 5.0,
    "reviews": 68,
    "place_id": "ChIJv6kRrmsxK4gRshHaRKdBpas"
  },
  {
    "name": "Digital Tax Help",
    "category": "Tax preparation service",
    "phone": "+1 416-356-5853",
    "website": "",
    "address": "1920 Yonge St #200, Toronto, ON M4S 3E2",
    "city": "Toronto",
    "state": "Ontario",
    "state_code": "",
    "postal_code": "M4S 3E2",
    "latitude": 43.6986776,
    "longitude": -79.39689729999999,
    "rating": 4.1,
    "reviews": 9,
    "place_id": "ChIJq2j43co0K4gRhquNe79bdr8"
  },
  {
    "name": "Sukh Tax & Financial Services",
    "category": "Tax preparation service",
    "phone": "+1 905-456-0660",
    "website": "http://www.sukhtax.com/",
    "address": "488 Eglinton Ave W #18, Mississauga, ON L5R 0G2",
    "city": "Mississauga",
    "state": "Ontario",
    "state_code": "",
    "postal_code": "L5R 0G2",
    "latitude": 43.5969908,
    "longitude": -79.6621831,
    "rating": 4.9,
    "reviews": 406,
    "place_id": "ChIJFyS3ndxBK4gRgH4zy-c-Mkg"
  },
  {
    "name": "Softron Tax",
    "category": "Tax preparation service",
    "phone": "+1 416-519-6955",
    "website": "https://www.softrontax.com/",
    "address": "Main Level by Escalator, 2300 Yonge St Unit M009, Toronto, ON M4P 1E4",
    "city": "Toronto",
    "state": "Ontario",
    "state_code": "",
    "postal_code": "M4P 1E4",
    "latitude": 43.7072693,
    "longitude": -79.3996009,
    "rating": 4.9,
    "reviews": 127,
    "place_id": "ChIJvTUCRn4zK4gRuElX2_X8wiM"
  },
  {
    "name": "Premier Tax Professionals",
    "category": "Tax preparation service",
    "phone": "+1 416-358-4406",
    "website": "https://premiertax.ca/",
    "address": "3161 Dufferin St, North York, ON M6A 2S9",
    "city": "North York",
    "state": "Ontario",
    "state_code": "",
    "postal_code": "M6A 2S9",
    "latitude": 43.717447,
    "longitude": -79.4550646,
    "rating": 5.0,
    "reviews": 36,
    "place_id": "ChIJYZdmOcwzK4gRmxUIZQAFljs"
  },
  {
    "name": "AOD Tax Services",
    "category": "Tax preparation service",
    "phone": "+1 416-731-0627",
    "website": "http://aodtaxservice.com/",
    "address": "2301 Keele St #206, North York, ON M6M 3Z9",
    "city": "CA",
    "state": "Ontario",
    "state_code": "",
    "postal_code": "M6M 3Z9",
    "latitude": 43.70424149999999,
    "longitude": -79.4762932,
    "rating": 5.0,
    "reviews": 55,
    "place_id": "ChIJj2mkAnYxK4gRLboKwmPiDy0"
  },
  {
    "name": "FORTAX",
    "category": "Tax preparation",
    "phone": "+1 416-220-6428",
    "website": "https://fortax.ca/",
    "address": "2 St Clair Ave W 18th Floor, Toronto, ON M4V 1L5",
    "city": "Toronto",
    "state": "Ontario",
    "state_code": "",
    "postal_code": "M4V 1L5",
    "latitude": 43.6883105,
    "longitude": -79.39464079999999,
    "rating": 4.9,
    "reviews": 78,
    "place_id": "ChIJoYhm00QzK4gRdLvv4lSAQ3o"
  },
  {
    "name": "Parkdale Accounting",
    "category": "Tax preparation service",
    "phone": "+1 416-533-4554",
    "website": "https://5e5bc0fce87ac.site123.me/",
    "address": "1436 Queen St W, Toronto, ON M6K 1M2",
    "city": "Toronto",
    "state": "Ontario",
    "state_code": "",
    "postal_code": "M6K 1M2",
    "latitude": 43.6408944,
    "longitude": -79.4357084,
    "rating": 4.5,
    "reviews": 76,
    "place_id": "ChIJTzky7K01K4gR0Az95rcAwRU"
  },
  {
    "name": "Team Taxman",
    "category": "Tax preparation service",
    "phone": "+1 416-653-1333",
    "website": "http://www.teamtaxman.ca/",
    "address": "1542 Jane St 2nd floor, Toronto, ON M9N 2R5",
    "city": "Toronto",
    "state": "Ontario",
    "state_code": "",
    "postal_code": "M9N 2R5",
    "latitude": 43.6977057,
    "longitude": -79.5027654,
    "rating": 4.0,
    "reviews": 36,
    "place_id": "ChIJ54k501UxK4gRue96Qq6X3DI"
  },
  {
    "name": "Bonaventure Personal Tax Advisors",
    "category": "Tax preparation",
    "phone": "+1 647-351-5099",
    "website": "http://www.personaltaxadvisors.ca/",
    "address": "174 Spadina Ave. Ste 509, Toronto, ON M5T 3B2",
    "city": "Toronto",
    "state": "Ontario",
    "state_code": "",
    "postal_code": "M5T 3B2",
    "latitude": 43.6493154,
    "longitude": -79.3969213,
    "rating": 4.8,
    "reviews": 145,
    "place_id": "ChIJo4v2Vts0K4gRor-ZgmHCvdU"
  },
  {
    "name": "Abadir Tax & Business Ltd.",
    "category": "Tax preparation service",
    "phone": "+1 416-245-6937",
    "website": "http://www.abadirtax.com/",
    "address": "2011 Lawrence Ave W #19, York, ON M9N 3V3",
    "city": "York",
    "state": "Ontario",
    "state_code": "",
    "postal_code": "M9N 3V3",
    "latitude": 43.6998472,
    "longitude": -79.5105583,
    "rating": 5.0,
    "reviews": 18,
    "place_id": "ChIJizP_TcUwK4gRt3viQ7w9GyM"
  },
  {
    "name": "Sigma Tax",
    "category": "Tax preparation service",
    "phone": "+1 416-244-3000",
    "website": "https://sigmatax.com/",
    "address": "1700 Wilson Ave, North York, ON M3L 1B2",
    "city": "North York",
    "state": "Ontario",
    "state_code": "",
    "postal_code": "M3L 1B2",
    "latitude": 43.721784,
    "longitude": -79.5117034,
    "rating": 4.5,
    "reviews": 30,
    "place_id": "ChIJn_OmxwMxK4gRwd_5VIqKYpM"
  },
  {
    "name": "Yorda Income Tax Services",
    "category": "Tax preparation service",
    "phone": "+1 647-700-7407",
    "website": "https://www.yordatax.com/",
    "address": "1219 St Clair Ave W U8, Toronto, ON M6E 1B5",
    "city": "Toronto",
    "state": "Ontario",
    "state_code": "",
    "postal_code": "M6E 1B5",
    "latitude": 43.6772848,
    "longitude": -79.4447362,
    "rating": 4.9,
    "reviews": 48,
    "place_id": "ChIJQ8W5qT81K4gRa19kVcWz7oI"
  },
  {
    "name": "Z & Z Accounting & Income Tax Service",
    "category": "Tax preparation service",
    "phone": "+1 416-766-1853",
    "website": "",
    "address": "3102 Dundas St W, Toronto, ON M6P 1Z8",
    "city": "Toronto",
    "state": "Ontario",
    "state_code": "",
    "postal_code": "M6P 1Z8",
    "latitude": 43.665624,
    "longitude": -79.4730489,
    "rating": 3.8,
    "reviews": 9,
    "place_id": "ChIJYQAup582K4gR9YDM5CtW4jk"
  },
  {
    "name": "Liberty Tax",
    "category": "Tax preparation",
    "phone": "+1 647-559-3984",
    "website": "https://www.libertytaxcanada.ca/70214",
    "address": "686 Yonge St, Toronto, ON M4Y 2A6",
    "city": "Toronto",
    "state": "Ontario",
    "state_code": "",
    "postal_code": "M4Y 2A6",
    "latitude": 43.6675712,
    "longitude": -79.3858151,
    "rating": 4.8,
    "reviews": 550,
    "place_id": "ChIJZe1AfPM1K4gRqVZQR9h0C3s"
  },
  {
    "name": "Blackspark",
    "category": "Tax preparation service",
    "phone": "+1 855-667-7275",
    "website": "https://www.blackspark.ca/%3Futm_source%3Dgoogle%26utm_medium%3Dorganic%26utm_campaign%3Dlocal",
    "address": "140 Yonge St, Toronto, ON M5C 1X6",
    "city": "Toronto",
    "state": "Ontario",
    "state_code": "",
    "postal_code": "M5C 1X6",
    "latitude": 43.6510808,
    "longitude": -79.3793118,
    "rating": 4.7,
    "reviews": 28,
    "place_id": "ChIJc68P_-7L1IkRAqEzZTxs8eA"
  },
  {
    "name": "The Taxperts Group",
    "category": "Tax preparation service",
    "phone": "+1 416-493-0444",
    "website": "https://www.taxpertsgroup.ca/",
    "address": "2180 Yonge St Suite 305, 2nd Floor, Toronto, ON M4S 2B9",
    "city": "Toronto",
    "state": "Ontario",
    "state_code": "",
    "postal_code": "M4S 2B9",
    "latitude": 43.7047011,
    "longitude": -79.3981441,
    "rating": 4.4,
    "reviews": 5,
    "place_id": "ChIJ9XmDyz4zK4gRpS0FbL5gxKo"
  },
  {
    "name": "LP Tax & Accounting Service Inc",
    "category": "Tax preparation service",
    "phone": "+1 416-656-9650",
    "website": "https://www.lptax.com/",
    "address": "1287 St Clair Ave W Suite 200, Toronto, ON M6E 1B8",
    "city": "Toronto",
    "state": "Ontario",
    "state_code": "",
    "postal_code": "M6E 1B8",
    "latitude": 43.6767372,
    "longitude": -79.447734,
    "rating": 4.2,
    "reviews": 11,
    "place_id": null
  },
  {
    "name": "Multani Professional Tax Services, Professional Corporation",
    "category": "Tax consultant",
    "phone": "+1 647-786-5810",
    "website": "http://www.multanitax.ca/",
    "address": "347 Jane St, Toronto, ON M6S 3Z3",
    "city": "Toronto",
    "state": "Ontario",
    "state_code": "",
    "postal_code": "M6S 3Z3",
    "latitude": 43.6572948,
    "longitude": -79.4875619,
    "rating": 5.0,
    "reviews": 23,
    "place_id": "ChIJLWYU_ME1K4gRwi80EGA4rPI"
  },
  {
    "name": "Jesow Accounting and Income Tax Services",
    "category": "Tax preparation service",
    "phone": "+1 416-588-8774",
    "website": "",
    "address": "2192 Dundas St W BSMT, Toronto, ON M6R 1X1",
    "city": "Toronto",
    "state": "Ontario",
    "state_code": "",
    "postal_code": "M6R 1X1",
    "latitude": 43.653598,
    "longitude": -79.451026,
    "rating": 3.7,
    "reviews": 3,
    "place_id": "ChIJNVMQYzA0K4gR3DKnP11ki3M"
  },
  {
    "name": "Radha Tax & Accounting Services",
    "category": "Tax preparation service",
    "phone": "+1 416-636-2900",
    "website": "",
    "address": "3326 Keele St #100b, North York, ON M3M 2H7",
    "city": "North York",
    "state": "Ontario",
    "state_code": "",
    "postal_code": "M3M 2H7",
    "latitude": 43.74404639999999,
    "longitude": -79.4867914,
    "rating": 4.6,
    "reviews": 18,
    "place_id": "ChIJ8Qy5U5MxK4gRQ1-HJlqTUlg"
  },
  {
    "name": "H&R Block",
    "category": "Tax preparation service",
    "phone": "+1 416-240-0618",
    "website": "https://www.hrblock.ca/stores/1933-weston-rd/",
    "address": "1933 Weston Rd, Weston, ON M9N 1W7",
    "city": "CA",
    "state": "Ontario",
    "state_code": "",
    "postal_code": "M9N 1W7",
    "latitude": 43.7006413,
    "longitude": -79.5172996,
    "rating": 4.8,
    "reviews": 248,
    "place_id": "ChIJ1dArOtgwK4gR2nRYFtSnkNg"
  },
  {
    "name": "Hope Canada Tax",
    "category": "Tax preparation service",
    "phone": "+1 416-558-5006",
    "website": "https://hopecanadatax.ca/",
    "address": "301 Spadina Ave. Unit 8, Toronto, ON M5T 2E6",
    "city": "Toronto",
    "state": "Ontario",
    "state_code": "",
    "postal_code": "M5T 2E6",
    "latitude": 43.653668,
    "longitude": -79.3979487,
    "rating": 3.4,
    "reviews": 13,
    "place_id": "ChIJH9efkMM0K4gRgEmnozMHs1U"
  },
  {
    "name": "Liberty Tax",
    "category": "Tax preparation",
    "phone": "+1 647-559-2966",
    "website": "https://www.libertytaxcanada.ca/70430",
    "address": "2815 Dundas St W, Toronto, ON M6P 1Y6",
    "city": "Toronto",
    "state": "Ontario",
    "state_code": "",
    "postal_code": "M6P 1Y6",
    "latitude": 43.6652496,
    "longitude": -79.46319969999999,
    "rating": 4.6,
    "reviews": 54,
    "place_id": "ChIJCcnEM6g1K4gR-l_sMXlLB-w"
  },
  {
    "name": "OLS Partners Inc.",
    "category": "Tax preparation service",
    "phone": "+1 416-268-1908",
    "website": "https://olspartners.com/",
    "address": "2445 Bloor St W Unit 26 & 27, Toronto, ON M6S 1P7",
    "city": "Toronto",
    "state": "Ontario",
    "state_code": "",
    "postal_code": "M6S 1P7",
    "latitude": 43.6490606,
    "longitude": -79.4842604,
    "rating": 4.5,
    "reviews": 24,
    "place_id": "ChIJG_bilYo3K4gRGX7c-ghGC6Y"
  },
  {
    "name": "Save Tax Solutions Mississauga",
    "category": "Tax preparation service",
    "phone": "+1 905-461-2111",
    "website": "http://www.savetaxsolutions.com/",
    "address": "2980 Drew Rd #118, Mississauga, ON L4T 0A7",
    "city": "Mississauga",
    "state": "Ontario",
    "state_code": "",
    "postal_code": "L4T 0A7",
    "latitude": 43.7102461,
    "longitude": -79.65198149999999,
    "rating": 4.9,
    "reviews": 928,
    "place_id": "ChIJi28Uru07K4gRCEbZPMdzCdw"
  },
  {
    "name": "U.S. Taxback Income Tax Services",
    "category": "Tax preparation service",
    "phone": "+1 877-922-5022",
    "website": "https://ustaxback.com/",
    "address": "106A Banff Rd, Toronto, ON M4P 2P5",
    "city": "Toronto",
    "state": "Ontario",
    "state_code": "",
    "postal_code": "M4P 2P5",
    "latitude": 43.7102077,
    "longitude": -79.3825741,
    "rating": 3.0,
    "reviews": 2,
    "place_id": "ChIJsa9ykW0tK4gRNe5f13JgOhc"
  },
  {
    "name": "Taxants",
    "category": "Tax preparation",
    "phone": "+1 647-987-4025",
    "website": "https://accountingops.ca/",
    "address": "7215 Goreway Dr Unit 1A11, Mississauga, ON L4T 0B4",
    "city": "Mississauga",
    "state": "Ontario",
    "state_code": "",
    "postal_code": "L4T 0B4",
    "latitude": 43.718968,
    "longitude": -79.6371238,
    "rating": 4.8,
    "reviews": 137,
    "place_id": "ChIJG51AyJIVK4gR9V1btqOyIlk"
  },
  {
    "name": "H&R Block",
    "category": "Tax preparation service",
    "phone": "+1 416-630-7661",
    "website": "https://www.hrblock.ca/stores/658-wilson-ave/",
    "address": "658 Wilson Ave, Downsview, ON M3K 1E1",
    "city": "Downsview",
    "state": "Ontario",
    "state_code": "",
    "postal_code": "M3K 1E1",
    "latitude": 43.732221,
    "longitude": -79.4614053,
    "rating": 4.7,
    "reviews": 182,
    "place_id": "ChIJY-Kdjy8yK4gRw4ABkv_ufCg"
  },
  {
    "name": "Iqbal Professional Corporation",
    "category": "Tax preparation service",
    "phone": "+1 647-204-2907",
    "website": "http://www.iqbalprofessional.com/",
    "address": "60 Atlantic Ave, Toronto, ON M6K 0C4",
    "city": "Toronto",
    "state": "Ontario",
    "state_code": "",
    "postal_code": "M6K 0C4",
    "latitude": 43.6383403,
    "longitude": -79.4212003,
    "rating": 5.0,
    "reviews": 12,
    "place_id": "ChIJmRZMsvg1K4gRfN_Ht3_r58g"
  },
  {
    "name": "H&R Block",
    "category": "Tax preparation service",
    "phone": "+1 416-964-8355",
    "website": "https://www.hrblock.ca/stores/362-bloor-st-w/",
    "address": "362 Bloor St W, Toronto, ON M5S 1X2",
    "city": "Toronto",
    "state": "Ontario",
    "state_code": "",
    "postal_code": "M5S 1X2",
    "latitude": 43.6664356,
    "longitude": -79.40579149999999,
    "rating": 3.2,
    "reviews": 243,
    "place_id": "ChIJsbSPY5Y0K4gRktnR73-VKmA"
  },
  {
    "name": "Blue Ocean Tax",
    "category": "Tax preparation service",
    "phone": "+1 416-828-7462",
    "website": "https://www.blueocean.tax/",
    "address": "250 Dundas St W #401, Mississauga, ON L5B 1J2",
    "city": "Mississauga",
    "state": "Ontario",
    "state_code": "",
    "postal_code": "L5B 1J2",
    "latitude": 43.5748347,
    "longitude": -79.62209299999999,
    "rating": 4.8,
    "reviews": 146,
    "place_id": "ChIJAQBQM-9GK4gR_XCol_DsbaQ"
  },
  {
    "name": "Lory Berger The Firm",
    "category": "Tax preparation service",
    "phone": "+1 416-362-5869",
    "website": "http://www.bergerthefirm.com/",
    "address": "180 Bloor St W Suite 806, Toronto, ON M5S 2V6",
    "city": "Toronto",
    "state": "Ontario",
    "state_code": "",
    "postal_code": "M5S 2V6",
    "latitude": 43.6688621,
    "longitude": -79.3949516,
    "rating": 5.0,
    "reviews": 6,
    "place_id": "ChIJj3LHAJY0K4gRfNnG2Aqn51Y"
  },
  {
    "name": "E&k Financial Services & Tax Services",
    "category": "Tax preparation service",
    "phone": "+1 416-241-4075",
    "website": "",
    "address": "2095 Weston Rd, York, ON M9N 1X7",
    "city": "York",
    "state": "Ontario",
    "state_code": "",
    "postal_code": "M9N 1X7",
    "latitude": 43.7023336,
    "longitude": -79.5231515,
    "rating": 5.0,
    "reviews": 3,
    "place_id": "ChIJaTOwUdowK4gRnJzXeT9vqL0"
  },
  {
    "name": "Harmony Tax Services",
    "category": "Tax preparation service",
    "phone": "+1 416-704-3495",
    "website": "http://harmonytaxservices.com/",
    "address": "720 Bathurst St, Toronto, ON M5S 2R4",
    "city": "Toronto",
    "state": "Ontario",
    "state_code": "",
    "postal_code": "M5S 2R4",
    "latitude": 43.6631463,
    "longitude": -79.410822,
    "rating": 4.0,
    "reviews": 4,
    "place_id": "ChIJ0237RJQ0K4gRTnvxYKvem9o"
  },
  {
    "name": "TAX-EZ Financial Services Inc",
    "category": "Tax preparation service",
    "phone": "+1 905-909-0901",
    "website": "http://www.tax-ez.ca/",
    "address": "4255 Sherwoodtowne Blvd, Mississauga, ON L4Z 2G6",
    "city": "Mississauga",
    "state": "Ontario",
    "state_code": "",
    "postal_code": "L4Z 2G6",
    "latitude": 43.6006686,
    "longitude": -79.6395008,
    "rating": 4.1,
    "reviews": 17,
    "place_id": "ChIJEy_w2zBHK4gRu77hyBteb8M"
  },
  {
    "name": "Tax Magic Mississauga",
    "category": "Tax consultant",
    "phone": "+1 905-956-8000",
    "website": "http://www.taxmagic.ca/",
    "address": "7215 Goreway Dr #1a04, Mississauga, ON L4T 0B4",
    "city": "Mississauga",
    "state": "Ontario",
    "state_code": "",
    "postal_code": "L4T 0B4",
    "latitude": 43.71987,
    "longitude": -79.63798,
    "rating": 4.9,
    "reviews": 77,
    "place_id": "ChIJhdN8Qe07K4gRFmLz7ArzEYo"
  },
  {
    "name": "Taxwide",
    "category": "Tax preparation",
    "phone": "+1 905-949-2222",
    "website": "http://taxwide.com/",
    "address": "377 Burnhamthorpe Rd E, Mississauga, ON L5A 3Y1",
    "city": "Mississauga",
    "state": "Ontario",
    "state_code": "",
    "postal_code": "L5A 3Y1",
    "latitude": 43.602861,
    "longitude": -79.6271115,
    "rating": 4.8,
    "reviews": 265,
    "place_id": "ChIJ-xb4mxVHK4gR8yRAsuJsVTw"
  },
  {
    "name": "Amer Accounting & Tax Services Inc.",
    "category": "Tax preparation service",
    "phone": "+1 437-477-7505",
    "website": "https://amer-tax.netlify.app/",
    "address": "325 Central Pkwy W #35, Mississauga, ON L5B 3X9",
    "city": "Mississauga",
    "state": "Ontario",
    "state_code": "",
    "postal_code": "L5B 3X9",
    "latitude": 43.58268,
    "longitude": -79.63842,
    "rating": 5.0,
    "reviews": 50,
    "place_id": "ChIJf7YkW95HK4gR-fJs6wSh6RU"
  },
  {
    "name": "Tax Metrons",
    "category": "Tax preparation service",
    "phone": "+1 905-279-9389",
    "website": "http://taxmetrons.com/",
    "address": "4784 Apple Blossom Cir, Mississauga, ON L5V 3C7",
    "city": "Mississauga",
    "state": "Ontario",
    "state_code": "",
    "postal_code": "L5V 3C7",
    "latitude": 43.5863621,
    "longitude": -79.6664503,
    "rating": 5.0,
    "reviews": 106,
    "place_id": "ChIJ5RkhyCZBK4gRD14r0jxv_y0"
  },
  {
    "name": "H&R Block",
    "category": "Tax preparation service",
    "phone": "+1 416-233-2354",
    "website": "https://www.hrblock.ca/stores/801-the-queensway-e-2/",
    "address": "801 The Queensway #2, Etobicoke, ON M8Z 1N4",
    "city": "CA",
    "state": "Ontario",
    "state_code": "",
    "postal_code": "M8Z 1N4",
    "latitude": 43.6252283,
    "longitude": -79.5067363,
    "rating": 4.0,
    "reviews": 47,
    "place_id": "ChIJB8KJAcs3K4gRfb1JR0FRnqE"
  },
  {
    "name": "H&R Block",
    "category": "Tax preparation service",
    "phone": "+1 416-363-8914",
    "website": "https://www.hrblock.ca/stores/7-shuter-st/",
    "address": "7 Shuter St, Toronto, ON M5B 2H8",
    "city": "Toronto",
    "state": "Ontario",
    "state_code": "",
    "postal_code": "M5B 2H8",
    "latitude": 43.6540219,
    "longitude": -79.3796705,
    "rating": 3.6,
    "reviews": 60,
    "place_id": "ChIJIaaVwUXL1IkRbdgNxYpr_oc"
  },
  {
    "name": "H&R Block",
    "category": "Tax preparation service",
    "phone": "+1 416-767-8301",
    "website": "https://www.hrblock.ca/stores/2561-st-clair-ave-w-b5/",
    "address": "2561 St Clair Ave W B5, York, ON M6P 1Y8",
    "city": "CA",
    "state": "Ontario",
    "state_code": "",
    "postal_code": "M6P 1Y8",
    "latitude": 43.6672272,
    "longitude": -79.4867994,
    "rating": 3.7,
    "reviews": 43,
    "place_id": "ChIJC3cN5h00K4gRVjRhbyZkCM0"
  },
  {
    "name": "H&R Block",
    "category": "Tax preparation service",
    "phone": "+1 647-217-4337",
    "website": "https://www.hrblock.ca/stores/220-yonge-st-h109a/",
    "address": "220 Yonge St H109A, Toronto, ON M5B 2H1",
    "city": "Toronto",
    "state": "Ontario",
    "state_code": "",
    "postal_code": "M5B 2H1",
    "latitude": 43.6546575,
    "longitude": -79.3806966,
    "rating": 4.1,
    "reviews": 54,
    "place_id": "ChIJ7xDrU8s0K4gRc9DztUZALL4"
  },
  {
    "name": "Artbooks",
    "category": "Tax preparation",
    "phone": "+1 416-466-4435",
    "website": "https://www.artbooks.to/",
    "address": "720 Spadina Ave. #513, Toronto, ON M5S 2V1",
    "city": "Toronto",
    "state": "Ontario",
    "state_code": "",
    "postal_code": "M5S 2V1",
    "latitude": 43.6653472,
    "longitude": -79.4034356,
    "rating": 5.0,
    "reviews": 15,
    "place_id": "ChIJbznHAJY0K4gRy79gj268NW4"
  },
  {
    "name": "Legend Fusions | Tax accountant Mississauga",
    "category": "Tax consultant",
    "phone": "+1 647-877-2961",
    "website": "https://legendfusions.com/ca/",
    "address": "4 Robert Speck Pkwy #1500, Mississauga, ON L4Z 1S1",
    "city": "Mississauga",
    "state": "Ontario",
    "state_code": "",
    "postal_code": "L4Z 1S1",
    "latitude": 43.5971929,
    "longitude": -79.6359437,
    "rating": 5.0,
    "reviews": 120,
    "place_id": "ChIJsWEYCxvS1ksRlu-_K1t7QAE"
  },
  {
    "name": "HASSAN TAX LTD.",
    "category": "Tax preparation service",
    "phone": "+1 438-357-6666",
    "website": "https://www.hassantax.ca/",
    "address": "250 Webb Dr, Mississauga, ON L5B 3Z4",
    "city": "Mississauga",
    "state": "Ontario",
    "state_code": "",
    "postal_code": "L5B 3Z4",
    "latitude": 43.5874227,
    "longitude": -79.6391999,
    "rating": 5.0,
    "reviews": 31,
    "place_id": "ChIJw-S9BN5HK4gRUtdKk0pyW0Y"
  },
  {
    "name": "PRIME TAX SOLUTIONS",
    "category": "Tax consultant",
    "phone": "+1 905-232-6767",
    "website": "http://www.primetaxsol.ca/",
    "address": "3411 Fieldgate Dr, Mississauga, ON L4X 2J4",
    "city": "Mississauga",
    "state": "Ontario",
    "state_code": "",
    "postal_code": "L4X 2J4",
    "latitude": 43.624274,
    "longitude": -79.588025,
    "rating": 4.7,
    "reviews": 112,
    "place_id": "ChIJ80ARInQ4K4gRNw7EuIGzY6A"
  },